"민방위대피시설명",민방위대피시설구분,소재지도로명주소,소재지지번주소,위도,경도,민방위대피시설면적,대피가능인원수,개방여부,평시활용유형,관리기관전화번호,관리기관명,데이터기준일자
"신화 아파트",공공용,"강원도 강릉시 강변로 270 (노암동, 신화아파트)",강원도 강릉시 노암동 711,37.74933573,128.8982634,9543,11567,Y,지하주차장,033-660-3931,강릉시 강남동주민센터,2021-06-07
"양우내안애 아파트",공공용,"강원도 강릉시 강변로 328-8 (노암동, 양우내안애아파트)",강원도 강릉시 노암동 844,37.75213507,128.9038762,11517,13960,Y,주차장,033-660-3931,강릉시 강남동주민센터,2021-06-07
"남산현대 아파트(노암동)",공공용,"강원도 강릉시 남부로125번길 11 (노암동, 남산현대아파트)",강원도 강릉시 노암동 610,37.74265822,128.8922437,3877,4699,Y,지하주차장,033-660-3931,강릉시 강남동주민센터,2021-06-07
"고합로얄아파트",공공용,"강원도 강릉시 남부로125번길 23 (노암동, 고합아파트)",강원도 강릉시 노암동 618-17,37.743668,128.8927722,1074,1301,Y,지하주차장,033-660-3931,강릉시 강남동주민센터,2021-06-07
"노암한라1차 아파트",공공용,"강원도 강릉시 노암길42번길 28 (노암동, 노암한라1차아파트)",강원도 강릉시 노암동 390,37.74458914,128.9012278,3371,4086,Y,지하주차장,033-660-3931,강릉시 강남동주민센터,2021-06-07
"노암 현대 아파트",공공용,"강원도 강릉시 율곡로 2733 (노암동, 현대아파트)",강원도 강릉시 노암동 245-5,37.75061427,128.9056706,766,928,Y,지하주차장,033-660-3931,강릉시 강남동주민센터,2021-06-07
"덕원 아파트",공공용,"강원도 강릉시 죽헌길85번길 25 (지변동, 덕원아파트)",강원도 강릉시 지변동 334,37.7780414033,128.8730673,2310,2800,Y,지하주차장,033-660-3997,강릉시 경포동주민센터,2021-06-07
LH선수촌 8단지 아파트,공공용,"강원도 강릉시 선수촌로 113 (유천동, 엘에이치선수촌8단지)",강원도 강릉시 유천동 778,37.7621459230,128.8678723825,30733,37252,Y,지하주차장,033-660-3997,강릉시 경포동주민센터,2021-06-07
"부영2차 아파트(교1동)",공공용,"강원도 강릉시 가작로 71 (교동, 부영아파트)",강원도 강릉시 교동 1747,37.76903325,128.8840279,2695,3266,Y,지하주차장,033-660-3774,강릉시 교1동주민센터,2021-06-07
"교1동 주공1차아파트",공공용,"강원도 강릉시 가작로 78 (교동, 강릉 교동(1)주공아파트)",강원도 강릉시 교동 1750,37.76625466,128.8833764,3595,4357,Y,지하주차장,033-660-3774,강릉시 교1동주민센터,2021-06-07
"현대2차 아파트(교1동)",공공용,"강원도 강릉시 교동광장로 138-13 (교동, 교동2차현대아파트)",강원도 강릉시 교동 1767,37.7631291,128.8798566,829,1004,Y,지하주차장,033-660-3774,강릉시 교1동주민센터,2021-06-07
"부영5차 아파트(교1동)",공공용,"강원도 강릉시 교동광장로 163 (교동, 부영아파트)",강원도 강릉시 교동 1762,37.76382548,128.8825068,1672,2026,Y,지하주차장,033-660-3774,강릉시 교1동주민센터,2021-06-07
"현대1차 아파트",공공용,"강원도 강릉시 옛강일길 41 (교동, 현대아파트)",강원도 강릉시 교동 828-19,37.764405,128.8896937,991,1201,Y,주차장,033-660-3774,강릉시 교1동주민센터,2021-06-07
"하이빌현대 아파트",공공용,"강원도 강릉시 원대로128번길 14 (교동, 현대하이빌아파트)",강원도 강릉시 교동 1759,37.76523842,128.8833824,3172,3844,Y,지하주차장,033-660-3774,강릉시 교1동주민센터,2021-06-07
"부영1차 아파트(교1동)",공공용,"강원도 강릉시 정원로 53-4 (교동, 부영아파트)",강원도 강릉시 교동 1773,37.76219406,128.8745405,3316,4019,Y,지하주차장,033-660-3774,강릉시 교1동주민센터,2021-06-07
"교1동 부영6차아파트",공공용,"강원도 강릉시 정원로 53-5 (교동, 부영아파트)",강원도 강릉시 교동 1775,37.76167309,128.8758028,4817,5838,Y,지하주차장,033-660-3774,강릉시 교1동주민센터,2021-06-07
"부영3차아파트",공공용,"강원도 강릉시 하슬라로 124 (교동, 부영3차아파트)",강원도 강릉시 교동 1780,37.76045924,128.8739612,5120,6206,Y,지하주차장,033-660-3774,강릉시 교1동주민센터,2021-06-07
"롯데캐슬 2단지 아파트",공공용,"강원도 강릉시 화부산로111번길 24 (교동, 강릉교동롯데캐슬2단지)",강원도 강릉시 교동 1983,37.76676821,128.8897851,8696,10540,Y,지하주차장,033-660-3774,강릉시 교1동주민센터,2021-06-07
"롯데캐슬 1단지 아파트",공공용,"강원도 강릉시 화부산로99번길 12 (교동, 강릉교동롯데캐슬1단지)",강원도 강릉시 교동 1982,37.76626539,128.887884,8696,10540,Y,지하주차장,033-660-3774,강릉시 교1동주민센터,2021-06-07
"한신 아파트(견소동)",공공용,"강원도 강릉시 경강로2539번길 8 (견소동, 송정한신아파트)",강원도 강릉시 견소동 202,37.77389245,128.9394207,2980,1629,Y,주차장,033-660-3809,강릉시 교2동주민센터,2021-06-07
"한신아파트(교2동)",공공용,"강원도 강릉시 명륜로 95-7 (교동, 교동한신아파트)",강원도 강릉시 교동 46-1,37.76832359,128.8994978,1344,1629,Y,주차장,033-660-3809,강릉시 교2동주민센터,2021-06-07
"예성그린 2차아파트",공공용,"강원도 강릉시 명륜로 95-8 (교동, 예성그린2차아파트)",강원도 강릉시 교동 45-7,37.768326,128.9004747,492,600,Y,주차장,033-660-3809,강릉시 교2동주민센터,2021-06-07
"대림 아파트(교2동)",공공용,"강원도 강릉시 수리골길17번길 21 (교동, 교동대림아파트)",강원도 강릉시 교동 18-16,37.77186279,128.8981131,3977,4820,Y,지하주차장,033-660-3809,강릉시 교2동주민센터,2021-06-07
"이편한 세상 아파트",공공용,"강원도 강릉시 종합운동장길 92 (교동, 교동 이편한세상아파트)",강원도 강릉시 교동 357,37.77097892,128.8963882,5535,6709,Y,지하주차장,033-660-3809,강릉시 교2동주민센터,2021-06-07
"내곡한라 아파트",공공용,"강원도 강릉시 강변로 114 (내곡동, 한라아파트)",강원도 강릉시 내곡동 476,37.74368214,128.8807303,7466,9049,Y,지하주차장,033-660-3904,강릉시 내곡동주민센터,2021-06-07
"남산삼익 아파트",공공용,강원도 강릉시 남산초교길 43-6 (내곡동),강원도 강릉시 내곡동 130,37.743349,128.8916779,2715,3290,Y,지하주차장,033-660-3904,강릉시 내곡동주민센터,2021-06-07
"내곡현대 아파트",공공용,"강원도 강릉시 범일로 645 (내곡동, 내곡동 현대아파트)",강원도 강릉시 내곡동 469,37.74543586,128.8837334,3240,3927,Y,지하주차장,033-660-3904,강릉시 내곡동주민센터,2021-06-07
"입암 대인3차 아파트",공공용,"강원도 강릉시 강변로410번길 27 (입암동, 대인3차아파트)",강원도 강릉시 입암동 506-9,37.75650656,128.9120713,2644,3204,Y,주차장,033-660-3953,강릉시 성덕동주민센터,2021-06-07
"태평양 아파트",공공용,"강원도 강릉시 강변로410번길 31-5 (입암동, 태평양아파트)",강원도 강릉시 입암동 506-5,37.75613541,128.9125156,3352,4063,Y,지하주차장,033-660-3953,강릉시 성덕동주민센터,2021-06-07
"입암6주공 아파트",공공용,"강원도 강릉시 성덕포남로 39 (입암동, 입암6주공아파트)",강원도 강릉시 입암동 709-1,37.75765266,128.9198119,3680,4460,Y,지하주차장,033-660-3953,강릉시 성덕동주민센터,2021-06-07
"입암현대 아파트",공공용,"강원도 강릉시 용지로 19 (입암동, 입암현대아파트)",강원도 강릉시 입암동 440,37.752445,128.9116627,19126,23183,Y,지하주차장,033-660-3953,강릉시 성덕동주민센터,2021-06-07
"녹원 아파트",공공용,"강원도 강릉시 월대산로 57 (입암동, 녹원아파트)",강원도 강릉시 입암동 92-1,37.76038937,128.9166057,1124,1362,Y,주차장,033-660-3953,강릉시 성덕동주민센터,2021-06-07
"삼우은성 아파트",공공용,"강원도 강릉시 남강초교1길 55 (송정동, 삼우은성맨션아파트)",강원도 강릉시 송정동 940,37.76998846,128.9217358092,2696,3267,Y,주차장,033-660-3896,강릉시 송정동주민센터,2021-06-07
"대림 아파트(송정동)",공공용,"강원도 강릉시 남강초교2길 44 (송정동, 대림맨션아파트)",강원도 강릉시 송정동 940-23,37.7694861,128.9206944,2210,2678,Y,주차장,033-660-3896,강릉시 송정동주민센터,2021-06-07
"홈플러스",공공용,"강원도 강릉시 경강로 2120 (옥천동, 씨네몰)",강원도 강릉시 옥천동 189,37.755663,128.8986527,4397,5328,Y,지하주차장,033-660-3754,강릉시 옥천동주민센터,2021-06-07
"강릉 소방서",공공용,"강원도 강릉시 용지로 139 (옥천동, 강릉소방서)",강원도 강릉시 옥천동 325,37.761021,128.9021216,331,401,Y,"회의,교육",033-660-3754,강릉시 옥천동주민센터,2021-06-07
"동방타워맨션",공공용,강원도 강릉시 주문진읍 매맥이아랫길 24 (동방타워맨션),강원도 강릉시 주문진읍 교항리 18-6,37.87578046,128.8267661,2300,2787,Y,지하주차장,033-660-3426,강릉시 주문진읍사무소,2021-06-07
"우신 아파트",공공용,강원도 강릉시 주문진읍 보리골길 26 (우신그린피아아파트),강원도 강릉시 주문진읍 교항리 1166-1,37.87224553,128.8245119765,1559,2913,Y,지하주차장,033-660-3426,강릉시 주문진읍사무소,2021-06-07
"강원양돈농협 주문진점",공공용,강원도 강릉시 주문진읍 시장길 28,강원도 강릉시 주문진읍 교항리 184-31,37.8901961320,128.8274011,469,568,Y,지하추차장,033-660-3426,강릉시 주문진읍사무소,2021-06-07
"정우2차 아파트",공공용,강원도 강릉시 주문진읍 연주로 291-6 (정우2차아파트),강원도 강릉시 주문진읍 교항리 29-1,37.87796664,128.8268338,1001,1213,Y,지하주차장,033-660-3426,강릉시 주문진읍사무소,2021-06-07
"극동 아파트",공공용,강원도 강릉시 주문진읍 웃사다리4길 20 (극동아파트),강원도 강릉시 주문진읍 교항리 240-11,37.88802744,128.8213105217,1143,1385,Y,기타,033-660-3426,강릉시 주문진읍사무소,2021-06-07
"우리약국",공공용,강원도 강릉시 주문진읍 주문로 97,강원도 강릉시 주문진읍 주문리 333-2,37.892721,128.8266068656,400,484,Y,지하주차장,033-660-3426,강릉시 주문진읍사무소,2021-06-07
"동명 아파트",공공용,강원도 강릉시 주문진읍 학교1길 9 (동명아파트),강원도 강릉시 주문진읍 교항리 67-3,37.88221251,128.8293118,658,797,Y,지하주차장,033-660-3426,강릉시 주문진읍사무소,2021-06-07
"강릉의료원",공공용,"강원도 강릉시 경강로 2007 (남문동, 강릉의료원)",강원도 강릉시 남문동 164-1,37.74972288,128.8887478,1963,2355,Y,기타,033-660-3736,강릉시 중앙동주민센터,2021-06-07
"중앙시장",공공용,"강원도 강릉시 금성로 21 (성남동, 중앙시장)",강원도 강릉시 성남동 50,37.754004,128.8986238,2965,3593,Y,기타,033-660-3736,강릉시 중앙동주민센터,2021-06-07
"서부시장",공공용,"강원도 강릉시 임영로155번길 6 (용강동, 서부시장)",강원도 강릉시 용강동 29,37.755013,128.8907996,2169,2629,Y,기타,033-660-3736,강릉시 중앙동주민센터,2021-06-07
"우성 아파트",공공용,"강원도 강릉시 연당길 67-15 (초당동, 초당우성아파트)",강원도 강릉시 초당동 143,37.78315709,128.9138385,1067,1293,Y,지하주차장,033-660-3863,강릉시 초당동주민센터,2021-06-07
"유화3차 아파트",공공용,"강원도 강릉시 연당길 82 (초당동, 초당유화3차아파트)",강원도 강릉시 초당동 155,37.784935,128.9148059,760,920,Y,지하주차장,033-660-3863,강릉시 초당동주민센터,2021-06-07
"초당현대 아파트",공공용,"강원도 강릉시 초당원길 26-2 (초당동, 초당현대아파트)",강원도 강릉시 초당동 128,37.78447917,128.9174049,2674,3241,Y,지하주차장,033-660-3863,강릉시 초당동주민센터,2021-06-07
"강릉교회",공공용,강원도 강릉시 해안로 333 (강문동),강원도 강릉시 강문동 133,37.7928673193,128.9164014156,290,351,Y,기타,033-660-3863,강릉시 초당동주민센터,2021-06-07
"강릉우체국",공공용,"강원도 강릉시 강릉대로 326 (포남동, 강릉우체국)",강원도 강릉시 포남동 1118-4,37.76514016,128.903842,1634,1348,Y,주차장,033-660-3818,강릉시 포남1동주민센터,2021-06-07
"세화상가 아파트",공공용,"강원도 강릉시 경강로2223번길 15 (포남동, 세화상가아파트)",강원도 강릉시 포남동 1125,37.763624,128.9049835,600,727,Y,지하주차장,033-660-3818,강릉시 포남1동주민센터,2021-06-07
"포남엘에이치1단지아파트",공공용,강원도 강릉시 경강로2301번길 6 (포남동),강원도 강릉시 포남동 1181,37.76835163,128.9129075,1904,2305,Y,지하주차장,033-660-3818,강릉시 포남1동주민센터,2021-06-07
"미라보 아파트",공공용,"강원도 강릉시 명륜로 124 (포남동, 미라보아파트)",강원도 강릉시 포남동 1097,37.76920847,128.9029431,515,624,Y,지하주차장,033-660-3818,강릉시 포남1동주민센터,2021-06-07
"삼우골든맨션",공공용,"강원도 강릉시 용지각길20번길 8 (포남동, 삼우골든맨션아파트)",강원도 강릉시 포남동 898-17,37.76006882,128.9066031,664,804,Y,지하주차장,033-660-3818,강릉시 포남1동주민센터,2021-06-07
"대인4차 아파트",공공용,강원도 강릉시 강릉대로469번길 14(포남동),강원도 강릉시 포남동 422-3,37.7761619830,128.9133737945,3289,3986,Y,지하주차장,033-660-3846,강릉시 포남2동주민센터,2021-06-07
"새솔 아파트",공공용,"강원도 강릉시 강릉대로469번길 22 (포남동, 정아새솔아파트)",강원도 강릉시 포남동 436-1,37.77601609,128.9124558,297,360,Y,지하주차장,033-660-3846,강릉시 포남2동주민센터,2021-06-07
"일송 아파트",공공용,"강원도 강릉시 하평3길 37 (포남동, 일송아파트)",강원도 강릉시 포남동 1293-1,37.77179023,128.9143988,1652,2002,Y,지하주차장,033-660-3846,강릉시 포남2동주민센터,2021-06-07
"청송 아파트",공공용,강원도 강릉시 하평길 37(포남동),강원도 강릉시 포남동 1293-2,37.77051701,128.9129224,6032,7311,Y,지하주차장,033-660-3846,강릉시 포남2동주민센터,2021-06-07
"강릉시청",공공용,"강원도 강릉시 강릉대로 33 (홍제동, 강릉시청)",강원도 강릉시 홍제동 1001,37.75323781,128.8753356,780,945,Y,기타,033-660-3716,강릉시 홍제동주민센터,2021-06-07
"우미린아파트",공공용,"강원도 강릉시 선수촌로 55 (홍제동, 우미린아파트)",강원도 강릉시 홍제동 1037,37.75632137,128.8697267,16779,13843,Y,지하주차장,033-660-3716,강릉시 홍제동주민센터,2021-06-07
"현대 힐스테이트 아파트",공공용,"강원도 강릉시 토성로 39 (홍제동, 홍제힐스테이트아파트)",강원도 강릉시 홍제동 1007,37.75051462,128.8818291,13501,16364,Y,지하주차장,033-660-3716,강릉시 홍제동주민센터,2021-06-07
"우산 아파트",공공용,"강원도 강릉시 토성로 51 (홍제동, 홍제동우산아파트)",강원도 강릉시 홍제동 122,37.75113687,128.8834786,2404,2913,Y,지하주차장,033-660-3713,강릉시 홍제동주민센터,2021-06-07
"시외버스터미널",공공용,"강원도 강릉시 하슬라로 27 (홍제동, 강릉시외버스터미널)",강원도 강릉시 홍제동 992-1,37.7546758,128.8788078,231,280,Y,기타,033-660-3716,강릉시 홍제동주민센터,2021-06-07
"푸르지오 아파트",공공용,"강원도 강릉시 홍제로71번길 1 (홍제동, 홍제푸르지오)",강원도 강릉시 홍제동 158,37.75352693,128.8831897,4437,5378,Y,지하주차장,033-660-3716,강릉시 홍제동주민센터,2021-06-07
LH미디어촌 5단지 아파트,공공용,"강원도 강릉시 선수촌로 11 (홍제동, 엘에이치미디어촌5단지)",강원도 강릉시 홍제동 1039,37.7543401357,128.8681879903,10280,12460,Y,지하주차장,033-660-3716,강릉시 홍제동주민센터,2021-06-07
LH미디어촌 6단지 아파트,공공용,"강원도 강릉시 선수촌로 10 (홍제동, LH미디어촌6단지아파트)",강원도 강릉시 홍제동 1044,37.7519698464,128.8683686747,26977,36335,Y,지하주차장,033-660-3716,강릉시 홍제동주민센터,2021-06-07
LH미디어촌 7단지 아파트,공공용,"강원도 강릉시 선수촌로 36 (홍제동, 엘에이치미디어촌7단지)",강원도 강릉시 홍제동 1043,37.7534370562,128.8694078784,9138,11076,Y,지하주차장,033-660-3716,강릉시 홍제동주민센터,2021-06-07
