"민방위대피시설명",민방위대피시설구분,소재지도로명주소,소재지지번주소,위도,경도,민방위대피시설면적,대피가능인원수,개방여부,평시활용유형,관리기관전화번호,관리기관명,데이터기준일자
"신원1차아파트 경비실 맞은편 지하주차창",공공용,경기도 용인시 처인구 포곡읍 포곡로 90 (신원아파트),경기도 용인시 처인구 포곡읍 둔전리 385 신원아파트,37.2673683,127.215862,8009,9708,Y,주차장,031-324-5534,경기도 용인시청,2019-04-05
"신원2차아파트 201동 뒤 지하주차장",공공용,경기도 용인시 처인구 포곡읍 포곡로 98-1 (신원2차아파트),경기도 용인시 처인구 포곡읍 둔전리 147 신원2차아파트,37.2671718,127.2174808,1244,1508,Y,주차장,031-324-5534,경기도 용인시청,2019-04-05
"계룡리슈빌아파트 107동 앞  지하주차장",공공용,경기도 용인시 처인구 포곡읍 둔전로 15 (금전마을계룡리슈빌),경기도 용인시 처인구 포곡읍 둔전리 447 금전마을계룡리슈빌,37.2666255,127.2160929,12253,2117,Y,주차장,031-324-5534,경기도 용인시청,2019-04-05
"용인수목원 우림필유아파트 103동 지하주차장",공공용,경기도 용인시 처인구 포곡읍 백옥대로1898번길 34 (계수마을수목원우림필유),경기도 용인시 처인구 포곡읍 삼계리 672 계수마을수목원우림필유,37.29448422,127.2384916,11432,1661,Y,주차장,031-324-5534,경기도 용인시청,2019-04-05
"인정베네치아아파트 105동 앞 지하주차장",공공용,경기도 용인시 처인구 포곡읍 영문로 64 (배머루마을인정베네치아빌리지),경기도 용인시 처인구 포곡읍 영문리 555 배머루마을 인정베네치아빌리지,37.2723034,127.209872,12413,1666,Y,주차장,031-324-5534,경기도 용인시청,2019-04-05
"조양아파트 입구 옆 지하주차장",공공용,경기도 용인시 처인구 포곡읍 전성로 10 (조양아파트),경기도 용인시 처인구 포곡읍 전대리 368 조양아파트,37.2846953,127.216245,9042,10960,Y,주차장,031-324-5534,경기도 용인시청,2019-04-05
"풍산아파트 지하주차장",공공용,경기도 용인시 처인구 모현면 백옥대로2332번길 21-8 (풍산햇빛마을),경기도 용인시 처인구 모현면 왕산리 464-2 풍산햇빛마을,37.33249439,127.2502159,7682,9312,Y,주차장,031-324-5593,경기도 용인시청,2019-04-05
"신안인스빌아파트 지하주차장",공공용,경기도 용인시 처인구 모현면 문현로 326 (효천마을신안인스빌),경기도 용인시 처인구 모현면 일산리 669 효천마을신안인스빌,37.33665225,127.2439285,16307,1555,Y,주차장,031-324-5593,경기도 용인시청,2019-04-05
"남사면사무소 지하1층 대피소",공공용,경기도 용인시 처인구 남사면 내기로 22 (남사면사무소),경기도 용인시 처인구 남사면 봉무리 438-1 남사면사무소,37.115301,127.1502137,661,801,Y,지하시설,031-324-5641,경기도 용인시청,2019-04-05
"한화시스템 본청 지하2층 대피소",공공용,경기도 용인시 처인구 남사면 경기동로 491-23 (한화탈레스),경기도 용인시 처인구 남사면 창리 304-5 삼성탈레스,37.1434443,127.179593,1922,2330,Y,헬스장,031-324-5641,경기도 용인시청,2019-04-05
"동아아파트(모든 동의 지하주차장)",공공용,경기도 용인시 처인구 이동면 이원로 22,경기도 용인시 처인구 이동면 천리 127,37.18938727,127.2094954,3211,3892,Y,주차장,031-324-5691,경기도 용인시청,2019-04-05
"세광엔리치타워(모든 동의 지하주차장)",공공용,경기도 용인시 처인구 이동면 경기동로705번길 28,경기도 용인시 처인구 이동면 송전리 1227,37.13917322,127.2011813,27144,3754,Y,주차장,031-324-5691,경기도 용인시청,2019-04-05
"신미주1단지아파트(모든 동의 지하주차장)",공공용,경기도 용인시 처인구 이동면 백옥대로621번길 11,경기도 용인시 처인구 이동면 천리 1119,37.19211272,127.2049933,16606,3840,Y,주차장,031-324-5691,경기도 용인시청,2019-04-05
"이동면 주민자치센터 지하주차장",공공용,경기도 용인시 처인구 이동면 경기동로 673,경기도 용인시 처인구 이동면 송전리 750-3,37.14112065,127.1961981,995,1206,Y,주차장,031-324-5691,경기도 용인시청,2019-04-05
"원삼면사무소(지하1층)",공공용,경기도 용인시 처인구 원삼면 원양로 64,경기도 용인시 처인구 원삼면 고당리 88-1,37.166444,127.3130194,66,80,Y,지하시설,031-324-5742,경기도 용인시청,2019-04-05
SK아카데미(행복관 지하1층),공공용,경기도 용인시 처인구 원삼면 모래실로 17,경기도 용인시 처인구 원삼면 사암리 406,37.194398,127.3069281,588,713,Y,휴게시설,031-324-5742,경기도 용인시청,2019-04-05
IAE 고등기술연구원 지하주차장,공공용,"경기도 용인시 처인구 백암면 고안로51번길 175-28, 고등기술연구원","경기도 용인시 처인구 백암면 고안리 633-2, IAE 고등기술연구원",37.1474813,127.414502,6785,8224,Y,주차장,031-324-5792,경기도 용인시청,2019-04-05
"백암면 주민자치센터 지하1층 다목적실",공공용,경기도 용인시 처인구 백암면 백암로185번길 8-11,경기도 용인시 처인구 백암면 백암리 461번지,37.16364975,127.3746693,401,486,Y,다목적실,031-324-5792,경기도 용인시청,2019-04-05
"양지면사무소 지하",공공용,경기도 용인시 처인구 양지면 양지로105번길 5 (양지면사무소),경기도 용인시 처인구 양지면 양지리 701-9 양지면사무소,37.2357405,127.2801214,701,850,Y,지하시설,031-324-5842,경기도 용인시청,2019-04-05
"파인리조트 주차장",공공용,경기도 용인시 처인구 양지면 남평로 112 (양지파인리조트),경기도 용인시 처인구 양지면 남곡리 34-1 양지파인리조트,37.2133912,127.2905629,3757,4554,Y,주차장,031-324-5842,경기도 용인시청,2019-04-05
"신원아침도시아파트 지하주차장",공공용,경기도 용인시 처인구 양지면 교동로 1 (양지마을신원아침도시),경기도 용인시 처인구 양지면 양지리 907 양지마을신원아침도시,37.2349109,127.2853868,3338,4046,Y,주차장,031-324-5842,경기도 용인시청,2019-04-05
"롯데시네마 빌당(지하주차장)",공공용,경기도 용인시 처인구 금령로86(김량장동),경기도 용인시 처인구 김량장동 301번지 3호,37.234941,127.2059367,7119,8629,Y,주차장,031-324-5894,경기도 용인시청,2019-04-05
"현대아파트(지하주차장)",공공용,경기도 용인시 처인구 백옥대로1068번길 12(김량장동),경기도 용인시 처인구 김량장동 4번지 2호 현대아파트(지하주차장),37.22929972,127.2117513,7979,9672,Y,주차장,031-324-5894,경기도 용인시청,2019-04-05
"삼환아파트(지하주차장)",공공용,"경기도 용인시 처인구 중부대로1388번길 6-4(김량장동, 삼환아파트)",경기도 용인시 처인구 김량장동502번지 2호,37.2331756,127.1976213,5168,6264,Y,주차장,031-324-5894,경기도 용인시청,2019-04-05
"주공2단지 아파트(지하주차장)",공공용,"경기도 용인시 처인구 중부대로1388번길6-14(김량장동, 김량주공2단지아파트)",경기도 용인시 처인구 김량장동502번지 1호,37.23261465,127.197688,8399,10181,Y,주차장,031-324-5894,경기도 용인시청,2019-04-05
"신우아파트(지하주차장)",공공용,"경기도 용인시 처인구 중부대로1388번길12(김량장동, 신우아파트)",경기도 용인시 처인구 김량장동 503번지 3호,37.2362757,127.1970058,4049,4908,Y,주차장,031-324-5894,경기도 용인시청,2019-04-05
"금호어울림아파트(지하주차장)",공공용,"경기도 용인시 처인구 금령로13번길13(김량장동, 어울림아파트)",경기도 용인시 처인구 김량장동526번지,37.2398149,127.2041611,20572,2323,Y,주차장,031-324-5894,경기도 용인시청,2019-04-05
"미성아파트(지하주차장)",공공용,"경기도 용인시 처인구 학산로49번길 20 (김량장동, 라이프 미성아파트)",경기도 용인시 처인구 김량장동193번지,37.2344735,127.2014077,330,400,Y,주차장,031-324-5894,경기도 용인시청,2019-04-05
"명지대학교(함박관 지하 1층)",공공용,"경기도 용인시 처인구 명지로116(남동, 명지대학교용인캠퍼스)",경기도 용인시 처인구 남동555번지,37.238954,127.1887116,14885,18042,Y,지하시설,031-324-5894,경기도 용인시청,2019-04-05
"용인도시공사(지하주차장)",공공용,"경기도 용인시 처인구 금령로47(김량장동, 용인지방공사)",경기도 용인시 처인구 김량장동 254번지134호,37.2374846,127.1887544,396,480,Y,주차장,031-324-5894,경기도 용인시청,2019-04-05
"처인구청(본건물 지하1층)",공공용,"경기도 용인시 처인구 금령로50(김량장동, 처인구청)",경기도 용인시 처인구 김량장동 286번지,37.2409817,127.1974687,198,240,Y,지하시설,031-324-5894,경기도 용인시청,2019-04-05
"세브란스병원 지하1층",공공용,경기도 용인시 처인구 금학로 225(역북동),경기도 용인시 처인구 역북동 405번지,37.23542087,127.1897527,475,576,Y,병원,031-324-5928,경기도 용인시청,2019-04-05
"청수아파트  지하주차장",공공용,경기도 용인시 처인구 용문로 30-8 (역북동),경기도 용인시 처인구 역북동 418번지 3호,37.2456335,127.1668895,851,1032,Y,주차장,031-324-5928,경기도 용인시청,2019-04-05
"한우리아파트  지하주차장",공공용,경기도 용인시 처인구 낙은로 43 (역북동),경기도 용인시 처인구 역북동 280번지 3호,37.2346235,127.1915123,683,828,Y,주차장,031-324-5928,경기도 용인시청,2019-04-05
"신성아파트  지하주차장",공공용,경기도 용인시 처인구 명지로 15-5(역북동),경기도 용인시 처인구 역북동 721번지 1호,37.23881408,127.1721443,12689,6768,Y,주차장,031-324-5928,경기도 용인시청,2019-04-05
"풍림아파트  지하주차장",공공용,경기도 용인시 처인구 삼가로 28(삼가동),경기도 용인시 처인구 삼가동 117번지,37.2268198,127.170504,12672,4469,Y,주차장,031-324-5928,경기도 용인시청,2019-04-05
"금강아파트  지하주차장",공공용,경기도 용인시 처인구 명지로 15-29(역북동),경기도 용인시 처인구 역북동 721번지 2호,37.2377369,127.1704115,3716,4504,Y,주차장,031-324-5928,경기도 용인시청,2019-04-05
"용인대학교(학생회관,대학본부,체육과학대학 외 9개소)",공공용,경기도 용인시 처인구 용인대학로 134(역북동),경기도 용인시 처인구 삼가동 470번지,37.23850025,127.1647325,3495,4236,Y,대학교,031-324-5928,경기도 용인시청,2019-04-05
"늘푸른오스카빌  1,2,3단지 지하 주차장",공공용,경기도 용인시 처인구 중부대로1158번길 12(삼가동),경기도 용인시 처인구 삼가동 552번지,37.24046097,127.1672658,17803,10522,Y,주차장,031-324-5928,경기도 용인시청,2019-04-05
"역삼동주민센터  지하주차장",공공용,경기도 용인시 처인구 명지로 15(역북동),경기도 용인시 처인구 역북동 744번지,37.240608,127.1772935,800,970,Y,주차장,031-324-5928,경기도 용인시청,2019-04-05
"두산위브1단지  지하주차장",공공용,경기도 용인시 처인구 지삼로590번길 24(삼가동),경기도 용인시 처인구 삼가동 562번지,37.24260315,127.1968981,11923,8952,Y,주차장,031-324-5928,경기도 용인시청,2019-04-05
"두산위브2단지  지하주차장",공공용,경기도 용인시 처인구 지삼로590번길 9(삼가동),경기도 용인시 처인구 삼가동 563번지,37.24153286,127.1968052,27649,5304,Y,주차장,031-324-5928,경기도 용인시청,2019-04-05
"용인시청 지하2층",공공용,경기도 용인시 처인구 중부대로1199(삼가동),경기도 용인시 처인구 삼가동 556번지,37.2644087,127.2163425,9180,11127,Y,주차장,031-324-5928,경기도 용인시청,2019-04-05
"역북 우남1단지 지하주차장",공공용,"경기도 용인시 처인구 낙은로 60 (역북동, 역북1단지우남퍼스트빌)",경기도 용인시 처인구 역북동 291번지 8호,37.2638714,127.2167134,13087,1963,Y,주차장,031-324-5928,경기도 용인시청,2019-04-05
"역북 우남2단지 지하주차장",공공용,"경기도 용인시 처인구 낙은로 59 (역북동, 역북2단지우남퍼스트빌)",경기도 용인시 처인구 역북동 787번지,37.2524826,127.2271614,68002,2424,Y,주차장,031-324-5928,경기도 용인시청,2019-04-05
"인정프린스2차 2002동 뒤 지하주차장",공공용,"경기도 용인시 처인구 경안천로 378 (유방동, 인정프린스아파트)",경기도 용인시 처인구 유방동 1007-50 인정프린스아파트,37.2674446,127.2070195,985,1194,Y,주차장,031-324-5957,경기도 용인시청,2019-04-05
"인정프린스3차 3001동 앞 지하주차장",공공용,"경기도 용인시 처인구 경안천로 368 (유방동, 인정프린스아파트)",경기도 용인시 처인구 유방동 256-4 인정프린스아파트,37.2461609,127.2308262,923,1119,Y,주차장,031-324-5957,경기도 용인시청,2019-04-05
"이삭아파트 101동, 103동 앞 지하주차장",공공용,"경기도 용인시 처인구 경안천로256번길 47-14 (고림동, 이삭아파트)",경기도 용인시 처인구 고림동 411-1 이삭아파트,37.2467124,127.2290272,5835,7073,Y,주차장,031-324-5957,경기도 용인시청,2019-04-05
"성웅아파트 101동 앞 지하주차장",공공용,"경기도 용인시 처인구 영문로29번길 17 (유방동, 성웅아파트)",경기도 용인시 처인구 유방동 181 성웅아파트,37.241338,127.2159626,3036,3680,Y,주차장,031-324-5957,경기도 용인시청,2019-04-05
"인정피렌체1차 아파트 101동 앞 지하주차장",공공용,"경기도 용인시 처인구 한터로152번길 45 (고림동, 인정피렌체빌리지1차아파트)",경기도 용인시 처인구 고림동 264-8 인정피렌체빌리지1차아파트,37.2444956,127.2309547,16965,3067,Y,주차장,031-324-5957,경기도 용인시청,2019-04-05
"예진마을 인정피렌체2차 201, 205동 앞 지하주차장",공공용,"경기도 용인시 처인구 한터로152번길 15 (고림동, 예진마을인정피렌체빌리지II아파트)",경기도 용인시 처인구 고림동 995 예진마을인정피렌체빌리지II아파트,37.26564401,127.2255124,14038,1997,Y,주차장,031-324-5957,경기도 용인시청,2019-04-05
"용인정보고등학교 후관 지하강당",공공용,"경기도 용인시 처인구 고림로74번길 15 (고림동, 용인정보산업고등학교)",경기도 용인시 처인구 고림동 737-1 용인정보고등학교,37.26547888,127.2232616,610,739,Y,다목적실,031-324-5957,경기도 용인시청,2019-04-05
"예진마을 피렌체3차 2, 3, 7동 앞 지하주차장",공공용,"경기도 용인시 처인구 한터로152번길 62 (고림동, 예진마을인정피렌체빌리지III아파트)",경기도 용인시 처인구 고림동 997 예진마을인정피렌체빌리지III아파트,37.25347744,127.2268287,14361,2477,Y,주차장,031-324-5957,경기도 용인시청,2019-04-05
"금평마을 영화2차 203동, 206동 앞 지하주차장",공공용,"경기도 용인시 처인구 금어로 102 (고림동, 금평마을영화아파트)",경기도 용인시 처인구 고림동 1000 금평마을영화아파트,37.2320043,127.2143159,9911,12013,Y,주차장,031-324-5957,경기도 용인시청,2019-04-05
"보평마을 삼정그린뷰 105동 옆 지하주차장",공공용,"경기도 용인시 처인구 금어로 74 (고림동, 보평마을삼정그린뷰아파트)",경기도 용인시 처인구 고림동 1001 보평마을삼정그린뷰아파트,37.23516446,127.2153423,6232,7554,Y,주차장,031-324-5957,경기도 용인시청,2019-04-05
"예원마을 코아루 아파트 각 동 지하주차장",공공용,"경기도 용인시 처인구 한터로275번길 40 (고림동, 예원마을코아루아파트)",경기도 용인시 처인구 고림동 1002 예원마을코아루아파트,37.23572467,127.2144784,10275,1963,Y,주차장,031-324-5957,경기도 용인시청,2019-04-05
"임원마을 영화1차 102동 뒤, 106동 옆 지하주차장",공공용,"경기도 용인시 처인구 경안천로256번길 47-16 (고림동, 임원마을영화아파트)",경기도 용인시 처인구 고림동 996 임원마을영화아파트,37.2258288,127.1122716,8734,10587,Y,주차장,031-324-5957,경기도 용인시청,2019-04-05
"라이프아파트 101동 앞, 102동 앞 지하주차장",공공용,"경기도 용인시 처인구 동부로 7 (마평동, 라이프아파트)",경기도 용인시 처인구 마평동 605-1 라이프아파트,37.27820945,127.1062216,3265,3958,Y,주차장,031-324-5984,경기도 용인시청,2019-04-05
"마평우성아파트 102~103동 사이 지하주차장",공공용,"경기도 용인시 처인구 금령로173번길 5 (마평동, 마평우성아파트)",경기도 용인시 처인구 마평동 650-1 마평우성아파트,37.27605367,127.1067733,6314,7653,Y,주차장,031-324-5984,경기도 용인시청,2019-04-05
"동부동주민센터 지하주차장",공공용,"경기도 용인시 처인구 중부대로 1574 (마평동, 동부동주민센터)",경기도 용인시 처인구 마평동 533-8 동부동주민센터,37.28553055,127.1090285,1404,1702,Y,주차장,031-324-5984,경기도 용인시청,2019-04-05
"주공아파트101~103동,103~104동사이지하주차장",공공용,"경기도 용인시 처인구 고림로 22 (마평동, 마평주공아파트)",경기도 용인시 처인구 마평동 956번지 마평주공아파트,37.28115736,127.1065504,5344,6478,Y,주차장,031-324-5984,경기도 용인시청,2019-04-05
"신갈역",공공용,경기도 용인시 기흥구 기흥로 136,경기도 용인시 기흥구 신갈동 167,37.2687997,127.0994199,9000,10909,Y,지하철역사,031-324-6610,경기도 용인시청,2019-04-05
"인성마을 현대아파트 101동 앞 지하주차장",공공용,경기도 용인시 기흥구 용구대로 2242,경기도 용인시 기흥구 신갈동 151-3,37.2686108,127.096387,1398,1695,Y,주차장,031-324-6610,경기도 용인시청,2019-04-05
"삼익아파트 101동 앞 지하주차장",공공용,경기도 용인시 기흥구 신갈로124번길3,경기도 용인시 기흥구 신갈동 14,37.2695743,127.074829,5236,6347,Y,주차장,031-324-6610,경기도 용인시청,2019-04-05
"양현마을 신안풍림아파트 305동 옆 지하주차장",공공용,경기도 용인시 기흥구 산양로17,경기도 용인시 기흥구 신갈동 158,37.27763926,127.0796103,9818,11901,Y,주차장,031-324-6610,경기도 용인시청,2019-04-05
"원대마을 한신아파트 106동 앞 지하주차장",공공용,경기도 용인시 기흥구 신갈로102,경기도 용인시 기흥구 신갈동 165,37.2714692,127.0840876,7752,9396,Y,주차장,031-324-6610,경기도 용인시청,2019-04-05
"도현마을 현대아파트 204동 앞 지하주차장",공공용,경기도 용인시 기흥구 구갈로115-16,경기도 용인시 기흥구 신갈동 166,37.2786452,127.0721345,12892,2726,Y,주차장,031-324-6610,경기도 용인시청,2019-04-05
"새릉골풍림아파트 101동 앞 지하주차장",공공용,경기도 용인시 기흥구 기흥로116번길7,경기도 용인시 기흥구 신갈동 159,37.2749924,127.0704521,5897,7148,Y,주차장,031-324-6610,경기도 용인시청,2019-04-05
"갈현마을 현대홈타운 506동 앞 지하주차장",공공용,경기도 용인시 기흥구 관곡로16,경기도 용인시 기흥구 신갈동 17-15,37.27618274,127.1114189,6942,8415,Y,주차장,031-324-6610,경기도 용인시청,2019-04-05
"녹원마을새천년그린빌4단지 413동앞 지하주차장",공공용,경기도 용인시 기흥구 새천년로40,경기도 용인시 기흥구 신갈동 703,37.2802828,127.1168239,4273,5179,Y,주차장,031-324-6610,경기도 용인시청,2019-04-05
"한국도로공사 수원지사 지하대피소",공공용,"경기도 용인시 기흥구 덕영대로 2062 (영덕동, 도로공사수원지사)",경기도 용인시 기흥구 영덕동 3-3,37.2802242,127.1151398,159,193,Y,지하시설,031-324-6809,경기도 용인시청,2019-04-05
"청현마을 신일아파트 모든 지하주차장",공공용,"경기도 용인시 기흥구 덕영대로2077번길 20 (영덕동, 청현마을신일아파트)",경기도 용인시 기흥구 영덕동 15,37.27037966,127.1327643,13362,4325,Y,주차장,031-324-6809,경기도 용인시청,2019-04-05
"두진아파트 모든 지하주차장",공공용,"경기도 용인시 기흥구 덕영대로2077번길 8 (영덕동, 두진아파트)",경기도 용인시 기흥구 영덕동 13,37.27942251,127.1118161,4810,5830,Y,주차장,031-324-6809,경기도 용인시청,2019-04-05
"영덕 세종그랑시아 모든 지하주차장",공공용,"경기도 용인시 기흥구 중부대로55번길 60 (영덕동, 세종그랑시아아파트)",경기도 용인시 기흥구 영덕동 920,37.2785331,127.130730,5279,6399,Y,주차장,031-324-6809,경기도 용인시청,2019-04-05
"흥덕마을10단지 동원로얄듀크아파트 모든 지하주차장",공공용,"경기도 용인시 기흥구 흥덕중앙로105번길 24 (영덕동, 흥덕마을10단지동원로얄듀크아파트)",경기도 용인시 기흥구 영덕동 958,37.2523202,127.1068074,6160,7467,Y,주차장,031-324-6809,경기도 용인시청,2019-04-05
"흥덕마을 휴먼시아4단지 모든 지하주차장",공공용,"경기도 용인시 기흥구 흥덕2로 42 (영덕동, 휴먼시아 흥덕마을4단지)",경기도 용인시 기흥구 영덕동 1021,37.25509369,127.1125647,2192,2657,Y,주차장,031-324-6809,경기도 용인시청,2019-04-05
"흥덕마을 신동아파밀리에아파트 모든 지하주차장",공공용,"경기도 용인시 기흥구 흥덕3로 20 (영덕동, 흥덕마을신동아파밀리에아파트)",경기도 용인시 기흥구 영덕동 1069,37.26802785,127.1060494,57708,3643,Y,주차장,031-324-6809,경기도 용인시청,2019-04-05
"흥덕마을6단지 자연앤스위첸아파트 모든 지하주차장",공공용,"경기도 용인시 기흥구 흥덕2로117번길 14 (영덕동, 흥덕마을6단지자연앤스위첸아파트)",경기도 용인시 기흥구 영덕동 971,37.2624271,127.1071395,15738,2410,Y,주차장,031-324-6809,경기도 용인시청,2019-04-05
"흥덕마을 휴먼시아1단지아파트 모든 지하주차장",공공용,"경기도 용인시 기흥구 흥덕1로79번길 7 (영덕동, 휴먼시아 흥덕마을1단지)",경기도 용인시 기흥구 영덕동980,37.2663947,127.1121786,12240,6019,Y,주차장,031-324-6809,경기도 용인시청,2019-04-05
"강남대학교 샬롬관 지하",공공용,"경기도 용인시 기흥구 강남로 40(구갈동, 강남대학교 샬롬관 지하)",경기도 용인시 기흥구 구갈동 111,37.2628099,127.1050877,2711,3286,Y,대학교,031-324-6625,경기도 용인시청,2019-04-05
"우림파아파트 주차장",공공용,"경기도 용인시 기흥구 신구로42번길 15(구갈동, 우림아파트 주차장)",경기도 용인시 기흥구 구갈동 404-2,37.25216929,127.1212937,3117,3778,Y,주차장,031-324-6625,경기도 용인시청,2019-04-05
"구갈 세종그랑시아 103동 주차장",공공용,"경기도 용인시 기흥구 기흥로38번길 11(구갈동, 세종그랑시아 103동 주차장)",경기도 용인시 기흥구 구갈동 270,37.25221304,127.1057297,5914,7168,Y,주차장,031-324-6625,경기도 용인시청,2019-04-05
"가현마을 신안아하트 602동 지하주차장",공공용,"경기도 용인시 기흥구 관곡로 53(구갈동, 가현마을 신안아파트 602동 603동 사이 지하주차장)",경기도 용인시 기흥구 구갈동 344,37.25070642,127.1342582,4017,4869,Y,주차장,031-324-6625,경기도 용인시청,2019-04-05
"기흥구청 지하주차장",공공용,"경기도 용인시 기흥구 관곡로 95(구갈동, 기흥구청 지하주차장)",경기도 용인시 기흥구 구갈동 355,37.23130309,127.1119433,2312,2802,Y,주차장,031-324-6625,경기도 용인시청,2019-04-05
"강남마을자연앤4단지 401동 지하주차장",공공용,"경기도 용인시 기흥구 강남동로 43(구갈동, 강남마을4단지 자연앤아파트 401동 지하주차장)",경기도 용인시 기흥구 구갈동 600,37.2402348,127.1032876,9497,11512,Y,주차장,031-324-6625,경기도 용인시청,2019-04-05
"한양아파트 5동~9동 중앙지하주차장",공공용,"경기도 용인시 기흥구 구갈로28번길 21-11(구갈동, 한양아파트 5동~9동 중앙지하주차장)",경기도 용인시 기흥구 구갈동 396,37.23250146,127.1175435,2037,2469,Y,주차장,031-324-6625,경기도 용인시청,2019-04-05
"강남마을 한라비발디아델 지하주차장",공공용,경기도 용인시 기흥구 강남서로 86(구갈동. 강남마을 한라비발디아델70 주차장),경기도 용인시 기흥구 구갈동 544,37.2309299,127.1111533,4470,5418,Y,주차장,031-324-6625,경기도 용인시청,2019-04-05
"기흥역 1번~7번 입구 지하대합실",공공용,"경기도 용인시 기흥구 중부대로 460(구갈동, 기흥역 지하 대합실(1번~7번 입구))",경기도 용인시 기흥구 구갈동 227-25,37.2398963,127.0818121,13077,15851,Y,지하철역사,031-324-6625,경기도 용인시청,2019-04-05
"삼성래미안아파트 지하주차장(102동 앞)",공공용,경기도 용인시 기흥구 한보라1로64번길 22,경기도 용인시 기흥구 보라동 450,37.2412123,127.0673686,5320,6448,Y,주차장,031-324-6625,경기도 용인시청,2019-04-05
"선비마을 삼정아파트 지하주차장(101동 앞)",공공용,경기도 용인시 기흥구 사은로 64,경기도 용인시 기흥구 보라동 289-12,37.2460487,127.0724171,3024,3665,Y,주차장,031-324-6625,경기도 용인시청,2019-04-05
"넥스빌아파트 지하주차장",공공용,경기도 용인시 기흥구 금화로108번길 21,경기도 용인시 기흥구 상갈동 102-3,37.235632,127.0701048,2328,2822,Y,주차장,031-324-6653,경기도 용인시청,2019-04-05
"금화마을 주공2단지 지하주차장(201과 202동 사이)",공공용,경기도 용인시 기흥구 금화로11번길 15,경기도 용인시 기흥구 상갈동 479,37.23557784,127.0752071,2016,2444,Y,주차장,031-324-6653,경기도 용인시청,2019-04-05
"금화마을 주공3단지 지하주차장(307동 앞)",공공용,경기도 용인시 기흥구 금화로11번길 10,경기도 용인시 기흥구 상갈동 481,37.2967623,127.1189833,21519,5136,Y,주차장,031-324-6653,경기도 용인시청,2019-04-05
"금화마을 주공4단지 지하주차장(407동 앞)",공공용,경기도 용인시 기흥구 금화로58번길 10,경기도 용인시 기흥구 상갈동 463,37.29337141,127.1219282,14783,3562,Y,주차장,031-324-6653,경기도 용인시청,2019-04-05
"금화마을 주공5단지 지하주차장(502동 앞)",공공용,경기도 용인시 기흥구 금화로82번길 17,경기도 용인시 기흥구 상갈동 454,37.2954196,127.1492204,14860,3269,Y,주차장,031-324-6653,경기도 용인시청,2019-04-05
"금화마을 주공6단지 지하주차장(602동 앞)",공공용,경기도 용인시 기흥구 금화로11번길 9,경기도 용인시 기흥구 상갈동 480,37.29397102,127.1275096,4782,5796,Y,주차장,031-324-6653,경기도 용인시청,2019-04-05
"민속마을 신창미션힐 지하주차장(201동 204동 사이)",공공용,경기도 용인시 기흥구 사은로126번길 33,경기도 용인시 기흥구 보라동 558,37.29523478,127.1472622,35085,4445,Y,주차장,031-324-6653,경기도 용인시청,2019-04-05
"현대모닝사이드1차 지하주차장(305와 307동 사이)",공공용,경기도 용인시 기흥구 사은로126번길 46,경기도 용인시 기흥구 보라동 570,37.29644012,127.1130729,32107,5338,Y,주차장,031-324-6653,경기도 용인시청,2019-04-05
"현대모닝사이드2차 지하주차장(101동 앞)",공공용,경기도 용인시 기흥구 용구대로 1842,경기도 용인시 기흥구 보라동 564,37.3059191,127.1267138,25249,3701,Y,주차장,031-324-6653,경기도 용인시청,2019-04-05
"민속마을 쌍용아파트 지하주차장(104와 105동 사이)",공공용,경기도 용인시 기흥구 사은로126번길 10,경기도 용인시 기흥구 보라동 553,37.3012583,127.1145336,56650,7661,Y,주차장,031-324-6653,경기도 용인시청,2019-04-05
"자봉마을 써니밸리 지하주차장(103과 106동 사이)",공공용,경기도 용인시 기흥구 사은로 274-22,경기도 용인시 기흥구 지곡동 704,37.2990376,127.1115909,32863,5242,Y,주차장,031-324-6853,경기도 용인시청,2019-04-05
"동성아파트 지하주차장",공공용,경기도 용인시 기흥구 고매로 28,경기도 용인시 기흥구 고매동 359,37.30044233,127.111378,2036,2468,Y,주차장,031-324-6853,경기도 용인시청,2019-04-05
"세원아파트 지하주차장",공공용,경기도 용인시 기흥구 공세로 76,경기도 용인시 기흥구 고매동 385-1,37.3003471,127.1245561,5154,6247,Y,주차장,031-324-6853,경기도 용인시청,2019-04-05
"호수 청구아파트 지하주차장",공공용,경기도 용인시 기흥구 공세로 226,경기도 용인시 기흥구 공세동 382-1,37.30293693,127.1182621,6469,7841,Y,주차장,031-324-6853,경기도 용인시청,2019-04-05
"매화마을 우림홀인원아파트 지하주차장",공공용,경기도 용인시 기흥구 고매로34번길 31,경기도 용인시 기흥구 고매동 880,37.307010,127.1282625,1570,1903,Y,주차장,031-324-6853,경기도 용인시청,2019-04-05
"불곡마을 벽산블루밍아파트 지하주차장",공공용,경기도 용인시 기흥구 고매로43번길 32-2,경기도 용인시 기흥구 공세동  663,37.2985393,127.1052939,2645,3206,Y,주차장,031-324-6853,경기도 용인시청,2019-04-05
"탑실마을 대주피오레1단지 아파트 지하주차장",공공용,경기도 용인시 기흥구 탑실로 15,경기도 용인시 기흥구 공세동 694,37.28285713,127.1644413,42759,3408,Y,주차장,031-324-6853,경기도 용인시청,2019-04-05
"기흥써니밸리아파트",공공용,"경기도 용인시 기흥구 고매로 16 (고매동, 기흥써니밸리아파트)",경기도 용인시 기흥구 고매동 883번지,37.28224495,127.1640656,4011,4862,Y,주차장,031-324-6853,경기도 용인시청,2019-04-05
"경희대학교 국제캠퍼스(우정원 지하)",공공용,경기도 용인시 기흥구 덕영대로1732,경기도 용인시 기흥구 서천동 1,37.28175624,127.1549623,22935,27800,Y,대학교,031-324-6691,경기도 용인시청,2019-04-05
"서그내마을 에스케이아파트(전동 지하)",공공용,"경기도 용인시 기흥구 예현로15(서천동, 서그내마을 에스케이아파트)",경기도 용인시 기흥구 서천동 700,37.2795982,127.1490963,14161,3874,Y,주차장,031-324-6691,경기도 용인시청,2019-04-05
"예현마을 현대홈타운아파트(전동 지하)",공공용,"경기도 용인시 기흥구 예현로35번길21(서천동,예현마을 현대홈타운아파트)",경기도 용인시 기흥구 서천동 705,37.27977852,127.1514312,15193,2986,Y,주차장,031-324-6691,경기도 용인시청,2019-04-05
"서그내마을 서천아이파크(전동 지하)",공공용,"경기도 용인시 기흥구 서그내로16번길14(서천동,서그내마을 서천아이파크)",경기도 용인시 기흥구 서천동 708,37.27939811,127.1557333,16337,1166,Y,주차장,031-324-6691,경기도 용인시청,2019-04-05
"서천마을 휴먼시아2단지아파트(전동 지하)",공공용,"경기도 용인시 기흥구 서천로128번길12(서천동,서천마을 휴먼시아2단지아파트)",경기도 용인시 기흥구 서천동 743,37.2798532,127.1576534,7242,8778,Y,주차장,031-324-6691,경기도 용인시청,2019-04-05
"서천마을 휴먼시아3단지아파트(전동 지하)",공공용,"경기도 용인시 기흥구 서천서로125(농서동, 서천마을 휴먼시아3단지아파트)",경기도 용인시 기흥구 농서동 310-5,37.27151256,127.1554645,10814,4704,Y,주차장,031-324-6691,경기도 용인시청,2019-04-05
"서천마을 1단지아파트(전동 지하)",공공용,"경기도 용인시 기흥구 서천서로27(서천동, 서천마을1단지)",경기도 용인시 기흥구 서천동 736,37.26253235,127.1598562,20045,3965,Y,주차장,031-324-6691,경기도 용인시청,2019-04-05
"서천마을4단지 아파트(전동 지하)",공공용,"경기도 용인시 기흥구 서천동로60(서천동,서천마을4단지아파트)",경기도 용인시 기흥구 서천동 823,37.28609283,127.1515656,17955,2669,Y,주차장,031-324-6691,경기도 용인시청,2019-04-05
"구성동주민센터 지하",공공용,경기도 용인시 기흥구 구성로 77번길 17,경기도 용인시 기흥구 언남동 342-1,37.28618307,127.1542497,787,954,Y,주차장,031-324-6876,경기도 용인시청,2019-04-05
"언남동부아파트 101동 지하주차장",공공용,경기도 용인시 기흥구 구성로 123,경기도 용인시 기흥구 언남동 240-1,37.28421823,127.1601095,1646,1995,Y,주차장,031-324-6876,경기도 용인시청,2019-04-05
"휴먼시아물푸레마을2단지 203동 지하주차장",공공용,경기도 용인시 기흥구 구성3로 37,경기도 용인시 기흥구 청덕동506,37.28345061,127.1573745,12000,1867,Y,주차장,031-324-6876,경기도 용인시청,2019-04-05
"동일하이빌2차아파트 212동 지하주차장",공공용,경기도 용인시 기흥구 언남로 15,경기도 용인시 기흥구 언남동 496,37.28028517,127.1607958,54721,4018,Y,주차장,031-324-6876,경기도 용인시청,2019-04-05
"초원마을 성원상떼빌아파트 입구 지하주차장",공공용,경기도 용인시 기흥구 기흥로116번길,경기도 용인시 기흥구 언남동 500,37.27930768,127.1446241,35874,4128,Y,주차장,031-324-6876,경기도 용인시청,2019-04-05
"휴먼시아물푸레마을1단지아파트 101동 지하주차장",공공용,경기도 용인시 기흥구 구성2로 52,경기도 용인시 기흥구 청덕동 513,37.2746031,127.1560871,21000,2966,Y,주차장,031-324-6876,경기도 용인시청,2019-04-05
"우림필유아파트 103동 앞 지하주차장",공공용,경기도 용인시 기흥구 구성로39번길 13,경기도 용인시 기흥구 마북동 352,37.27730552,127.1573752,7259,8799,Y,주차장,031-324-6721,경기도 용인시청,2019-04-05
"교동마을 신창아파트 101동 앞 지하주차장",공공용,경기도 용인시 기흥구 마북로 186,경기도 용인시 기흥구 마북동 143,37.2709056,127.1581929,6396,7753,Y,주차장,031-324-6721,경기도 용인시청,2019-04-05
"연원마을 삼성쉐르빌아파트 201동 앞 지하주차장",공공용,경기도 용인시 기흥구 연원로42번길 33,경기도 용인시 기흥구 마북동 642-1,37.26330491,127.1589108,18129,422,Y,주차장,031-324-6721,경기도 용인시청,2019-04-05
"삼성래미안1차아파트 110동 앞 지하주차장",공공용,경기도 용인시 기흥구 용구대로2394번길 27,경기도 용인시 기흥구 마북동 629,37.2642454,127.1574124,11571,422,Y,주차장,031-324-6721,경기도 용인시청,2019-04-05
"연원마을 벽산아파트 117동 앞 지하주차장",공공용,경기도 용인시 기흥구 연원로42번길 2,경기도 용인시 기흥구 마북동 524-8,37.28336241,127.1665218,10527,389,Y,주차장,031-324-6721,경기도 용인시청,2019-04-05
"교동마을 현대홈타운아파트 103동 앞 지하주차장",공공용,경기도 용인시 기흥구 마북로 124-9,경기도 용인시 기흥구 마북동 630,37.2810521,127.1613477,7699,9332,Y,주차장,031-324-6721,경기도 용인시청,2019-04-05
"교동마을 구성자이3차아파트 104동 앞 지하주차장",공공용,경기도 용인시 구교동로118번길 7,경기도 용인시 기흥구 마북동 638,37.2733328,127.1594197,10800,298,Y,주차장,031-324-6721,경기도 용인시청,2019-04-05
"교동마을 마북 이-편한세상아파트 105동 앞 지하주차장",공공용,경기도 용인시 기흥구 마북로 210,경기도 용인시 기흥구 마북동 636,37.2771018,127.1447372,1473,1785,Y,주차장,031-324-6721,경기도 용인시청,2019-04-05
"구성역 지하역사",공공용,경기도 용인시 기흥구 용구대로 2403,경기도 용인시 기흥구 마북동 460-3,37.2804911,127.1465298,11353,13761,Y,지하철역사,031-324-6721,경기도 용인시청,2019-04-05
"백현마을 휴먼시아아파트 모든 지하주차장",공공용,"경기도 용인시 기흥구 동백8로131번길 9 (동백동,백현마을휴먼시아)",경기도 용인시 기흥구 동백동  583,37.26250213,127.1410973,7484,9072,Y,주차장,031-324-6747,경기도 용인시청,2019-04-05
"백현마을 모아미래도아파트(2500단지) 모든 지하주차장",공공용,"경기도 용인시 기흥구 동백8로 126(동백동,백현마을모아미래도2단지아파트)",경기도 용인시 기흥구 동백동  593,37.25603786,127.1427625,66486,1613,Y,주차장,031-324-6747,경기도 용인시청,2019-04-05
"호수마을 동보노빌리티 모든 지하주차장",공공용,"경기도 용인시 기흥구 동백평촌로 39(동백동,호수마을동보노빌리티)",경기도 용인시 기흥구 동백동 654,37.2593378,127.1385907,21298,2309,Y,주차장,031-324-6747,경기도 용인시청,2019-04-05
"동원마을 동원로얄듀크 모든 지하주차장",공공용,"경기도 용인시 기흥구 동백죽전대로 455-17(동백동, 동원마을동백로얄듀크)",경기도 용인시 기흥구 동백동 683,37.30326149,127.1106151,2172,2633,Y,주차장,031-324-6747,경기도 용인시청,2019-04-05
"해든마을 동문굿모닝힐아파트 모든 지하주차장",공공용,"경기도 용인시 기흥구 동백죽전대로 455-10(동백동,해든마을동문굿모닝힐)",경기도 용인시 기흥구 동백동 689,37.3049729,127.1073059,2566,3110,Y,주차장,031-324-6747,경기도 용인시청,2019-04-05
"호수마을 상록롯데캐슬아파트 모든 지하주차장",공공용,"경기도 용인시 기흥구 동백평촌로 70(동백동,호수마을상록롯데캐슬)",경기도 용인시 기흥구 중동  828,37.3079519,127.1063048,12563,2650,Y,주차장,031-324-6747,경기도 용인시청,2019-04-05
"백현마을 동일하이빌아파트 모든 지하주차장",공공용,"경기도 용인시 기흥구 동백중앙로 312 (중동, 백현마을 동일하이빌 아파트)",경기도 용인시 기흥구 중동  874,37.320049,127.1108698,25148,3566,Y,주차장,031-324-6747,경기도 용인시청,2019-04-05
"성산마을 서해그랑블아파트 모든 지하주차장",공공용,"경기도 용인시 기흥구 동백4로 26 (중동, 성산마을 서해그랑블)",경기도 용인시 기흥구 중동  860,37.30910758,127.0981522,5179,6278,Y,주차장,031-324-6747,경기도 용인시청,2019-04-05
"어은목마을 대원칸타빌아파트 모든 지하주차장",공공용,"경기도 용인시 기흥구 동백2로 37 (중동, 어은목마을대원칸타빌)",경기도 용인시 기흥구 중동 958,37.31756472,127.1160377,3296,3995,Y,주차장,031-324-6747,경기도 용인시청,2019-04-05
"초당마을 현진에버빌아파트 모든 지하주차장",공공용,"경기도 용인시 기흥구 동백중앙로 73(중동, 초당마을현진에버빌)",경기도 용인시 기흥구 중동 1045,37.3062304,127.0982969,10729,1536,Y,주차장,031-324-6747,경기도 용인시청,2019-04-05
"호수마을 자연&데시앙아파트 모든 지하주차장",공공용,"경기도 용인시 기흥구 동백8로 9 (동백동, 호수마을자연앤데시앙)",경기도 용인시 기흥구 동백동 572,37.3106907,127.1101937,9760,11830,Y,주차장,031-324-6747,경기도 용인시청,2019-04-05
"백현마을 서해그랑블아파트 모든 지하주차장",공공용,"경기도 용인시 기흥구 동백8로 89 (동백동,백현마을서해그랑블아파트)",경기도 용인시 기흥구 동백동 579,37.308879,127.1092833,12607,2314,Y,주차장,031-324-6747,경기도 용인시청,2019-04-05
"호수마을 휴먼시아아파트 모든 지하주차장",공공용,"경기도 용인시 기흥구 동백8로 27 (동백동, 호수마을어울림아파트)",경기도 용인시 기흥구 동백동 575,37.3272638,127.0915124,7543,9143,Y,주차장,031-324-6747,경기도 용인시청,2019-04-05
"백현마을 모아미래도아파트(2400단지) 모든 지하주차장",공공용,"경기도 용인시 기흥구 동백8로 90 (동백동, 백현마을모아미래도1단지 아파트)",경기도 용인시 기흥구 동백동 599,37.3314239,127.098674,15832,4022,Y,주차장,031-324-6747,경기도 용인시청,2019-04-05
"호수마을 주공아파트 모든 지하주차장",공공용,"경기도 용인시 기흥구 동백8로 64 (동백동, 호수마을주공3단지아파트)",경기도 용인시 기흥구 동백동 602,37.3262882,127.098504,11262,4310,Y,주차장,031-324-6747,경기도 용인시청,2019-04-05
"호수마을 서해그랑블아파트 모든 지하주차장",공공용,"경기도 용인시 기흥구 동백7로 56 (동백동, 호수마을 서해그랑블)",경기도 용인시 기흥구 동백동 656,37.33041897,127.0935176,12345,2573,Y,주차장,031-324-6747,경기도 용인시청,2019-04-05
"백현마을 한라비발디아파트(2300단지) 모든 지하주차장",공공용,"경기도 용인시 기흥구 동백7로 96 (동백동, 백현마을한라비발디)",경기도 용인시 기흥구 동백동 662,37.32701491,127.086360,9684,11738,Y,주차장,031-324-6747,경기도 용인시청,2019-04-05
"어정마을 삼정그린뷰아파트 모든 지하주차장",공공용,"경기도 용인시 기흥구 언동로 193-26(중동, 어정마을서희삼정아파트)",경기도 용인시 기흥구 중동  817,37.329211,127.0888079,13806,1872,Y,주차장,031-324-6747,경기도 용인시청,2019-04-05
"참솔마을 월드메르디앙아파트 모든 지하주차장",공공용,"경기도 용인시 기흥구 동백죽전대로 283(중동, 참솔마을월드메르디앙)",경기도 용인시 기흥구 중동  819,37.3217914,127.097733,9352,11336,Y,주차장,031-324-6747,경기도 용인시청,2019-04-05
"성산마을 하우스토리 모든 지하주차장",공공용,"경기도 용인시 기흥구 동백5로 62 (중동,성산마을 남광하우스토리)",경기도 용인시 기흥구 중동  869,37.32050276,127.0904907,10608,643,Y,주차장,031-324-6747,경기도 용인시청,2019-04-05
"백현마을 상록롯데캐슬아파트 모든 지하주차장",공공용,"경기도 용인시 기흥구 동백5로 79(중동,백현마을롯데캐슬아파트)",경기도 용인시 기흥구 중동  878,37.31757596,127.0908121,8102,9821,Y,주차장,031-324-6747,경기도 용인시청,2019-04-05
"어은목마을 한라비발디아파트 모든 지하주차장",공공용,"경기도 용인시 기흥구 동백4로 72 (중동, 어은목마을한라비발디)",경기도 용인시 기흥구 중동  956,37.3148475,127.0979412,7533,9131,Y,주차장,031-324-6747,경기도 용인시청,2019-04-05
"초당마을 주공아파트 모든 지하주차장",공공용,"경기도 용인시 기흥구 동백중앙로 41 (중동, 초당마을주공아파트)",경기도 용인시 기흥구 중동  1041,37.3196623,127.0919751,9387,11378,Y,주차장,031-324-6747,경기도 용인시청,2019-04-05
"초당마을 코아루아파트(5000단지) 모든 지하주차장",공공용,"경기도 용인시 기흥구 동백1로 12 (중동, 초당마을코아루아파트)",경기도 용인시 기흥구 중동  1046,37.3194914,127.0962611,6877,8336,Y,주차장,031-324-6747,경기도 용인시청,2019-04-05
"초당마을 코아루아파트(5100단지) 모든 지하주차장",공공용,"경기도 용인시 기흥구 동백1로 9 (중동,초당마을코아루아파트)",경기도 용인시 기흥구 중동  1047,37.2353409,127.201615,6671,8086,Y,주차장,031-324-6747,경기도 용인시청,2019-04-05
"어은목마을 코아루아파트 모든 지하주차장",공공용,"경기도 용인시 기흥구 동백2로 12 (중동, 어은목마을코아루아파트)",경기도 용인시 기흥구 중동  1050,37.3343141,127.0547323,21812,2842,Y,주차장,031-324-6747,경기도 용인시청,2019-04-05
"백현마을 주공아파트 모든 지하주차장",공공용,"경기도 용인시 기흥구 동백8로131번길 20 (동백동, 백현마을주공9단지아파트)",경기도 용인시 기흥구 동백동 584,37.32592098,127.0730946,12254,4709,Y,주차장,031-324-6747,경기도 용인시청,2019-04-05
"백현마을 한라비발디아파트(2300단지) 모든 지하주차장",공공용,"경기도 용인시 기흥구 동백7로 97 (동백동, 백현마을한라비발디아파트)",경기도 용인시 기흥구 동백동 596,37.32348246,127.0818565,9684,11738,Y,주차장,031-324-6747,경기도 용인시청,2019-04-05
"성산마을 카운티스 모든 지하주차장",공공용,"경기도 용인시 기흥구 동백2로 108 (중동, 성산마을카운티스)",경기도 용인시 기흥구 중동  922,37.3209663,127.0819607,5428,6579,Y,주차장,031-324-6747,경기도 용인시청,2019-04-05
"성산마을 신영지웰아파트 모든 지하주차장",공공용,"경기도 용인시 기흥구 동백5로 41 (중동, 성산마을신영지웰)",경기도 용인시 기흥구 중동 870,37.31920082,127.0817571,8469,10265,Y,주차장,031-324-6747,경기도 용인시청,2019-04-05
"어정마을 동백아이파크아파트 모든 지하주차장",공공용,"경기도 용인시 기흥구 언동로217번길 11 (중동, 어정마을동백아이파크)",경기도 용인시 기흥구 중동  1081,37.3291472,127.074433,6079,7368,Y,주차장,031-324-6747,경기도 용인시청,2019-04-05
"신동백 서해그랑블(100단지) 모든 지하주차장",공공용,"경기도 용인시 기흥구 동백죽전대로527번길 81 (중동, 신동백서해그랑블1차)",경기도 용인시 기흥구 중동 1102,37.32728271,127.0741114,7569,9175,Y,주차장,031-324-6747,경기도 용인시청,2019-04-05
"지석마을 그대가 크레던스 아파트 모든 지하주차장",공공용,경기도 용인시 기흥구 어정로 62-28,경기도 용인시 기흥구 상하동 675,37.3260322,127.0782523,16884,2659,Y,주차장,031-324-6782,경기도 용인시청,2019-04-05
"대우아파트 모든 지하주차장",공공용,경기도 용인시 기흥구 중부대로 735,경기도 용인시 기흥구 상하동 296,37.33243086,127.130725,5530,6703,Y,주차장,031-324-6782,경기도 용인시청,2019-04-05
"신일유토빌 아파트 모든 지하주차장",공공용,경기도 용인시 기흥구 어정로 62-7,경기도 용인시 기흥구 상하동 656,37.32768531,127.1158457,8552,10366,Y,주차장,031-324-6782,경기도 용인시청,2019-04-05
"인정프린스 아파트 모든 지하주차장",공공용,경기도 용인시 중부대로 820,경기도 용인시 기흥구 상하동 137,37.3249256,127.1147673,1779,2156,Y,주차장,031-324-6782,경기도 용인시청,2019-04-05
"쌍용아파트 모든 지하주차장",공공용,경기도 용인시 중부대로 788번길 20,경기도 용인시 기흥구 상하동 621,37.33082163,127.1257258,68043,6442,Y,주차장,031-324-6782,경기도 용인시청,2019-04-05
"진흥더루벤스 아파트 모든 지하주차장",공공용,경기도 용인시 중부대로 746번길 21,경기도 용인시 기흥구 상하동 660,37.32924797,127.1174007,56717,4085,Y,주차장,031-324-6782,경기도 용인시청,2019-04-05
"연원마을 성원아파트 103동 앞 지하주차장",공공용,경기도 용인시 기흥구 연원로 49,경기도 용인시 기흥구 보정동 694,37.32812416,127.113003,28760,3317,Y,주차장,031-324-6766,경기도 용인시청,2019-04-05
"연원마을 금호베스트빌 101동 지하주차장",공공용,경기도 용인시 기흥구 용구대로 2442-2,경기도 용인시 기흥구 보정동 1172,37.3344908,127.1212644,3867,4687,Y,주차장,031-324-6766,경기도 용인시청,2019-04-05
"연원마을 삼성명가타운아파트 전동 지하주차장",공공용,경기도 용인시 기흥구 용구대로 2460,경기도 용인시 기흥구 보정동 1177,37.32489829,127.1239694,11290,2035,Y,주차장,031-324-6766,경기도 용인시청,2019-04-05
"죽전 신세계쉐덴 전동 지하주차장",공공용,경기도 용인시 기흥구 진산로 222,경기도 용인시 기흥구 보정동 1179,37.3344908,127.1212644,3122,3784,Y,주차장,031-324-6766,경기도 용인시청,2019-04-05
"죽전자이2차아파트 지하주차장",공공용,경기도 용인시 기흥구 용구대로2469번길 20,경기도 용인시 기흥구 보정동 1291,37.3355358,127.1057095,6807,8251,Y,주차장,031-324-6766,경기도 용인시청,2019-04-05
"죽전누리에뜰아파트 지하주차장",공공용,경기도 용인시 기흥구 죽전로 20,경기도 용인시 기흥구 보정동 1263,37.33253465,127.1102022,6530,7915,Y,주차장,031-324-6766,경기도 용인시청,2019-04-05
"행원마을 동아솔레시티아파트 120동 지하주차장",공공용,경기도 용인시 기흥구 보정로 30,경기도 용인시 기흥구  보정동 1162,37.3260259,127.1069224,126849,8165,Y,주차장,031-324-6766,경기도 용인시청,2019-04-05
"솔뫼마을 현대홈타운 전동 지하주차장",공공용,경기도 용인시 기흥구 이현로30번길 7,경기도 용인시 기흥구 보정동 1169,37.3383055,127.0937324,60387,1834,Y,주차장,031-324-6766,경기도 용인시청,2019-04-05
"죽현마을 동원로얄듀크 310동 지하주차장",공공용,경기도 용인시 기흥구 죽현로 12,경기도 용인시 기흥구 보정동 1271,37.3405706,127.1005409,21806,3389,Y,주차장,031-324-6766,경기도 용인시청,2019-04-05
"죽현마을 엘지자이 102동 지하주차장",공공용,경기도 용인시 기흥구 보정로 88,경기도 용인시 기흥구 보정동 1258,37.33744416,127.0970651,3947,4784,Y,주차장,031-324-6766,경기도 용인시청,2019-04-05
"죽현마을 아이파크아파트 205동 지하주차장",공공용,경기도 용인시 기흥구 보정로 87,경기도 용인시 기흥구 보정동 1267,37.3398297,127.0972126,5272,6390,Y,주차장,031-324-6766,경기도 용인시청,2019-04-05
"성호샤인힐즈아파트 101동 지하주차장",공공용,경기도 용인시 기흥구 이현로29번길 72-1,경기도 용인시 기흥구 보정동  878-22,37.33593833,127.0962146,1915,2321,Y,주차장,031-324-6766,경기도 용인시청,2019-04-05
"신촌마을 상록데시앙 101동 지하주차장",공공용,경기도 용인시 기흥구 보정로 26,경기도 용인시 기흥구 보정동 1283,37.3363875,127.0880283,5360,6497,Y,주차장,031-324-6766,경기도 용인시청,2019-04-05
"신촌마을 포스홈타운1단지아파트 206동 지하주차장",공공용,경기도 용인시 기흥구 용구대로2518번길 15,경기도 용인시 기흥구 보정동 1282,37.3356019,127.0850101,30469,4243,Y,주차장,031-324-6766,경기도 용인시청,2019-04-05
"신촌마을 포스홈타운2단지아파트 302~303동 지하주차장",공공용,경기도 용인시 기흥구 신촌로47번길 11,경기도 용인시 기흥구 보정동 1298,37.358983,127.0658714,18844,2030,Y,주차장,031-324-6766,경기도 용인시청,2019-04-05
"보원아파트 102/104/105동 앞 지하주차장",공공용,"경기도 용인시 수지구 수풍로 16(풍덕천동, 토월마을보원아파트)",경기도 용인시 수지구 풍덕천동 692번지,37.30340016,127.0765334,7412,8984,Y,주차장,031-324-8781,경기도 용인시청,2019-04-05
"수지2차삼성아파트 201/202/205동 앞 지하주차장",공공용,"경기도 용인시 수지구 수풍로 38 (풍덕천동, 수지2차삼성래미안)",경기도 용인시 수지구 풍덕천동 692번지 1호,37.307926,127.0761856,8250,10000,Y,주차장,031-324-8781,경기도 용인시청,2019-04-05
"우성그린빌 각 동 지하주차장(후문입구 연결)",공공용,"경기도 용인시 수지구 수지로 398 (풍덕천동, 수지우성그린빌라)",경기도 용인시 수지구 풍덕천동 687번지 1호,37.30999761,127.0791706,10606,480,Y,주차장,031-324-8781,경기도 용인시청,2019-04-05
"한국아파트 101동 앞, 103동 뒤 지하주차장",공공용,"경기도 용인시 수지구 정평로 116 (풍덕천동, 한국아파트)",경기도 용인시 수지구 풍덕천동 699번지,37.30761964,127.0833147,12170,1997,Y,주차장,031-324-8781,경기도 용인시청,2019-04-05
"동보아파트 102동/관리사무소 앞 지하주차장",공공용,"경기도 용인시 수지구 풍덕천로 161 (풍덕천동, 수지마을동보아파트)",경기도 용인시 수지구 풍덕천동 703번지,37.3017107,127.0734575,3907,4736,Y,주차장,031-324-8781,경기도 용인시청,2019-04-05
"수지4차삼성아파트 각 동 지하대피소",공공용,"경기도 용인시 수지구 수풍로 90 (풍덕천동, 수지4차삼성래미안)",경기도 용인시 수지구 풍덕천동 663번지 1호,37.3140878,127.092754,6920,8388,Y,지하시설,031-324-8781,경기도 용인시청,2019-04-05
"동문아파트 관리사무소 앞 지하주차장",공공용,"경기도 용인시 수지구 수풍로 47 (풍덕천동, 동문아파트)",경기도 용인시 수지구 풍덕천동 690번지,37.30478488,127.0907923,2599,3150,Y,주차장,031-324-8781,경기도 용인시청,2019-04-05
"건영아파트 103동 앞 지하주차장",공공용,"경기도 용인시 수지구 수풍로23번길 25 (풍덕천동, 건영아파트)",경기도 용인시 수지구 풍덕천동 694번지,37.3121418,127.0872845,2172,2633,Y,주차장,031-324-8781,경기도 용인시청,2019-04-05
"삼성쉐르빌 각 동 지하주차장",공공용,"경기도 용인시 수지구 수풍로37번길 28 (풍덕천동, 삼성쉐르빌)",경기도 용인시 수지구 풍덕천동 400번지,37.316175,127.0798382,981,1189,Y,주차장,031-324-8781,경기도 용인시청,2019-04-05
"수지구청 지하주차장",공공용,경기도 용인시 수지구 포은대로 435 (풍덕천동),경기도 용인시 수지구 풍덕천동 720번지,37.3141146,127.077801,18010,21830,Y,주차장,031-324-8781,경기도 용인시청,2019-04-05
"동보4차 아파트 지하주차장(전동 지하)",공공용,"경기도 용인시 수지구 풍덕천로30번길 20 (풍덕천동, 두성마을동보4차아파트)",경기도 용인시 수지구 풍덕천동 240번지 3호,37.31862335,127.0718962,5033,6101,Y,주차장,031-324-8781,경기도 용인시청,2019-04-05
"신정마을 7단지 상록아파트 지하주차장(전동 지하)",공공용,"경기도 용인시 수지구 풍덕천로 75 (풍덕천동, 신정마을7단지아파트)",경기도 용인시 수지구 풍덕천동 1060번지,37.3184372,127.0635799,19249,3216,Y,주차장,031-324-8781,경기도 용인시청,2019-04-05
"신정마을 8단지 현대성우아파트 지하주차장(전동 지하)",공공용,"경기도 용인시 수지구 풍덕천로 52 (풍덕천동, 신정마을현대성우아파트)",경기도 용인시 수지구 풍덕천동 1112번지,37.32222237,127.0618088,5151,6244,Y,주차장,031-324-8781,경기도 용인시청,2019-04-05
"신정마을 6단지 상록아파트 지하주차장(전동 지하)",공공용,"경기도 용인시 수지구 풍덕천로 33 (풍덕천동, 신정마을6단지아파트)",경기도 용인시 수지구 풍덕천동 1028번지,37.2332327,127.1963404,4151,5032,Y,주차장,031-324-8781,경기도 용인시청,2019-04-05
"진산마을 삼성7차 아파트 지하주차장(전동 지하)",공공용,"경기도 용인시 수지구 진산로66번길 27 (풍덕천동, 진산마을삼성래미안7차아파트)",경기도 용인시 수지구 풍덕천동 1180번지 1호,37.222691,127.190167,48318,2405,Y,주차장,031-324-8781,경기도 용인시청,2019-04-05
"신정마을 9단지 주공아파트 지하주차장(전동 지하)",공공용,"경기도 용인시 수지구 풍덕천로 76 (풍덕천동, 용인수지신정마을9단지)",경기도 용인시 수지구 풍덕천동 1104번지,37.2582982,127.2368783,12156,3898,Y,주차장,031-324-8781,경기도 용인시청,2019-04-05
"용인시여성회관앞 지하보도",공공용,경기도 용인시 수지구 포은대로 410 (풍덕천동),경기도 용인시 수지구 풍덕천동 1165번지,37.2327418,127.2191418,427,518,Y,지하시설,031-324-8781,경기도 용인시청,2019-04-05
"동보3차 아파트 지하주차장(전동 지하)",공공용,"경기도 용인시 수지구 정평로13번길 20 (풍덕천동, 동보3차아파트)",경기도 용인시 수지구 풍덕천동 504번지 10호,37.2867008,127.1083516,2145,2600,Y,주차장,031-324-8781,경기도 용인시청,2019-04-05
"신정마을 진흥아파트 지하주차장(전동 지하)",공공용,"경기도 용인시 수지구 풍덕천로 19 (풍덕천동, 신정마을진흥아파트)",경기도 용인시 수지구 풍덕천동 1027번지,37.28486973,127.1064474,5151,6244,Y,주차장,031-324-8781,경기도 용인시청,2019-04-05
"신봉동 삼성쉐르빌",공공용,"경기도 용인시 수지구 신봉1로330번길 15-2 (신봉동, 신봉리쉐르빌1단지)",경기도 용인시 수지구 신봉동 708번지 13호,37.2871575,127.1113133,855,1036,Y,주차장,031-324-8652,경기도 용인시청,2019-04-05
"신봉동 LG빌리지5차 A단지",공공용,"경기도 용인시 수지구 신봉1로 112-2 (신봉동, 신봉마을엘지빌리지5차)",경기도 용인시 수지구 신봉동 870번지,37.28822518,127.1141973,27753,2554,Y,주차장,031-324-8652,경기도 용인시청,2019-04-05
"서홍마을 한화꿈에그린",공공용,"경기도 용인시 수지구 신봉1로48번길 32 (신봉동, 서홍마을한화꿈에그린)",경기도 용인시 수지구 신봉동 880번지,37.26755684,127.0962899,10408,1939,Y,주차장,031-324-8652,경기도 용인시청,2019-04-05
"서흥마을 4단지(현대효성)",공공용,"경기도 용인시 수지구 신봉1로 28 (신봉동, 서홍마을효성화운트빌아파트)",경기도 용인시 수지구 신봉동 893번지,37.27148001,127.0736328,8963,10864,Y,주차장,031-324-8652,경기도 용인시청,2019-04-05
"서흥마을 우남퍼스트빌",공공용,"경기도 용인시 수지구 신봉1로 27 (신봉동, 서홍마을우남퍼스트빌)",경기도 용인시 수지구 신봉동 905번지,37.2756222,127.1321516,29165,4618,Y,주차장,031-324-8652,경기도 용인시청,2019-04-05
"신봉마을 엘지자이2차",공공용,"경기도 용인시 수지구 신봉2로 72 (신봉동, 신봉마을자이2차아파트)",경기도 용인시 수지구 신봉동 911번지,37.28355601,127.1123048,31502,7805,Y,주차장,031-324-8652,경기도 용인시청,2019-04-05
"신봉동 엘지빌리지5차 B단지",공공용,"경기도 용인시 수지구 신봉1로 110 (신봉동, 신봉마을엘지빌리지5차)",경기도 용인시 수지구 신봉동 871번지,37.27531699,127.1159548,26752,2669,Y,주차장,031-324-8652,경기도 용인시청,2019-04-05
"신봉마을 엘지자이1차",공공용,"경기도 용인시 수지구 신봉2로 26 (신봉동, 신봉마을엘지자이1차아파트)",경기도 용인시 수지구 신봉동 873번지,37.2633095,127.1059668,34790,9552,Y,주차장,031-324-8652,경기도 용인시청,2019-04-05
"죽전현대1차 아파트(지하주차장)",공공용,"경기도 용인시 수지구 죽전로 244 (죽전동, 현대1차아파트)",경기도 용인시 수지구 죽전동 89번지 1호,37.2625199,127.1103673,6032,7312,Y,주차장,031-324-8665,경기도 용인시청,2019-04-05
"도담마을 죽전파크빌(지하주차장)",공공용,"경기도 용인시 수지구 정든로 22 (죽전동, 도담마을죽전파크빌)",경기도 용인시 수지구 죽전동 339번지,37.26470042,127.1108473,2640,3200,Y,주차장,031-324-8665,경기도 용인시청,2019-04-05
"도담마을7단지 뜨리에체 아파트(지하주차장)",공공용,"경기도 용인시 수지구 푸른솔로 49 (죽전동, 도담마을7단지뜨리에체아파트)",경기도 용인시 수지구 죽전동 414번지,37.24006385,127.0713166,3759,4556,Y,주차장,031-324-8665,경기도 용인시청,2019-04-05
"용인죽전동부센트레빌(지하주차장)",공공용,"경기도 용인시 수지구 대지로 139 (죽전동, 용인죽전동부센트레빌)",경기도 용인시 수지구 죽전동 172번지 1호,37.25168649,127.1175597,9864,11956,Y,주차장,031-324-8665,경기도 용인시청,2019-04-05
"도담마을아이파크(지하주차장)",공공용,"경기도 용인시 수지구 대지로 82 (죽전동, 도담마을아이파크)",경기도 용인시 수지구 죽전동 331번지,37.2312393,127.1095235,8290,10048,Y,주차장,031-324-8665,경기도 용인시청,2019-04-05
"대주한신 아파트 (지하주차장)",공공용,"경기도 용인시 수지구 대지로 27 (죽전동, 대주한신아파트)",경기도 용인시 수지구 죽전동 453번지 1호,37.2283451,127.1144572,7867,9536,Y,주차장,031-324-8665,경기도 용인시청,2019-04-05
"새터마을죽전힐스테이트(715동 지하주차장)",공공용,"경기도 용인시 수지구 현암로125번길 11 (죽전동, 새터마을죽전힐스테이트)",경기도 용인시 수지구 죽전동 1165번지,37.2401063,127.1084713,21029,9590,Y,주차장,031-324-8665,경기도 용인시청,2019-04-05
"성현마을우미이노스빌(지하주차장)",공공용,"경기도 용인시 수지구 죽전로 143 (죽전동, 성현마을우미이노스빌)",경기도 용인시 수지구 죽전동 1329번지,37.24440585,127.0730339,11642,2582,Y,주차장,031-324-8685,경기도 용인시청,2019-04-05
"새터마을죽전힐스테이트(717동 지하주차장)",공공용,"경기도 용인시 수지구 현암로125번길 11 (죽전동, 새터마을죽전힐스테이트)",경기도 용인시 수지구 죽전동 1165번지,37.2380967,127.0722069,40920,9590,Y,주차장,031-324-8685,경기도 용인시청,2019-04-05
"벽산타운2단지내지하주차장",공공용,"경기도 용인시 수지구 용구대로2771번길 66 (죽전동, 용인수지벽산타운2단지)",경기도 용인시 수지구 죽전동 832번지 1호,37.26972996,127.1570934,9864,11956,Y,주차장,031-324-8685,경기도 용인시청,2019-04-05
"죽전아이뷰내지하주차장",공공용,"경기도 용인시 수지구 현암로 3 (죽전동, 죽전아이뷰)",경기도 용인시 수지구 죽전동 883번지 1호,37.28538085,127.1612306,4574,5544,Y,주차장,031-324-8685,경기도 용인시청,2019-04-05
"죽전2동주민센터내주하주차장(포은아트홀내지하주차장)",공공용,"경기도 용인시 수지구 포은대로 523 (죽전동, 죽전2동주민센터)",경기도 용인시 수지구 죽전동 1003번지 239호,37.28173804,127.1578265,15289,18532,Y,주차장,031-324-8685,경기도 용인시청,2019-04-05
"동문굿모닝힐3차 102동 앞 지하주차장",공공용,"경기도 용인시 수지구 동천로 93 (동천동, 동천마을동문굿모닝힐3차아파트)",경기도 용인시 수지구 동천동 858번지,37.26330425,127.153955,7811,9468,Y,주차장,031-324-8705,경기도 용인시청,2019-04-05
"영풍아파트 지하주차장",공공용,"경기도 용인시 수지구 신수로783번길 22 (동천동, 동천마을영풍아파트)",경기도 용인시 수지구 동천동 911번지,37.25999834,127.1627051,2657,3221,Y,주차장,031-324-8705,경기도 용인시청,2019-04-05
"수진마을2단지 지하주차장",공공용,"경기도 용인시 수지구 손곡로 54 (동천동, 수진마을2단지)",경기도 용인시 수지구 동천동 868번지,37.26624531,127.1566532,7712,9348,Y,주차장,031-324-8705,경기도 용인시청,2019-04-05
"동문굿모닝힐6차 604동 앞 지하주차장",공공용,"경기도 용인시 수지구 동천로 53 (동천동, 동문굿모닝힐6차아파트)",경기도 용인시 수지구 동천동 913번지,37.2759176,127.1548917,15645,1056,Y,주차장,031-324-8705,경기도 용인시청,2019-04-05
"수진마을신명스카이뷰 지하주차장",공공용,"경기도 용인시 수지구 손곡로 53 (동천동, 수진마을신명스카이뷰)",경기도 용인시 수지구 동천동 870번지,37.2684339,127.1361769,6768,8204,Y,주차장,031-324-8705,경기도 용인시청,2019-04-05
"수진마을써니벨리 103동 앞 지하주차장",공공용,"경기도 용인시 수지구 손곡로 82 (동천동, 수진마을써니벨리아파트)",경기도 용인시 수지구 동천동 864번지,37.2711718,127.1390783,10105,3010,Y,주차장,031-324-8705,경기도 용인시청,2019-04-05
"래미안이스트팰리스1단지 1101,4동 앞 지하주차장",공공용,"경기도 용인시 수지구 동천로153번길 7 (동천동, 한빛마을래미안이스트팰리스1단지)",경기도 용인시 수지구 동천동 935번지,37.25743575,127.1371108,14346,2208,Y,주차장,031-324-8705,경기도 용인시청,2019-04-05
"래미안이스트팰리스4단지 1401동 앞 지하주차장",공공용,"경기도 용인시 수지구 동천로153번길 6 (동천동, 한빛마을래미안이스트팰리스4단지)",경기도 용인시 수지구 동천동 923번지,37.304093,127.1073251,18963,2976,Y,주차장,031-324-8705,경기도 용인시청,2019-04-05
"고기초등학교 식당",공공용,"경기도 용인시 수지구 고기로 385 (고기동, 고기초등학교)",경기도 용인시 수지구 동천동 172번지 1호,37.3232172,127.1093014,282,342,Y,구내식당,031-324-8705,경기도 용인시청,2019-04-05
"금호베스트빌1단지 지하주차장",공공용,"경기도 용인시 수지구 상현로 59 (상현동, 금호베스트빌1단지아파트)",경기도 용인시 수지구 상현동 827번지,37.311563,127.1123596,19104,2750,Y,주차장,031-324-8732,경기도 용인시청,2019-04-05
"쌍용2차A단지 주차장",공공용,"경기도 용인시 수지구 상현로 27 (상현동, 상현마을쌍용2차스윗닷홈A단지아파트)",경기도 용인시 수지구 상현동 824번지,37.31931014,127.1112253,15348,4738,Y,주차장,031-324-8732,경기도 용인시청,2019-04-05
SM트윈빌 단지내 비상대피시설,공공용,"경기도 용인시 수지구 수지로 56 (상현동, 수지SM트윈빌)",경기도 용인시 수지구 상현동 192번지 5호,37.31744123,127.1132984,380,461,Y,지하시설,031-324-8732,경기도 용인시청,2019-04-05
"풍산아파트",공공용,"경기도 용인시 수지구 수지로78번길 20 (상현동, 풍산아파트)",경기도 용인시 수지구 상현동 96번지 1호,37.31344314,127.1106526,5247,6360,Y,주차장,031-324-8732,경기도 용인시청,2019-04-05
"서원마을3단지아이파크",공공용,"경기도 용인시 수지구 포은대로 219 (상현동, 서원마을3단지아이파크)",경기도 용인시 수지구 상현동 860번지,37.32611746,127.0911925,5792,7021,Y,주차장,031-324-8732,경기도 용인시청,2019-04-05
"수지센트럴아이파크",공공용,"경기도 용인시 수지구 상현로 101 (상현동, 상현마을수지센트럴아이파크)",경기도 용인시 수지구 상현동 842번지,37.32363599,127.0935363,2265,2745,Y,주차장,031-324-8732,경기도 용인시청,2019-04-05
"현대아파트",공공용,"경기도 용인시 수지구 상현로 2 (상현동, 상현마을현대2차아이파크)",경기도 용인시 수지구 상현동 853번지,37.32902603,127.0911419,10446,2390,Y,주차장,031-324-8732,경기도 용인시청,2019-04-05
"동보2차아파트 102동 지하주차장",공공용,"경기도 용인시 수지구 포은대로 298 (상현동, 만현마을동보2차아파트)",경기도 용인시 수지구 상현동 1번지,37.3164253,127.0872684,8583,10404,Y,주차장,031-324-8584,경기도 용인시청,2019-04-05
"성원아파트 113동 지하주차장외",공공용,"경기도 용인시 수지구 진산로 24 (상현동, 성원상떼빌아파트)",경기도 용인시 수지구 상현동 30번지,37.31891994,127.0864771,20760,8371,Y,주차장,031-324-8584,경기도 용인시청,2019-04-05
"엘지자이아파트 901동 지하주차장",공공용,"경기도 용인시 수지구 만현로133번길 33 (상현동, 만현마을9단지엘지자이아파트)",경기도 용인시 수지구 상현동 869번지,37.31720775,127.086791,10368,4963,Y,주차장,031-324-8584,경기도 용인시청,2019-04-05
"상현그린공원(상현2동주민센터) 지하주차장",공공용,"경기도 용인시 수지구 만현로 48 (상현동, 상현2동주민자치센터)",경기도 용인시 수지구 상현동 57번지 1호,37.3373824,127.0931922,6811,8256,Y,주차장,031-324-8584,경기도 용인시청,2019-04-05
"성복동 성동마을 LG빌리지1차 지하주차장",공공용,"경기도 용인시 수지구 성복2로 86 (성복동, 성동마을엘지빌리지1차)",경기도 용인시 수지구 성복동 155번지,37.30544925,127.0790711,73055,5587,Y,주차장,031-324-8765,경기도 용인시청,2019-04-05
"성복동 푸른마을 푸르지오 지하주차장",공공용,"경기도 용인시 수지구 성복2로76번길 31 (성복동, 푸른마을푸르지오)",경기도 용인시 수지구 성복동 741번지,37.30792465,127.0800303,22229,2064,Y,주차장,031-324-8765,경기도 용인시청,2019-04-05
"성복동 성동마을 강남빌리지 지하주차장",공공용,"경기도 용인시 수지구 수지로113번길 16 (성복동, 성동마을강남빌리지)",경기도 용인시 수지구 성복동 84번지,37.3133352,127.0874438,16084,2054,Y,주차장,031-324-8765,경기도 용인시청,2019-04-05
"성복동 성동마을 LG빌리지 3차 지하주차장",공공용,"경기도 용인시 수지구 성복2로 126 (성복동, 성동마을엘지빌리지3차)",경기도 용인시 수지구 성복동 726번지,37.3169439,127.075941,70478,5923,Y,주차장,031-324-8765,경기도 용인시청,2019-04-05
"성복동 벽산아파트 제5주차장",공공용,"경기도 용인시 수지구 성복1로 107 (성복동, 성남마을벽산첼시빌2차아파트)",경기도 용인시 수지구 성복동 723번지,37.3144979,127.0663465,6425,7788,Y,주차장,031-324-8765,경기도 용인시청,2019-04-05
"성복동 힐스테이트 2차 지하주차장",공공용,"경기도 용인시 수지구 성복1로164번길 13 (성복동, 버들치마을성복힐스테이트2차아파트)",경기도 용인시 수지구 성복동 759번지,37.31932085,127.0853042,37934,3307,Y,주차장,031-324-8765,경기도 용인시청,2019-04-05
"성복동 성복아이파크 지하1,2층",공공용,"경기도 용인시 수지구 성복1로 222 (성복동, 용인성복아이파크)",경기도 용인시 수지구 성복동 780번지,37.25271891,127.1195362,7904,9581,Y,주차장,031-324-8765,경기도 용인시청,2019-04-05
