"민방위대피시설명",민방위대피시설구분,소재지도로명주소,소재지지번주소,위도,경도,민방위대피시설면적,대피가능인원수,개방여부,평시활용유형,관리기관전화번호,관리기관명,데이터기준일자
"부천역 문예전시관",공공용,경기도 부천시 부천로 3 (심곡동),경기도 부천시 심곡동 498,37.48463918,126.7823195,363,440,Y,기타,032-625-5014,경기도 부천시,2021-07-29
"원미1동행정복지센터",공공용,경기도 부천시 부천로136번길 27 (원미동),경기도 부천시 원미동 71,37.49673274,126.7875117,330,400,Y,기타,032-625-5185,경기도 부천시,2021-07-29
"소사초등학교",공공용,"경기도 부천시 은성로 58 (소사본동, 소사초등학교)",경기도 부천시 소사본동 193,37.47361187,126.7973298,727.28,881,N,기타,032-625-6184,경기도 부천시,2021-07-29
"은행어린이공원",공공용,경기도 부천시 원미로149번길 4 (원미동),경기도 부천시 원미동 57,37.49618326,126.7908677,330,400,N,기타,032-625-5185,경기도 부천시,2021-07-29
"사랑마을청구아파트",공공용,경기도 부천시 장말로 137 (상동),경기도 부천시 상동 417,37.49484234,126.7565081,16364,19835,Y,기타,032-625-5353,경기도 부천시,2021-07-29
"태송팰리채아파트",공공용,"경기도 부천시 부광로41번길 64 (괴안동, 태송팰리채아파트 지상주차장)",경기도 부천시 괴안동 162-2,37.48232116,126.8171335,3141,3807,Y,기타,032-625-6354,경기도 부천시,2021-07-29
"세창짜임아파트",공공용,"경기도 부천시 역곡로20번길 62 (역곡동, 역곡세창짜임아파트)",경기도 부천시 역곡동 114,37.48776385,126.8142315,1366,1655,Y,기타,032-625-5185,경기도 부천시,2021-07-29
"동진아파트(성곡동)",공공용,경기도 부천시 소사로699번길 29 (원종동),경기도 부천시 원종동 378-1,37.51833767,126.8032905,704.14,853,Y,기타,032-625-7014,경기도 부천시,2021-07-29
"현대아파트 A가동,A나동",공공용,"경기도 부천시 소사로300번길 141 (역곡동, 역곡현대아파트)",경기도 부천시 역곡동 산 51-19,37.48478034,126.8011113,330,209,Y,기타,032-625-5185,경기도 부천시,2021-07-29
"현대아파트 B가동,B나동",공공용,"경기도 부천시 소사로300번길 141 (역곡동, 역곡현대아파트)",경기도 부천시 역곡동 산 51-19,37.48478034,126.8011113,330,209,Y,기타,032-625-5185,경기도 부천시,2021-07-29
"약대동 현대아파트",공공용,"경기도 부천시 신흥로321번길 27 (약대동, 현대아파트)",경기도 부천시 약대동 산 33-4,37.512059,126.7739203,1617,1960,Y,기타,032-625-5523,경기도 부천시,2021-07-29
"로얄아파트",공공용,"경기도 부천시 성지로 8 (작동, 로얄아파트)",경기도 부천시 작동 5,37.52060019,126.8129534,3593.4,4348,Y,기타,032-625-7014,경기도 부천시,2021-07-29
"월산장미아파트",공공용,경기도 부천시 삼작로 349 (여월동),경기도 부천시 여월동 2-16,37.52026627,126.8006625,3147.12,3808,Y,기타,032-625-7014,경기도 부천시,2021-07-29
"장애인복지회관",공공용,경기도 부천시 역곡로 367 (작동),경기도 부천시 작동 57,37.51751553,126.8138114,459.51,556,Y,기타,032-625-7014,경기도 부천시,2021-07-29
"아남아파트 지하주차장",공공용,경기도 부천시 심곡로 83 (심곡본동),경기도 부천시 심곡본동 819-4,37.47679191,126.7754159,1182,1432,Y,기타,032-625-6013,경기도 부천시,2021-07-29
"복사골 건영2차아파트",공공용,"경기도 부천시 중동로 166 (중동, 복사골마을건영아이숲,건영캐스빌아파트)",경기도 부천시 중동 1186,37.49355378,126.7674921,2957,3584,Y,기타,032-625-5523,경기도 부천시,2021-07-29
"새부천감리교회",공공용,경기도 부천시 부천로122번길 48 (원미동),경기도 부천시 원미동 100-3,37.49459813,126.7879393,330,400,Y,기타,032-625-5185,경기도 부천시,2021-07-29
"포도마을 뉴서울아파트",공공용,경기도 부천시 소향로 124 (중동),경기도 부천시 중동 1171,37.50094204,126.7613594,9907,12008,Y,기타,032-625-5523,경기도 부천시,2021-07-29
"무지개마을 LG아파트",공공용,경기도 부천시 중동로 187 (중동),경기도 부천시 중동 1175-2,37.49660931,126.7671034,5768,6991,Y,기타,032-625-5523,경기도 부천시,2021-07-29
"무지개마을 동신아파트",공공용,경기도 부천시 조마루로 212 (중동),경기도 부천시 중동 1176-2,37.49849042,126.7666874,8514,10320,Y,기타,032-625-5523,경기도 부천시,2021-07-29
"미리내마을 삼성,은하수 아파트",공공용,경기도 부천시 소향로 206 (중동),경기도 부천시 중동 1178,37.50070416,126.7711881,9125,11060,Y,기타,032-625-5523,경기도 부천시,2021-07-29
"미리내마을 롯데아파트",공공용,경기도 부천시 조마루로 271 (중동),경기도 부천시 중동 1180-1,37.49836242,126.7742671,8481,10280,Y,기타,032-625-5523,경기도 부천시,2021-07-29
"미리내마을 동성아파트",공공용,경기도 부천시 조마루로 231 (중동),경기도 부천시 중동 1181,37.49977059,126.7694067,11378,13791,Y,기타,032-625-5523,경기도 부천시,2021-07-29
"그린타운 한신아파트",공공용,경기도 부천시 부흥로 237 (중동),경기도 부천시 중동 1183,37.49636696,126.7688589,10514,12744,Y,기타,032-625-5523,경기도 부천시,2021-07-29
"그린타운 삼성 우성아파트",공공용,경기도 부천시 중동로 204 (중동),경기도 부천시 중동 1182,37.49810777,126.7692154,12250,14848,Y,기타,032-625-5523,경기도 부천시,2021-07-29
"꿈마을 동아아파트",공공용,경기도 부천시 옥산로 75 (중동),경기도 부천시 중동 1103,37.50025804,126.778835,2393,2900,Y,기타,032-625-5523,경기도 부천시,2021-07-29
"반달마을 동아아파트 지하주차장",공공용,"경기도 부천시 상일로 71 (상동, 반달마을건영,동아,선경아파트)",경기도 부천시 상동 397,37.49309097,126.7511067,2198,2664,Y,기타,032-625-5693,경기도 부천시,2021-07-29
"반달 선경아파트 지하주차장",공공용,"경기도 부천시 상일로 71 (상동, 반달마을건영,동아,선경아파트)",경기도 부천시 상동 397,37.49309097,126.7511067,2195,2660,Y,기타,032-625-5693,경기도 부천시,2021-07-29
"반달마을 삼익아파트 지하주차장",공공용,"경기도 부천시 장말로 102 (상동, 반달마을삼익아파트)",경기도 부천시 상동 395,37.49333224,126.7532864,4198,5088,Y,기타,032-625-5693,경기도 부천시,2021-07-29
"한아름 1차아파트 지하주차장",공공용,"경기도 부천시 장말로 71 (상동, 한아름마을라이프,현대1차아파트)",경기도 부천시 상동 392,37.49445401,126.7505945,6719,8144,Y,기타,032-625-5693,경기도 부천시,2021-07-29
"반달마을 건영아파트 지하주차장",공공용,"경기도 부천시 상일로 71 (상동, 반달마을건영,동아,선경아파트)",경기도 부천시 상동 397,37.49309097,126.7511067,2079,2520,Y,기타,032-625-5693,경기도 부천시,2021-07-29
"중흥마을 신동아 아파트(지하 주차장)",공공용,"경기도 부천시 중동로280번길 27 (중동, 중흥마을신동아아파트)",경기도 부천시 중동 1055,37.50465866,126.772118,31574,38271,Y,기타,032-625-5523,경기도 부천시,2021-07-29
"중흥마을 극동.두산 아파트(지하 주차장)",공공용,"경기도 부천시 중동로280번길 63 (중동, 중흥마을극동,두산아파트)",경기도 부천시 중동 1054,37.50426541,126.7740624,21978,26640,Y,기타,032-625-5523,경기도 부천시,2021-07-29
"광성상가",공공용,"경기도 부천시 옥산로138번길 30 (춘의동, 광성아파트)",경기도 부천시 춘의동 127,37.50551042,126.7819264,6765,8200,Y,기타,032-625-5185,경기도 부천시,2021-07-29
"미리내마을 한신,금호,한양아파트",공공용,경기도 부천시 조마루로285번길 47 (중동),경기도 부천시 중동 1179,37.5003837,126.7720408,4198,5088,Y,기타,032-625-5523,경기도 부천시,2021-07-29
"중앙공원 지하주차장",공공용,경기도 부천시 소향로 162 (중동),경기도 부천시 중동 1177,37.5006043,126.7637161,34323,41603,Y,기타,032-625-5523,경기도 부천시,2021-07-29
"그린타운 금호한양아파트",공공용,"경기도 부천시 부흥로303번길 31 (중동, 그린타운금호,한양아파트)",경기도 부천시 중동 1185-2,37.4953089,126.7732702,16444,19932,Y,기타,032-625-5523,경기도 부천시,2021-07-29
"연화마을 건영3차아파트",공공용,경기도 부천시 옥산로 16 (중동),경기도 부천시 중동 1099-2,37.49463569,126.7813085,4439,5380,Y,기타,032-625-5523,경기도 부천시,2021-07-29
"연화마을 쌍용아파트",공공용,경기도 부천시 옥산로 47 (중동),경기도 부천시 중동 1101,37.49803488,126.7803222,5462,6620,Y,기타,032-625-5523,경기도 부천시,2021-07-29
"꿈마을 건영4차아파트",공공용,경기도 부천시 옥산로 65 (중동),경기도 부천시 중동 1102,37.49877125,126.7794428,9026,10940,Y,기타,032-625-5523,경기도 부천시,2021-07-29
"꿈마을 삼환한진아파트",공공용,경기도 부천시 옥산로 83 (중동),경기도 부천시 중동 1104,37.50216002,126.7791048,11220,13600,Y,기타,032-625-5523,경기도 부천시,2021-07-29
"대우동부아파트 지하주차장",공공용,"경기도 부천시 석천로 218 (중동, 은하마을 대우동부아파트(505동 앞))",경기도 부천시 중동 1037,37.50675947,126.7638768,34419,41720,Y,기타,032-625-5523,경기도 부천시,2021-07-29
"반달마을 극동 아파트 지하주차장",공공용,"경기도 부천시 상일로 72 (상동, 반달마을극동아파트)",경기도 부천시 상동 399,37.49051833,126.7497408,5927,7184,Y,기타,032-625-5693,경기도 부천시,2021-07-29
"한아름 2차 아파트 지하주차장",공공용,"경기도 부천시 부흥로 100 (상동, 한아름마을동성,동아,삼환아파트)",경기도 부천시 상동 393,37.49669035,126.7534059,6996,8480,Y,기타,032-625-5693,경기도 부천시,2021-07-29
"덕유1단지 아파트(지하주차장)",공공용,경기도 부천시 도약로 146 (중동),경기도 부천시 중동 1041,37.5095138,126.7671245,1445,1751,Y,기타,032-625-5523,경기도 부천시,2021-07-29
"뉴서울아파트",공공용,"경기도 부천시 중동로71번길 39 (송내동, 뉴서울아파트)",경기도 부천시 송내동 368,37.48585455,126.7628489,20264.55,24563,Y,기타,032-625-6013,경기도 부천시,2021-07-29
"소사두산삼성아파트",공공용,"경기도 부천시 소사로78번길 81 (소사본동, 두산,삼성아파트)",경기도 부천시 소사본동 403,37.46700743,126.8012323,4932.25,5978,Y,기타,032-625-6184,경기도 부천시,2021-07-29
"포도마을 삼보아파트",공공용,경기도 부천시 조마루로 135 (중동),경기도 부천시 중동 1170,37.50030747,126.7598953,13682,16584,Y,기타,032-625-5523,경기도 부천시,2021-07-29
"포도마을 영남아파트",공공용,경기도 부천시 조마루로 135 (중동),경기도 부천시 중동 1170,37.50030747,126.7598953,13052,15820,Y,기타,032-625-5523,경기도 부천시,2021-07-29
"보람마을 아주아파트",공공용,경기도 부천시 조마루로 134 (중동),경기도 부천시 중동 1172,37.49760043,126.7568264,19658,23827,Y,기타,032-625-5523,경기도 부천시,2021-07-29
"보람마을 동남아파트",공공용,경기도 부천시 석천로 107 (중동),경기도 부천시 중동 1173-1,37.49800341,126.7607336,6881,8340,Y,기타,032-625-5523,경기도 부천시,2021-07-29
"연화마을 대원아파트",공공용,"경기도 부천시 옥산로 33 (중동, 연화마을대원아파트)",경기도 부천시 중동 1100,37.49671945,126.7800533,8293,10052,Y,기타,032-625-5523,경기도 부천시,2021-07-29
"은하주공1차아파트 지하주차장",공공용,"경기도 부천시 중동로 301 (중동, 은하마을주공1단지아파트(529동 앞))",경기도 부천시 중동 1039,37.50674449,126.7680955,5446,6601,Y,기타,032-625-5523,경기도 부천시,2021-07-29
"금강마을아파트 지하주차장",공공용,"경기도 부천시 계남로 106 (중동, 금강마을아파트(411동 앞))",경기도 부천시 중동 1030,37.50728437,126.7601067,8910,10800,Y,기타,032-625-5523,경기도 부천시,2021-07-29
"한아름 동원아파트 지하주차장",공공용,"경기도 부천시 장말로 107-1 (상동, 한아름마을동원아파트)",경기도 부천시 상동 394-1,37.49580549,126.7544504,3897,4723,Y,기타,032-625-5693,경기도 부천시,2021-07-29
"대피시설 (국민은행지하)",공공용,"경기도 부천시 부일로 754 (역곡동, 역곡미래타운)",경기도 부천시 역곡동 112-8,37.48637062,126.8137183,1310,1587,Y,기타,032-625-5185,경기도 부천시,2021-07-29
"중흥주공아파트(지하 주차장)",공공용,경기도 부천시 계남로 196 (중동),경기도 부천시 중동 1052,37.50651402,126.7718439,990,1200,Y,기타,032-625-5523,경기도 부천시,2021-07-29
"원종빌딩",공공용,경기도 부천시 소사로 772 (원종동),경기도 부천시 원종동 277-3,37.52486494,126.8053377,2866.13,3473,Y,기타,032-625-7214,경기도 부천시,2021-07-29
"영웨딩컨벤션",공공용,경기도 부천시 경인로 125 (송내동),경기도 부천시 송내동 554,37.48443972,126.7696892,6316,7655,Y,기타,032-625-6013,경기도 부천시,2021-07-29
"롯데백화점",공공용,경기도 부천시 길주로 300 (중동),경기도 부천시 중동 1140-1,37.50254165,126.7753124,89654,10867,Y,기타,032-625-5523,경기도 부천시,2021-07-29
"한라주공2차아파트 지하주차장",공공용,"경기도 부천시 계남로 123 (중동, 한라마을주공1,2단지(103동 앞))",경기도 부천시 중동 1028,37.5106733,126.7639477,36614,44380,Y,기타,032-625-5523,경기도 부천시,2021-07-29
"은하주공2차아파트 지하주차장",공공용,"경기도 부천시 계남로 144 (중동, 은하마을주공2단지아파트(531동 앞))",경기도 부천시 중동 1038,37.50711811,126.7648018,4458,5403,Y,기타,032-625-5523,경기도 부천시,2021-07-29
"한아름 한국아파트 지하주차장",공공용,"경기도 부천시 부흥로 102 (상동, 한아름마을한국아파트)",경기도 부천시 상동 394,37.49676203,126.7540335,4336,5255,Y,기타,032-625-5693,경기도 부천시,2021-07-29
"한림빌딩",공공용,경기도 부천시 부일로 454 (심곡동),경기도 부천시 심곡동 383-15,37.48591959,126.7806561,360,436,Y,기타,032-625-5014,경기도 부천시,2021-07-29
"청안빌딩",공공용,"경기도 부천시 부흥로 398 (심곡동, 청안빌딩)",경기도 부천시 심곡동 157-4,37.48997678,126.7848002,271,328,Y,기타,032-625-5014,경기도 부천시,2021-07-29
"벨마리에",공공용,경기도 부천시 부천로 21 (심곡동),경기도 부천시 심곡동 177-8,37.48636941,126.7827241,1561,1892,Y,기타,032-625-5014,경기도 부천시,2021-07-29
"대림아파트(지하 주차장)",공공용,경기도 부천시 계남로 261 (중동),경기도 부천시 중동 3-207,37.5066700002,126.7785781,7596,9207,Y,기타,032-625-5523,경기도 부천시,2021-07-29
"부천대학 몽당도서관",공공용,경기도 부천시 신흥로56번길 12 (심곡동),경기도 부천시 심곡동 454-3,37.48845841,126.7776519,320,387,Y,기타,032-625-5014,경기도 부천시,2021-07-29
"복된교회",공공용,경기도 부천시 조종로8번길 25 (원미동),경기도 부천시 원미동 133-3,37.49227544,126.7857978,1320,1600,Y,기타,032-625-5014,경기도 부천시,2021-07-29
"국민은행",공공용,경기도 부천시 부천로 94 (원미동),경기도 부천시 원미동 134-7,37.49261255,126.7849292,594,720,Y,기타,032-625-5014,경기도 부천시,2021-07-29
"원미1동 대화파크APT",공공용,경기도 부천시 원미로155번길 37 (원미동),경기도 부천시 원미동 58-1,37.49644696,126.7900399,3462,4196,Y,기타,032-625-5185,경기도 부천시,2021-07-29
"해주1차아파트",공공용,경기도 부천시 소사로 814 (원종동),경기도 부천시 원종동 262-3,37.52866186,126.8058939,4218.2,5112,Y,기타,032-625-7214,경기도 부천시,2021-07-29
"동진아파트(1차)",공공용,경기도 부천시 고강로24번길 14 (원종동),경기도 부천시 원종동 180-3,37.53100287,126.8071809,2062.82,2500,Y,기타,032-625-7214,경기도 부천시,2021-07-29
"동문1차아파트",공공용,경기도 부천시 소사로 835 (원종동),경기도 부천시 원종동 70-1,37.53001863,126.8037921,8076.07,9789,Y,기타,032-625-7214,경기도 부천시,2021-07-29
"풍림아파트",공공용,경기도 부천시 원미로 100 (원미동),경기도 부천시 원미동 114-1,37.49192355,126.7918738,19173,23240,Y,기타,032-625-5014,경기도 부천시,2021-07-29
"노동복지회관",공공용,경기도 부천시 상오정로 10 (오정동),경기도 부천시 오정동 611,37.52400682,126.7850199543,624.7,757,Y,기타,032-625-7214,경기도 부천시,2021-07-29
"창보아파트",공공용,경기도 부천시 오정로 245 (오정동),경기도 부천시 오정동 373,37.52985285,126.7847593,8118,9840,Y,기타,032-625-7214,경기도 부천시,2021-07-29
"세종1차아파트",공공용,경기도 부천시 오정로 258 (오정동),경기도 부천시 오정동 177-1,37.53014414,126.7872441,2290.2,2775,Y,기타,032-625-7214,경기도 부천시,2021-07-29
"세종2차아파트",공공용,경기도 부천시 오정로252번길 41 (오정동),경기도 부천시 오정동 179,37.52949988,126.7884243,6543.9,7932,Y,기타,032-625-7214,경기도 부천시,2021-07-29
"삼두1차아파트",공공용,경기도 부천시 오정로244번길 51-12 (오정동),경기도 부천시 오정동 551,37.52796065,126.7886492,1755.6,2128,Y,기타,032-625-7214,경기도 부천시,2021-07-29
"에리트아파트",공공용,경기도 부천시 오정로252번길 66-15 (오정동),경기도 부천시 오정동 549,37.52812741,126.7897472,1115.4,1351,Y,기타,032-625-7214,경기도 부천시,2021-07-29
"부천우편집중국",공공용,"경기도 부천시 오정로211번길 40 (오정동, 부천우편집중국)",경기도 부천시 오정동 384,37.52949525,126.7825535,6002.7,7276,Y,기타,032-625-7214,경기도 부천시,2021-07-29
"운양아파트",공공용,"경기도 부천시 상오정로 31-14 (오정동, 두산빌라)",경기도 부천시 오정동 565,37.52459571,126.7875591,864.6,1048,Y,기타,032-625-7214,경기도 부천시,2021-07-29
"신한카사피아아파트",공공용,"경기도 부천시 상오정로 31-5 (오정동, 신한카사피아아파트)",경기도 부천시 오정동 566-7,37.52417351,126.7872128,676.5,820,Y,기타,032-625-7214,경기도 부천시,2021-07-29
"서초아파트(신흥동)",공공용,"경기도 부천시 수도로245번길 69 (내동, 서초아파트)",경기도 부천시 내동 349,37.52189476,126.7877455,1206.62,1463,Y,기타,032-625-7214,경기도 부천시,2021-07-29
"드림테크노스포츠(신흥동)",공공용,"경기도 부천시 중동로 426 (삼정동, 창안빌딩)",경기도 부천시 삼정동 303-3,37.5177645,126.7704656,621.49,752,Y,기타,032-625-7214,경기도 부천시,2021-07-29
"원종2주민지원센터(원종2동)",공공용,경기도 부천시 성오로 129 (오정동),경기도 부천시 오정동 139-7,37.52517891,126.7991351,379.5,460,Y,기타,032-625-7214,경기도 부천시,2021-07-29
"동문아파트(원종2동)",공공용,경기도 부천시 상오정로182번길 21 (원종동),경기도 부천시 원종동 121,37.52900172,126.7987359,7477.8,9064,Y,기타,032-625-7214,경기도 부천시,2021-07-29
"영화아파트(원종2동)",공공용,경기도 부천시 상오정로182번길 53 (원종동),경기도 부천시 원종동 129-8,37.52910218,126.8002237,5319.6,6448,Y,기타,032-625-7214,경기도 부천시,2021-07-29
"삼신아파트(원종2동)",공공용,경기도 부천시 원종로9번길 25 (원종동),경기도 부천시 원종동 207,37.52526385,126.8007659,2574,3120,Y,기타,032-625-7214,경기도 부천시,2021-07-29
"삼우아파트(고강본동)",공공용,"경기도 부천시 고리울로52번길 5 (고강동, 삼우아파트)",경기도 부천시 고강동 420-11,37.5266406,126.8221741,1890.92,2292,Y,기타,032-625-7014,경기도 부천시,2021-07-29
"미도아파트(고강본동)",공공용,"경기도 부천시 수주로 18 (고강동, 동문미도아파트)",경기도 부천시 고강동 327-7,37.52471967,126.8259861,5266.14,63833,Y,기타,032-625-7014,경기도 부천시,2021-07-29
"오성빌딩(고강본동)",공공용,"경기도 부천시 역곡로 494 (고강동, 오성빌딩)",경기도 부천시 고강동 350-4,37.52888749,126.8163307,694.22,841,Y,기타,032-625-7014,경기도 부천시,2021-07-29
"유호아파트(고강본동)",공공용,"경기도 부천시 수주로 26 (고강동, 유호아파트)",경기도 부천시 고강동 327-3,37.52607848,126.8258679,1844.64,2236,Y,기타,032-625-7014,경기도 부천시,2021-07-29
"건우아파트",공공용,"경기도 부천시 역곡로455번길 60 (고강동, 건우아파트)",경기도 부천시 고강동 307,37.52589649,126.8128595,2534,3071,Y,기타,032-625-7014,경기도 부천시,2021-07-29
"서원아파트",공공용,"경기도 부천시 원종로131번길 49 (고강동, 서원아파트)",경기도 부천시 고강동 464-3,37.52612095,126.8146464,2122,2572,Y,기타,032-625-7014,경기도 부천시,2021-07-29
"삼두아파트",공공용,"경기도 부천시 원종로119번길 46 (고강동, 삼두아파트)",경기도 부천시 고강동 333-2,37.52628025,126.8135568,1320,1600,Y,기타,032-625-7014,경기도 부천시,2021-07-29
"부강아파트",공공용,"경기도 부천시 원종로 118 (고강동, 부강아파트1차)",경기도 부천시 고강동 304-3,37.52377377,126.8130542,557,675,Y,기타,032-625-7014,경기도 부천시,2021-07-29
"부촌아파트",공공용,"경기도 부천시 고강로72번길 52 (고강동, 부촌1차아파트)",경기도 부천시 고강동 292-7,37.52750351,126.8117257,407,493,Y,기타,032-625-7014,경기도 부천시,2021-07-29
"오화아파트",공공용,"경기도 부천시 원종로119번길 54 (고강동, 오화아파트)",경기도 부천시 고강동 333,37.52656794,126.8139000054,392,475,Y,기타,032-625-7014,경기도 부천시,2021-07-29
KT북부천지점,공공용,"경기도 부천시 삼작로 286 (도당동, KT북부천지점)",경기도 부천시 도당동 117,37.51993108,126.7936256,924,1120,Y,기타,032-625-5185,경기도 부천시,2021-07-29
"푸른솔아파트",공공용,"경기도 부천시 성곡로69번길 107 (도당동, 푸른솔아파트)",경기도 부천시 도당동 105-3,37.51854938,126.7919181,264,320,Y,기타,032-625-5185,경기도 부천시,2021-07-29
"봉림아파트",공공용,"경기도 부천시 수도로206번길 74 (도당동, 봉림아파트)",경기도 부천시 도당동 48,37.51710539,126.7877445,264,320,Y,기타,032-625-5185,경기도 부천시,2021-07-29
"우남1차아파트",공공용,"경기도 부천시 삼작로256번길 16 (도당동, 우남APT)",경기도 부천시 도당동 57-1,37.51961052,126.7891916,990,1200,Y,기타,032-625-5185,경기도 부천시,2021-07-29
"우남2차아파트",공공용,"경기도 부천시 부천로366번길 93 (도당동, 우남아파트)",경기도 부천시 도당동 69,37.51698639,126.7904797,231,280,Y,기타,032-625-5185,경기도 부천시,2021-07-29
"삼보아파트",공공용,"경기도 부천시 삼작로 267 (도당동, 삼보아파트)",경기도 부천시 도당동 109,37.52077863,126.7921221,660,800,Y,기타,032-625-5185,경기도 부천시,2021-07-29
"동아아파트",공공용,"경기도 부천시 삼작로280번길 35 (도당동, 동아아파트)",경기도 부천시 도당동 120,37.51841298,126.793161,1155,1400,Y,기타,032-625-5185,경기도 부천시,2021-07-29
"복사골아파트 A,B동",공공용,"경기도 부천시 삼작로292번길 41-20 (도당동, 복사골아파트)",경기도 부천시 도당동 125,37.51787303,126.7944111,1650,2000,Y,기타,032-625-5185,경기도 부천시,2021-07-29
"근화아파트",공공용,경기도 부천시 성곡로97번길 13,경기도 부천시 도당동 134-2,37.5213152151,126.7946671069,396,480,Y,기타,032-625-5185,경기도 부천시,2021-07-29
"유영빌딩",공공용,경기도 부천시 도약로 313 (도당동),경기도 부천시 도당동 99-7,37.51064785,126.7843787,430,521,Y,기타,032-625-5185,경기도 부천시,2021-07-29
"한국타이어",공공용,"경기도 부천시 부천로 267 (도당동, 한국타이어)",경기도 부천시 도당동 258-32,37.50768682,126.7853838,396,480,Y,기타,032-625-5185,경기도 부천시,2021-07-29
"코모스빌딩(하나은행)",공공용,경기도 부천시 옥산로 255 (도당동),경기도 부천시 도당동 10,37.51635513,126.7798675,2640,3200,Y,기타,032-625-5185,경기도 부천시,2021-07-29
"라일락마을 신성미소지움아파트",공공용,"경기도 부천시 도약로 36 (상동, 라일락마을신성미소지움)",경기도 부천시 상동 525-3,37.51202168,126.7523904,23183,28100,Y,기타,032-625-5693,경기도 부천시,2021-07-29
"라일락마을 경남아너스빌 아파트",공공용,"경기도 부천시 도약로 16 (상동, 라일락마을경남아너스빌)",경기도 부천시 상동 525-1,37.51243838,126.7505435,6257,7584,Y,기타,032-625-5693,경기도 부천시,2021-07-29
"라일락마을 유림아파트",공공용,"경기도 부천시 상동로117번길 64 (상동, 라일락마을대우이안,유림아파트)",경기도 부천시 상동 528-1,37.50975671,126.7499794,14117,17111,Y,기타,032-625-5693,경기도 부천시,2021-07-29
"진달래마을 대우아파트",공공용,"경기도 부천시 도약로 56 (상동, 진달래마을대우푸르지오아파트)",경기도 부천시 상동 526-1,37.51171945,126.7550516,22113,26803,Y,기타,032-625-5693,경기도 부천시,2021-07-29
"라일락마을 동양덱스빌아파트",공공용,"경기도 부천시 계남로 19 (상동, 라일락마을동양덱스빌)",경기도 부천시 상동 525-6,37.51092154,126.7501986,8062,9772,Y,기타,032-625-5693,경기도 부천시,2021-07-29
"라일락마을 서해아파트",공공용,"경기도 부천시 상동로117번길 22 (상동, 라일락마을서해그랑블)",경기도 부천시 상동 528-3,37.50945537,126.7517969,12144,14720,Y,기타,032-625-5693,경기도 부천시,2021-07-29
"다정한마을 금강KCC아파트",공공용,"경기도 부천시 상동로 186 (상동, 다정한마을금강KCC아파트)",경기도 부천시 상동 500-2,37.51372117,126.7554723,16012,19408,Y,기타,032-625-5693,경기도 부천시,2021-07-29
"진달래마을 써미트빌아파트",공공용,"경기도 부천시 계남로 60 (상동, 진달래마을써미트빌)",경기도 부천시 상동 527-1,37.50906098,126.7551515,24463,29652,Y,기타,032-625-5693,경기도 부천시,2021-07-29
"다정한마을 삼성래미안아파트",공공용,"경기도 부천시 평천로 616 (상동, 다정한마을삼성래미안아파트)",경기도 부천시 상동 500-4,37.51491051,126.7578836,21919,26568,Y,기타,032-625-5693,경기도 부천시,2021-07-29
"진달래마을 효성센트럴아파트",공공용,"경기도 부천시 계남로 72 (상동, 진달래마을효성센트럴)",경기도 부천시 상동 527-3,37.508789,126.7564318,26849,32544,Y,기타,032-625-5693,경기도 부천시,2021-07-29
"진달래마을 대림아파트",공공용,"경기도 부천시 도약로 82 (상동, 진달래마을대림e-편한세상)",경기도 부천시 상동 526-4,37.51140767,126.7571738,22523,27300,Y,기타,032-625-5693,경기도 부천시,2021-07-29
"진달래마을 신동아아파트",공공용,"경기도 부천시 계남로 81 (상동, 진달래마을신동아아파트)",경기도 부천시 상동 526-6,37.50996538,126.7579841,11105,13460,Y,기타,032-625-5693,경기도 부천시,2021-07-29
"다정한마을 상동뜨란채아파트",공공용,"경기도 부천시 상동로 196 (상동, 다정한마을상동뜨란채아파트)",경기도 부천시 상동 500-1,37.51534977,126.7557929,7484,9071,Y,기타,032-625-5693,경기도 부천시,2021-07-29
"다정한마을 쌍용아파트",공공용,"경기도 부천시 도약로 81 (상동, 다정한마을쌍용아파트)",경기도 부천시 상동 500-5,37.5133722,126.7583519,29601,35880,Y,기타,032-625-5693,경기도 부천시,2021-07-29
"백송마을풍림아파트",공공용,경기도 부천시 부흥로 71 (상동),경기도 부천시 상동 571-4,37.49878938,126.750384,9527,11547,Y,기타,032-625-5693,경기도 부천시,2021-07-29
"행복한마을서해아파트",공공용,경기도 부천시 소향로 42 (상동),경기도 부천시 상동 550-3,37.50315412,126.7523119,11837,14347,Y,기타,032-625-5693,경기도 부천시,2021-07-29
"푸른마을창보아파트",공공용,경기도 부천시 송내대로205번길 68 (상동),경기도 부천시 상동 551-1,37.50240649,126.7537025,2723,3300,Y,기타,032-625-5693,경기도 부천시,2021-07-29
"행복한마을한양아파트",공공용,경기도 부천시 조마루로 47 (상동),경기도 부천시 상동 550-7,37.50196239,126.7488691,33208,40252,Y,기타,032-625-5693,경기도 부천시,2021-07-29
"목련마을LG아파트",공공용,경기도 부천시 신상로 89 (상동),경기도 부천시 상동 589-1,37.49622508,126.7477355,44550,54000,Y,기타,032-625-5693,경기도 부천시,2021-07-29
"백송마을동남아파트",공공용,경기도 부천시 부흥로 71 (상동),경기도 부천시 상동 571-4,37.49878938,126.750384,20440,24775,Y,기타,032-625-5693,경기도 부천시,2021-07-29
"행복한마을 금호아파트",공공용,경기도 부천시 소향로 18 (상동),경기도 부천시 상동 550-1,37.50350829,126.7488053,12007,14553,Y,기타,032-625-5693,경기도 부천시,2021-07-29
"푸른마을한라아파트",공공용,"경기도 부천시 송내대로205번길 26 (상동, 푸른마을한라비발디)",경기도 부천시 상동 551-3,37.50279271,126.7553736,2723,3300,Y,기타,032-625-5693,경기도 부천시,2021-07-29
"농협",공공용,경기도 부천시 경인로 70 (송내동),경기도 부천시 송내동 393-6,37.48348056,126.7628846,545.46,660,Y,기타,032-625-6013,경기도 부천시,2021-07-29
"동신아파트고층",공공용,경기도 부천시 성주로 66 (송내동),경기도 부천시 송내동 441-8,37.4794103,126.7635346,2922.33,3541,Y,기타,032-625-6013,경기도 부천시,2021-07-29
"오정농협 삼정지점(신흥동)",공공용,경기도 부천시 중동로 412-1 (삼정동),경기도 부천시 삼정동 308-5,37.51664306,126.7703901,1138,1379,Y,기타,032-625-7214,경기도 부천시,2021-07-29
"대아빌딩(신흥동)",공공용,"경기도 부천시 수도로 139 (내동, 경봉빌딩)",경기도 부천시 내동 200-1,37.51738753,126.7809529,1190.02,1442,Y,기타,032-625-7214,경기도 부천시,2021-07-29
"심곡본1동 주민센터(현 대산동행정복지센터)",공공용,경기도 부천시 심곡로9번길 54 (심곡본동),경기도 부천시 심곡본동 665-13,37.48243412,126.7790043,1449,1756,Y,기타,032-625-6013,경기도 부천시,2021-07-29
"라비앙로제아파트",공공용,경기도 부천시 경인로 190 (심곡본동),경기도 부천시 심곡본동 588-3,37.48340505,126.7765186,7126,8637,Y,기타,032-625-6013,경기도 부천시,2021-07-29
KCC엠파이어타워,공공용,경기도 부천시 경인로 175 (심곡본동),경기도 부천시 심곡본동 527,37.48423637,126.7748828,17274,20938,Y,기타,032-625-6013,경기도 부천시,2021-07-29
"대진아파트",공공용,"경기도 부천시 고강로72번길 51-16 (고강동, 대진아파트)",경기도 부천시 고강동 309-2,37.52720332,126.813211,298,361,Y,기타,032-625-7014,경기도 부천시,2021-07-29
"동광모닝스카이아파트",공공용,"경기도 부천시 원종로107번길 14-11 (고강동, 동광모닝스카이아파트1)",경기도 부천시 고강동 306,37.52515942,126.8131147,5446,6601,Y,기타,032-625-7014,경기도 부천시,2021-07-29
"등주교회",공공용,"경기도 부천시 소사로 123 (소사본동, 등주교회)",경기도 부천시 소사본동 318-9,37.46937992,126.7962836,532.47,644,Y,기타,032-625-6184,경기도 부천시,2021-07-29
"소사SK뷰아파트",공공용,경기도 부천시 소삼로 62 (소사본동),경기도 부천시 소사본동 135,37.47684384,126.8010731,27136,32892,Y,기타,032-625-6184,경기도 부천시,2021-07-29
"여월휴먼시아2단지아파트",공공용,경기도 부천시 여월로 63 (여월동),경기도 부천시 여월동 320,37.51214449,126.8050567,5494,6659,Y,기타,032-625-7014,경기도 부천시,2021-07-29
"여월휴먼시아1단지아파트",공공용,경기도 부천시 소사로 639 (여월동),경기도 부천시 여월동 296,37.51497686,126.7987564,4724,5726,Y,기타,032-625-7014,경기도 부천시,2021-07-29
"오정생활휴먼시아2단지아파트",공공용,경기도 부천시 오정로 253 (오정동),경기도 부천시 오정동 726,37.53161297,126.7882086,2315,2806,Y,기타,032-625-7214,경기도 부천시,2021-07-29
"여월휴먼시아3단지 아파트",공공용,경기도 부천시 길주로573번길 37 (여월동),경기도 부천시 여월동 340,37.50981972,126.8042901,19333,23433,Y,기타,032-625-7014,경기도 부천시,2021-07-29
"부천남초등학교",공공용,경기도 부천시 성주로270번길 16-1 (심곡본동),경기도 부천시 심곡본동 731,37.48117626,126.7829631,1073,1300,Y,기타,032-625-6013,경기도 부천시,2021-07-29
"제일교회(지하예배당)",공공용,경기도 부천시 하우로306번길 12 (심곡본동),경기도 부천시 심곡본동 555-77,37.48131886,126.7838802,264,320,Y,기타,032-625-6013,경기도 부천시,2021-07-29
"제일교회(본당)",공공용,경기도 부천시 하우로306번길 12 (심곡본동),경기도 부천시 심곡본동 555-77,37.48131886,126.7838802,495,600,Y,기타,032-625-6013,경기도 부천시,2021-07-29
"주공뜨란채아파트",공공용,경기도 부천시 소사동로72번길 32 (소사본동),경기도 부천시 소사본동 411-1,37.47229489,126.8027231,17754,21520,Y,기타,032-625-6184,경기도 부천시,2021-07-29
E-좋은아침아파트(신흥동),공공용,"경기도 부천시 석천로 356 (삼정동, e-좋은아침)",경기도 부천시 삼정동 276-5,37.51837634,126.7664503,2210.67,2680,Y,기타,032-625-7214,경기도 부천시,2021-07-29
"누리안아파트",공공용,경기도 부천시 상오정로7번길 43 (오정동),경기도 부천시 오정동 590-4,37.5262269,126.784041,1437,1741,Y,기타,032-625-7214,경기도 부천시,2021-07-29
"역곡하이뷰",공공용,경기도 부천시 경인로 505,경기도 부천시 괴안동 113-2,37.4844766356,126.8111198050,12002,14547,Y,기타,032-625-6354,경기도 부천시,2021-07-29
"세영타워메카(지하주차장)",공공용,"경기도 부천시 소사로247번길 19 (소사본동, 세영타워메카)",경기도 부천시 소사본동 78,37.48021897,126.7943083,7296,8843,Y,기타,032-625-6184,경기도 부천시,2021-07-29
"아주아파트",공공용,경기도 부천시 범안로21번길 39 (괴안동),경기도 부천시 괴안동 99,37.48006107,126.809775,1659,2010,Y,기타,032-625-6354,경기도 부천시,2021-07-29
"범박동 주민센터",공공용,경기도 부천시 범안로129번길 17 (범박동),경기도 부천시 범박동 155-4,37.47058724,126.809722,439,532,Y,기타,032-625-6354,경기도 부천시,2021-07-29
"송내e편한세상아파트(105동 앞)",공공용,"경기도 부천시 성주로 100 (송내동, 송내e-편한세상)",경기도 부천시 송내동 463-106,37.47948006,126.7677203,10945,13266,Y,기타,032-625-6013,경기도 부천시,2021-07-29
"대우푸르지오1차아파트(102,105,107,110동앞)",공공용,"경기도 부천시 중동로 64 (송내동, 중동역푸르지오아파트)",경기도 부천시 송내동 372,37.48534266,126.7656319,31927,38699,Y,기타,032-625-6013,경기도 부천시,2021-07-29
"대우푸르지오2차아파트",공공용,경기도 부천시 경인로117번길 27 (송내동),경기도 부천시 송내동 377-7,37.48571208,126.7665902,21681,26280,Y,기타,032-625-6013,경기도 부천시,2021-07-29
"상주민지원센터",공공용,"경기도 부천시 석천로 83 (상동, 상동주민센터)",경기도 부천시 상동 416-2,37.49491497,126.7607905,497,602,Y,기타,032-625-5353,경기도 부천시,2021-07-29
"사랑마을아파트",공공용,"경기도 부천시 부흥로 150 (상동, 사랑마을벽산,삼익,선경아파트)",경기도 부천시 상동 415,37.49654805,126.7569984,7033,8524,Y,기타,032-625-5353,경기도 부천시,2021-07-29
"꿈동산마을아파트",공공용,"경기도 부천시 장말로 136 (상동, 꿈동산마을신안아파트)",경기도 부천시 상동 445,37.49372437,126.7558533,19300,23393,Y,기타,032-625-5353,경기도 부천시,2021-07-29
"부천여성청소년센터",공공용,경기도 부천시 부천로122번길 60 (원미동),경기도 부천시 원미동 99-2,37.49449828,126.7885332,1261,1528,Y,기타,032-625-5185,경기도 부천시,2021-07-29
"소사새롬하이빌(지하주차장)",공공용,"경기도 부천시 경인로 340 (소사본동, 소사새롬하이빌)",경기도 부천시 소사본동 70-2,37.48195665,126.7934856,2434,2950,Y,기타,032-625-6184,경기도 부천시,2021-07-29
"힐스테이트 1단지 관리동",공공용,경기도 부천시 범안로 81 (범박동),경기도 부천시 범박동 154-2,37.47526022,126.808872,4216,5110,Y,기타,032-625-6354,경기도 부천시,2021-07-29
"힐스테이트 1단지 105동",공공용,경기도 부천시 범안로 81 (범박동),경기도 부천시 범박동 154-2,37.47526022,126.808872,2374,2877,Y,기타,032-625-6354,경기도 부천시,2021-07-29
"힐스테이트 201~203동",공공용,경기도 부천시 범안로 80 (범박동),경기도 부천시 범박동 153-2,37.47509274,126.8078881,3789,4592,Y,기타,032-625-6354,경기도 부천시,2021-07-29
"힐스테이트 204~205동",공공용,경기도 부천시 범안로 80 (범박동),경기도 부천시 범박동 153-2,37.47509274,126.8078881,2399,2907,Y,기타,032-625-6354,경기도 부천시,2021-07-29
"복사골뜨란채아파트",공공용,"경기도 부천시 경인로10번길 25-32 (송내동, 송내복사골뜨란채아파트)",경기도 부천시 송내동 304-6,37.48134812,126.7563602,4620,5600,Y,기타,032-625-6013,경기도 부천시,2021-07-29
"송내자이아파트",공공용,"경기도 부천시 경인로26번길 22 (송내동, 송내자이)",경기도 부천시 송내동 409,37.48275479,126.7569819,16842,20414,Y,기타,032-625-6013,경기도 부천시,2021-07-29
"송내대우아파트(105동 앞)",공공용,"경기도 부천시 경인로134번길 72 (송내동, 송내대우아파트)",경기도 부천시 송내동 588-4,37.48046558,126.7692397,8191,9928,Y,기타,032-625-6013,경기도 부천시,2021-07-29
"힐스테이트 402동",공공용,"경기도 부천시 범안로96번길 23 (범박동, 부천범박힐스테이트4단지아파트)",경기도 부천시 범박동 152-2,37.47274652,126.8083319,4272,5178,Y,기타,032-625-6354,경기도 부천시,2021-07-29
"힐스테이트 407동",공공용,"경기도 부천시 범안로96번길 23 (범박동, 부천범박힐스테이트4단지아파트)",경기도 부천시 범박동 152-2,37.47274652,126.8083319,3573,4330,Y,기타,032-625-6354,경기도 부천시,2021-07-29
"약대동 우남아파트",공공용,"경기도 부천시 수도로48번길 9 (약대동, 우남아파트)",경기도 부천시 약대동 119,37.51359634,126.7722157,1368,1658,Y,기타,032-625-5523,경기도 부천시,2021-07-29
"동부센트레빌1단지",공공용,"경기도 부천시 지봉로77번길 35 (역곡동, 동부센트레빌1단지아파트)",경기도 부천시 역곡동 409,37.48878306,126.8062629,14700,10279,Y,기타,032-625-5185,경기도 부천시,2021-07-29
"동부센트레빌2단지",공공용,"경기도 부천시 역곡로45번길 36 (역곡동, 동부센트레빌2단지아파트)",경기도 부천시 역곡동 410,37.48941621,126.808037,10535,7367,Y,기타,032-625-5185,경기도 부천시,2021-07-29
"한양수자인3차아파트",공공용,"경기도 부천시 부일로685번길 22 (역곡동, 역곡3차한양수자인아파트)",경기도 부천시 역곡동 413,37.48513218,126.806264,2103,1470,Y,기타,032-625-5185,경기도 부천시,2021-07-29
"신일해피트리아파트",공공용,"경기도 부천시 지봉로45번길 16-11 (역곡동, 신일해피트리)",경기도 부천시 역곡동 406,37.48703203,126.8043392,2107,1473,Y,기타,032-625-5185,경기도 부천시,2021-07-29
"하얀마을 현대아파트",공공용,경기도 부천시 상동로 22 (상동),경기도 부천시 상동 570-1,37.49903905,126.7520078,19397,23511,Y,기타,032-625-5693,경기도 부천시,2021-07-29
"하얀마을 주공아파트",공공용,"경기도 부천시 조마루로 104 (상동, 하얀마을주공뜨란채아파트)",경기도 부천시 상동 570-3,37.49992511,126.7547801,7632,9250,Y,기타,032-625-5693,경기도 부천시,2021-07-29
"하얀마을 경남아파트",공공용,경기도 부천시 부흥로 109 (상동),경기도 부천시 상동 570-5,37.49863106,126.7543742,11841,14352,Y,기타,032-625-5693,경기도 부천시,2021-07-29
"백송마을 상동자이아파트",공공용,경기도 부천시 조마루로 52 (상동),경기도 부천시 상동 571-1,37.50079783,126.7493285,3441,4170,Y,기타,032-625-5693,경기도 부천시,2021-07-29
"백송마을 GS.SK 아파트",공공용,경기도 부천시 상동로 23 (상동),경기도 부천시 상동 571-3,37.49944291,126.7515504,18541,22473,Y,기타,032-625-5693,경기도 부천시,2021-07-29
"세창짜임아파트",공공용,경기도 부천시 소사로 855 (원종동),경기도 부천시 원종동 468,37.53248726,126.8056899,7897.98,9573,Y,기타,032-625-7214,경기도 부천시,2021-07-29
"동제이지안1차아파트",공공용,경기도 부천시 성지로85번길 53 (원종동),경기도 부천시 원종동 270-1,37.52638804,126.8081225,1189.35,1441,Y,기타,032-625-7214,경기도 부천시,2021-07-29
"동제이지안2차아파트",공공용,경기도 부천시 원종로93번길 51 (원종동),경기도 부천시 원종동 295,37.52659487,126.8102688,1817.46,2202,Y,기타,032-625-7214,경기도 부천시,2021-07-29
"범박휴먼시아1단지",공공용,"경기도 부천시 양지로 20 (괴안동, 범박휴먼시아1단지 각동 지하주차장)",경기도 부천시 괴안동 251-1,37.47744497,126.813089,9935,12042,Y,기타,032-625-6354,경기도 부천시,2021-07-29
"신일해피트리아파트",공공용,경기도 부천시 경인로484번길 68-7 (괴안동),경기도 부천시 괴안동 99-14,37.47987714,126.8103703,7257,8796,Y,기타,032-625-6354,경기도 부천시,2021-07-29
"상동역",공공용,"경기도 부천시 길주로 지하 104 (상동, 상동역)",경기도 부천시 상동 633,37.50580985,126.753187,9957,12069,Y,기타,032-625-5693,경기도 부천시,2021-07-29
"신중동역",공공용,"경기도 부천시 길주로 지하 314 (중동, 신중동역)",경기도 부천시 중동 1140-6,37.50297215,126.7764991,10938,13258,Y,기타,032-625-5523,경기도 부천시,2021-07-29
"부천시청역",공공용,"경기도 부천시 길주로 지하 202 (중동, 부천시청역)",경기도 부천시 중동 1243,37.50464221,126.7640604,8661,10498,Y,기타,032-625-5523,경기도 부천시,2021-07-29
"까치울역",공공용,경기도 부천시 길주로 지하 626 (춘의동),경기도 부천시 춘의동 3-1,37.50619978,126.8113983,6810,8254,Y,기타,032-625-5185,경기도 부천시,2021-07-29
"부천종합운동장역",공공용,경기도 부천시 길주로 지하 502 (춘의동),경기도 부천시 춘의동 15-1,37.50548324,126.7974300234,9237,11196,Y,기타,032-625-5185,경기도 부천시,2021-07-29
"춘의역",공공용,경기도 부천시 길주로 지하 406 (춘의동),경기도 부천시 춘의동 145,37.50364409,126.7868664,9350,11333,Y,기타,032-625-5185,경기도 부천시,2021-07-29
"부천소사역푸르지오 주차장",공공용,"경기도 부천시 소삼로 47 (소사본동, 부천소사역푸르지오)",경기도 부천시 소사본동 133-12,37.47980795,126.7972919,974,1180,Y,기타,032-625-6184,경기도 부천시,2021-07-29
"원종1주민지원센터",공공용,"경기도 부천시 원종로51번길 43 (원종동, 원종1동주민센터)",경기도 부천시 원종동 233-3,37.52595914,126.8054656,546.66,663,Y,기타,032-625-7214,경기도 부천시,2021-07-29
"여월휴먼시아4단지아파트",공공용,"경기도 부천시 길주로561번길 124 (여월동, 여월휴먼시아4단지아파트)",경기도 부천시 여월동 313,37.51014304,126.8018839,6619,8023,Y,기타,032-625-7014,경기도 부천시,2021-07-29
"여월휴먼시아5단지아파트",공공용,"경기도 부천시 여월로 27 (여월동, 여월휴먼시아5단지아파트)",경기도 부천시 여월동 316,37.51100342,126.8014085,18354,22247,Y,기타,032-625-7014,경기도 부천시,2021-07-29
"원종e편한세상",공공용,"경기도 부천시 삼작로368번길 15-12 (원종동, 원종e편한세상)",경기도 부천시 원종동 469,37.51913669,126.8029755,1885,1555,Y,기타,032-625-7014,경기도 부천시,2021-07-29
"태승훼미리아파트",공공용,"경기도 부천시 장말로 300 (심곡동, 태승훼미리아파트)",경기도 부천시 심곡동 801,37.4910864,126.774855,2850,3454,Y,기타,032-625-5014,경기도 부천시,2021-07-29
"비둘기공원 공영주차장",공공용,경기도 부천시 신흥로45번길 36 (심곡동),경기도 부천시 심곡동 344-9,37.48825963,126.7750246,2813,3409,Y,기타,032-625-5014,경기도 부천시,2021-07-29
"부천대학교 지하주차장",공공용,"경기도 부천시 신흥로56번길 25 (심곡동, 부천대학)",경기도 부천시 심곡동 424,37.48887272,126.7792998,7114,8623,Y,기타,032-625-5014,경기도 부천시,2021-07-29
"한라주공3차아파트 지하주차장",공공용,"경기도 부천시 도약로 106 (중동, 한라마을주공3차아파트(122동 앞))",경기도 부천시 중동 1027,37.50994659,126.7613657,1098,1330,Y,기타,032-625-5523,경기도 부천시,2021-07-29
"효성쌍용아파트 지하주차장",공공용,"경기도 부천시 중동로279번길 22 (중동, 은하마을쌍용,효성아파트(515동 앞))",경기도 부천시 중동 1036,37.50524939,126.7689825,11152,13517,Y,기타,032-625-5523,경기도 부천시,2021-07-29
"원종 금호어울림아파트",공공용,"경기도 부천시 소사로819번길 33 (원종동, 원종동금호어울림)",경기도 부천시 원종동 470,37.52938624,126.8023494,10889,13198,Y,기타,032-625-7214,경기도 부천시,2021-07-29
"부천성모병원 지하주차장",공공용,"경기도 부천시 소사로 327 (소사동, 가톨릭대학교부천성모병원)",경기도 부천시 소사동 2-65,37.4874966,126.7930328,6012,7287,Y,기타,032-625-5014,경기도 부천시,2021-07-29
"소명여자고등학교 주차장",공공용,"경기도 부천시 부일로571번길 84 (소사동, 소명여자중학교,소명여자고등학교)",경기도 부천시 소사동 4,37.48782298,126.7913100325,1609,1950,Y,기타,032-625-5014,경기도 부천시,2021-07-29
"소원공원지하 공용주차장",공공용,"경기도 부천시 소사로300번길 41 (소사동, 소사동공영주차장)",경기도 부천시 소사동 32,37.48490447,126.7969642,3707,4493,Y,기타,032-625-5014,경기도 부천시,2021-07-29
"범박휴먼시아2단지",공공용,경기도 부천시 양지남로 25 (범박동),경기도 부천시 범박동 221-2,37.47070222,126.8130594,25616,31049,Y,기타,032-625-6354,경기도 부천시,2021-07-29
"옥길LH 1단지",공공용,경기도 부천시 양지로 134 (범박동),경기도 부천시 옥길동 701-1,37.4708006,126.8180133,18369,22265,Y,기타,032-625-6354,경기도 부천시,2021-07-29
"옥길LH헤일라움",공공용,경기도 부천시 양지로 234-26 (범박동),경기도 부천시 옥길동 747-1,37.46476438,126.8252394,27952,33881,Y,기타,032-625-6354,경기도 부천시,2021-07-29
"서울신학대학 백주년 기념관 지하주차장",공공용,"경기도 부천시 호현로489번길 52 (소사본동, 서울신학대학교)",경기도 부천시 소사본동 120-1,37.47832495,126.7900035,1450,1757,Y,기타,032-625-6184,경기도 부천시,2021-07-29
"역곡e-편한세상1차아파트 주차장",공공용,"경기도 부천시 지봉로143번길 7 (역곡동, 대림e편한세상1차아파트)",경기도 부천시 역곡동 202-1,37.48986127,126.8141534,8066,9776,Y,기타,032-625-5185,경기도 부천시,2021-07-29
"역곡e-편한세상2차아파트 주차장",공공용,"경기도 부천시 지봉로143번길 38 (역곡동, 역곡e편한세상2차아파트)",경기도 부천시 역곡동 213-6,37.49107956,126.8142933,3260,3951,Y,기타,032-625-5185,경기도 부천시,2021-07-29
"역곡e-편한세상4차아파트 주차장",공공용,"경기도 부천시 역곡로20번길 91 (역곡동, 역곡e-편한세상4차아파트)",경기도 부천시 역곡동 407,37.4889207,126.8160458,4203,5094,Y,기타,032-625-5185,경기도 부천시,2021-07-29
"동부센트리빌3단지",공공용,"경기도 부천시 안곡로279번길 42 (역곡동, 동부센트레빌3단지아파트)",경기도 부천시 역곡동 411,37.49187478,126.8120076,13021,15783,Y,기타,032-625-5185,경기도 부천시,2021-07-29
"우림아파트 주차장",공공용,"경기도 부천시 지봉로 133 (역곡동, 우림루미아트)",경기도 부천시 역곡동 202,37.4895948,126.8132704,3499,4241,Y,기타,032-625-5185,경기도 부천시,2021-07-29
"역곡e-편한세상3차아파트 주차장",공공용,"경기도 부천시 지봉로 143 (역곡동, e-편한세상3차아파트)",경기도 부천시 역곡동 213-31,37.49005857,126.8147146,2933,3555,Y,기타,032-625-5185,경기도 부천시,2021-07-29
"부천위브트레지움2단지 지하주차장",공공용,"경기도 부천시 도약로 206 (약대동, 부천위브트레지움2단지아파트)",경기도 부천시 약대동 209,37.51015446,126.7709301,48250,58484,Y,기타,032-625-5523,경기도 부천시,2021-07-29
"부천위브트레지움3단지 지하주차장",공공용,"경기도 부천시 도약로 199 (약대동, 부천위브트레지움3단지아파트)",경기도 부천시 약대동 204,37.51073238,126.7708909,7551,9152,Y,기타,032-625-5523,경기도 부천시,2021-07-29
"부천위브트레지움1단지 지하주차장",공공용,"경기도 부천시 수도로 18 (약대동, 두산위브트레지움아파트1단지)",경기도 부천시 약대동 196,37.5122872,126.7682395,28551,34607,Y,기타,032-625-5523,경기도 부천시,2021-07-29
"부천시민회관",공공용,"경기도 부천시 부일로 365 (중동, 부천시민회관)",경기도 부천시 중동 788-1,37.48863335,126.7706577,1914,2320,Y,기타,032-625-5353,경기도 부천시,2021-07-29
"팰리스카운티 아파트 지하주차장",공공용,"경기도 부천시 중동로 108 (중동, 팰리스카운티)",경기도 부천시 중동 1289,37.49180924,126.7669865,92092,111626,Y,기타,032-625-5353,경기도 부천시,2021-07-29
"복사골아파트 C동",공공용,"경기도 부천시 성곡로63번길 68 (도당동, 복사골아파트)",경기도 부천시 도당동 124,37.51760959,126.794262,1202,1456,Y,기타,032-625-5185,경기도 부천시,2021-07-29
