"민방위대피시설명",민방위대피시설구분,소재지도로명주소,소재지지번주소,위도,경도,민방위대피시설면적,대피가능인원수,개방여부,평시활용유형,관리기관전화번호,관리기관명,데이터기준일자
"무학빌딩",공공용,경상남도 창원시 마산회원구 3.15대로 628,경상남도 창원시 마산회원구 석전동 259-6,35.2292091764,128.5759789543,1754.64,2126,y,주차장,055-230-5384,마산회원구 석전동주민센터,2019-09-24
"경남은행본점",공공용,경상남도 창원시 마산회원구 3.15대로 642,경상남도 창원시 마산회원구 석전동 246-1,35.2303271786,128.5770889911,9431.45,11432,y,주차장,055-230-5384,마산회원구 석전동주민센터,2019-09-24
SK브로드밴드,공공용,경상남도 창원시 마산회원구 3.15대로 649,경상남도 창원시 마산회원구 석전동 244-9,35.2314293514,128.5767061703,604.96,733,y,주차장,055-230-5384,마산회원구 석전동주민센터,2019-09-24
"삼성화재",공공용,경상남도 창원시 마산회원구 3.15대로 674,경상남도 창원시 마산회원구 석전동 233-1,35.2328481242,128.5788554993,869.76,1054,y,주차장,055-230-5384,마산회원구 석전동주민센터,2019-09-24
"동마산병원",공공용,경상남도 창원시 마산회원구 3.15대로 681,경상남도 창원시 마산회원구 석전동 231-6,35.2338242788,128.5783132855,353.72,428,y,주차장,055-230-5384,마산회원구 석전동주민센터,2019-09-24
"마산역지하도",공공용,경상남도 창원시 마산회원구 3.15대로 688,경상남도 창원시 마산회원구 석전동 232-4,35.2339058176,128.5795512124,287.6,349,y,지하도로,055-230-5384,마산회원구 석전동주민센터,2019-09-24
"한화생명",공공용,경상남도 창원시 마산회원구 3.15대로 700,경상남도 창원시 마산회원구 석전동 224-5,35.2348979439,128.5803485447,3305.8,4007,y,주차장,055-230-5384,마산회원구 석전동주민센터,2019-09-24
"아리랑호텔",공공용,경상남도 창원시 마산회원구 마산역광장로 24,경상남도 창원시 마산회원구 석전동 229-17,35.2346556765,128.5777143560,859.51,1042,y,주차장,055-230-5384,마산회원구 석전동주민센터,2019-09-24
"와모텔",공공용,경상남도 창원시 마산회원구 마산역광장로 32,경상남도 창원시 마산회원구 석전동 231-1,35.2343386224,128.5785298433,380.17,461,y,주차장,055-230-5384,마산회원구 석전동주민센터,2019-09-24
"이미지피렌체아파트",공공용,경상남도 창원시 마산회원구 양덕옛1길37,경상남도 창원시 마산회원구 석전동 260-14,35.2272252028,128.5747235822,4101.27,4971,y,주차장,055-230-5384,마산회원구 석전동주민센터,2019-09-24
CJ제일제당,공공용,경상남도 창원시 마산회원구 양덕옛2길 65,경상남도 창원시 마산회원구 석전동 245-11,35.2308837483,128.5778038710,588.43,712,y,주차장,055-230-5384,마산회원구 석전동주민센터,2019-09-24
"건우만복아파트",공공용,경상남도 창원시 마산회원구 회원서1길70,경상남도 창원시 마산회원구 석전동 47-3,35.2246488450,128.5699159466,991.74,1202,y,주차장,055-230-5384,마산회원구 석전동주민센터,2019-09-24
"회성동주민센터",공공용,경상남도 창원시 마산회원구 북성로 327,경상남도 창원시 마산회원구 회성동 457-37,35.2330573962,128.5616948436,315.09,382,y,지하주차장,055-230-5427,마산회원구 회성동주민센터,2019-09-24
"회성시장",공공용,경상남도 창원시 마산회원구 회성시장1길 16,경상남도 창원시 마산회원구 회성동 450-2,35.2329282163,128.5594120537,1176.86,1426,y,빈공간,055-230-5427,마산회원구 회성동주민센터,2019-09-24
"대호아파트",공공용,경상남도 창원시 마산회원구 회성시장1길 27,경상남도 창원시 마산회원구 회성동 454-1,35.2323741727,128.5598847489,538.85,653,y,지하주차장,055-230-5427,마산회원구 회성동주민센터,2019-09-24
"새마을금고",공공용,경상남도 창원시 마산회원구 회성시장1길 5,경상남도 창원시 마산회원구 회성동 456-8,35.2333077728,128.5601706399,224.79,272,y,금고 회의실,055-230-5427,마산회원구 회성동주민센터,2019-09-24
"회성빌라 지하주차장",공공용,경상남도 창원시 마산회원구 회성시장2길 38,경상남도 창원시 마산회원구 회성동 447-18,35.2331508476,128.5580806362,290.91,353,y,지하주차장,055-230-5427,마산회원구 회성동주민센터,2019-09-24
"유한미소안아파트",공공용,경상남도 창원시 마산회원구 양덕천길 47,경상남도 창원시 마산회원구 양덕동 49-1,35.2312990955,128.5871174838,3863,4682,y,주차장,055-230-5477,마산회원구 양덕1동주민센터,2019-09-24
"경남아파트",공공용,경상남도 창원시 마산회원구 양덕동17길 22,경상남도 창원시 마산회원구 양덕동 5-2,35.2342692441,128.5909847035,7271,8813,y,주차장,055-230-5477,마산회원구 양덕1동주민센터,2019-09-24
"경민인터빌",공공용,경상남도 창원시 마산회원구 양덕북12길 113,경상남도 창원시 마산회원구 양덕동 15-27,35.2319046540,128.5838209037,2338,2834,y,주차장,055-230-5477,마산회원구 양덕1동주민센터,2019-09-24
"춘광3차",공공용,경상남도 창원시 의창구 동읍 의창대로 881,,35.2789645778,128.6868978320,734,889,Y,,,경상남도 창원시청,2019-09-24
"서광아파트",공공용,경상남도 창원시 의창구 동읍 의창대로915번길 29,,35.2816069476,128.6899948193,162,196,Y,,,경상남도 창원시청,2019-09-24
"대한아파트",공공용,경상남도 창원시 의창구 동읍 신방로 17,,35.2857330,128.6838256762,2694,3265,Y,,,경상남도 창원시청,2019-09-24
"우성아파트",공공용,경상남도 창원시 의창구 동읍 무성길47번길 9,,35.2888739976,128.6979937967,2033,2464,Y,,,경상남도 창원시청,2019-09-24
"성진까치빌라트3차",공공용,경상남도 창원시 의창구 동읍 용정길46번길 49-1,,35.2743385991,128.7059851832,162,196,Y,,,경상남도 창원시청,2019-09-24
"성진까치빌라트5차",공공용,경상남도 창원시 의창구 동읍 용정길46번길 53,,35.2739110,128.7061045354,3260,3951,Y,,,경상남도 창원시청,2019-09-24
"동부산훼미리3차",공공용,경상남도 창원시 의창구 동읍 용정길46번길 32,,35.2755718691,128.7039098267,928,1124,Y,,,경상남도 창원시청,2019-09-24
"동부산훼미리4차",공공용,경상남도 창원시 의창구 동읍 자여로65번길 14,,35.2770530,128.7021042695,1204,1459,Y,,,경상남도 창원시청,2019-09-24
"동부산훼미리5차",공공용,경상남도 창원시 의창구 동읍 용정길46번길 24,,35.2760842982,128.7041271689,1254,1520,Y,,,경상남도 창원시청,2019-09-24
"대호아파트",공공용,경상남도 창원시 의창구 북면 천주로 1047,,35.3450440,128.6056350,1465,1775,Y,,,경상남도 창원시청,2019-09-24
"감계힐스테이트1차지하주차장",공공용,경상남도 창원시 의창구 북면 동전로 86,,35.3038937295,128.5975974226,8944,10841,Y,,,경상남도 창원시청,2019-09-24
"감계일신휴먼빌지하주차장",공공용,경상남도 창원시 의창구 북면 감계로 297,,35.3043486587,128.5953592431,13862,16802,Y,,,경상남도 창원시청,2019-09-24
STX칸1차지하주차장,공공용,경상남도 창원시 의창구 무동서로 76,,35.3221930,128.5818070,15331,18583,Y,,,경상남도 창원시청,2019-09-24
"동일그린맨션",공공용,경상남도 창원시 의창구 읍성로 90,,35.2646970770,128.6276608320,1375,1666,Y,,,경상남도 창원시청,2019-09-24
"국도그랜드",공공용,경상남도 창원시 의창구 의안로22번길 2,,35.2634408270,128.6240359783,1718,2082,Y,,,경상남도 창원시청,2019-09-24
"팔도맨션",공공용,경상남도 창원시 의창구 읍성로89번길 34,,35.2679400,128.6282410,1340,1624,Y,,,경상남도 창원시청,2019-09-24
"대상아파트",공공용,경상남도 창원시 마산회원구 양덕북17길 48,경상남도 창원시 마산회원구 양덕동 96-13,35.2357493088,128.5834079409,4096,4964,y,주차장,055-230-5477,마산회원구 양덕1동주민센터,2019-09-24
"신성미소지움아파트",공공용,경상남도 창원시 마산회원구 양덕북17길 73,경상남도 창원시 마산회원구 양덕동 102-1,35.2335713390,128.5842794939,4406,5340,y,주차장,055-230-5477,마산회원구 양덕1동주민센터,2019-09-24
"서안양덕타운",공공용,경상남도 창원시 마산회원구 팔용로 62-1,경상남도 창원시 마산회원구 양덕동 26-3,35.2344949057,128.5891744997,1776,2152,y,주차장,055-230-5477,마산회원구 양덕1동주민센터,2019-09-24
"흥국생명",공공용,경상남도 창원시 마산회원구 양덕로 99,경상남도 창원시 마산회원구 양덕동 57-5,35.2278955999,128.5863262798,826.45,1002,y,주차장,055-230-5524,마산회원구 양덕2동주민센터,2019-09-24
"한일3차아파트",공공용,경상남도 창원시 마산회원구 삼호로 151,경상남도 창원시 마산회원구 양덕동 910,35.2261014388,128.5754794776,13408.32,16253,y,주차장,055-230-5524,마산회원구 양덕2동주민센터,2019-09-24
"홈플러스 마산점",공공용,경상남도 창원시 마산회원구 삼호로 56,경상남도 창원시 마산회원구 양덕동 151-1,35.2226656439,128.5857148748,6336,7680,y,주차장,055-230-5524,마산회원구 양덕2동주민센터,2019-09-24
"올림픽기념관",공공용,경상남도 창원시 마산회원구 삼호로 63,경상남도 창원시 마산회원구 양덕동 477,35.2219851971,128.5795821006,589.25,714,y,강당,055-230-5524,마산회원구 양덕2동주민센터,2019-09-24
"배진아파트",공공용,경상남도 창원시 마산회원구 양덕남8길 13,경상남도 창원시 마산회원구 양덕동 151-7,35.2223248656,128.5864111366,26443.64,3206,y,주차장,055-230-5524,마산회원구 양덕2동주민센터,2019-09-24
"한일2차아파트 201,205동",공공용,경상남도 창원시 마산회원구 양덕로 151,경상남도 창원시 마산회원구 양덕동 64-1,35.2316401479,128.5825460164,1006,1219,y,주차장,055-230-5524,마산회원구 양덕2동주민센터,2019-09-24
"한일2차아파트 202,203동",공공용,경상남도 창원시 마산회원구 양덕로 151,경상남도 창원시 마산회원구 양덕동 64-1,35.2316401479,128.5825460164,754.5,915,y,주차장,055-230-5524,마산회원구 양덕2동주민센터,2019-09-24
"한일2차아파트 204동,206동,207동,208동",공공용,경상남도 창원시 마산회원구 양덕로 151,경상남도 창원시 마산회원구 양덕동 64-1,35.2316401479,128.5825460164,1810.56,2195,y,주차장,055-230-5524,마산회원구 양덕2동주민센터,2019-09-24
"한일1차아파트 101동",공공용,경상남도 창원시 마산회원구 양덕서8길 25,경상남도 창원시 마산회원구 양덕동 74-1,35.2317578286,128.5796089905,1255.3,1522,y,주차장,055-230-5524,마산회원구 양덕2동주민센터,2019-09-24
"우성아파트",공공용,경상남도 창원시 마산회원구 양덕옛2길 16,경상남도 창원시 마산회원구 양덕동 888-1,35.2287830669,128.5768976852,17411.65,21105,y,주차장,055-230-5524,마산회원구 양덕2동주민센터,2019-09-24
"한일1차아파트 102동",공공용,경상남도 창원시 마산회원구 양덕옛2길 58,경상남도 창원시 마산회원구 양덕동 75-1,35.2306384311,128.5786470718,589.71,715,y,주차장,055-230-5524,마산회원구 양덕2동주민센터,2019-09-24
"한일1차아파트 103동",공공용,경상남도 창원시 마산회원구 양덕옛2길 58,경상남도 창원시 마산회원구 양덕동 75-1,35.2306384311,128.5786470718,884.87,1073,y,주차장,055-230-5524,마산회원구 양덕2동주민센터,2019-09-24
"한일1차아파트 104,105동",공공용,경상남도 창원시 마산회원구 양덕옛2길 58,경상남도 창원시 마산회원구 양덕동 75-1,35.2306384311,128.5786470718,1206,1462,y,주차장,055-230-5524,마산회원구 양덕2동주민센터,2019-09-24
"삼성버킹궁아파트",공공용,경상남도 창원시 마산회원구 용마로 142,경상남도 창원시 마산회원구 양덕동 148-3,35.2247217182,128.5869937664,5566.97,6748,y,주차장,055-230-5524,마산회원구 양덕2동주민센터,2019-09-24
"양덕지하도",공공용,경상남도 창원시 마산회원구 합포로 지하 277,경상남도 창원시 마산회원구 양덕동 277,35.1319840,128.3514050,178.51,216,y,지하도,055-230-5524,마산회원구 양덕2동주민센터,2019-09-24
"비전스카이아파트",공공용,경상남도 창원시 마산회원구 해안대로 607,경상남도 창원시 마산회원구 양덕동 153-5,35.2218912595,128.5886870840,22710,27527,y,주차장,055-230-5524,마산회원구 양덕2동주민센터,2019-09-24
"대림하이빌아파트",공공용,경상남도 창원시 마산회원구 양덕동2길 76,경상남도 창원시 마산회원구 양덕동 161-1,35.2244483485,128.5891454993,10813.27,13107,y,주차장,055-230-5524,마산회원구 양덕2동주민센터,2019-09-24
"메트로시티",공공용,경상남도 창원시 마산회원구 양덕서로 30,경상남도 창원시 마산회원구 양덕동 84-1,35.2283689491,128.5826626090,108386,131376,y,주차장,055-230-5524,마산회원구 양덕2동주민센터,2019-09-24
"합성동지하상가",공공용,경상남도 창원시 마산회원구 3·15대로 지하 758,경상남도 창원시 마산회원구 합성동 586,35.2387814655,128.5828253660,2710.76,3285,y,상가,055-230-5575,마산회원구 합성1동주민센터,2019-09-24
"보보스존",공공용,경상남도 창원시 마산회원구 3.15대로 736,경상남도 창원시 마산회원구 합성동 126-4,35.2375571255,128.5823771730,6931.28,8401,y,주차장,055-230-5635,마산회원구 합성2동주민센터,2019-09-24
"마산복음요양병원",공공용,경상남도 창원시 마산회원구 3.15대로 850,경상남도 창원시 마산회원구 합성동 134-1,35.2454066629,128.5895244105,529.09,641,y,주차장,055-230-5635,마산회원구 합성2동주민센터,2019-09-24
"삼성창원병원",공공용,경상남도 창원시 마산회원구 팔용로 158,경상남도 창원시 마산회원구 합성동 50,35.2429947016,128.5919636816,2737.2,3318,y,식당,055-230-5635,마산회원구 합성2동주민센터,2019-09-24
"창신대학교 공학관",공공용,경상남도 창원시 마산회원구 팔용로 262,경상남도 창원시 마산회원구 합성동 1,35.2446929154,128.5995945871,626.58,760,y,강의실,055-230-5635,마산회원구 합성2동주민센터,2019-09-24
"창신대학교 예술관",공공용,경상남도 창원시 마산회원구 팔용로 262,경상남도 창원시 마산회원구 합성동 1,35.2446929154,128.5995945871,663.3,804,y,강의실,055-230-5635,마산회원구 합성2동주민센터,2019-09-24
"합성2동 주민센터",공공용,경상남도 창원시 마산회원구 합성남8길 46,경상남도 창원시 마산회원구 합성동 205-5,35.2390217833,128.5867714358,231.41,280,y,주차장,055-230-5635,마산회원구 합성2동주민센터,2019-09-24
"맥스필 오피스텔",공공용,경상남도 창원시 마산회원구 합성남8길 67,경상남도 창원시 마산회원구 합성동 324-2,35.2401918174,128.5868908999,529.31,641,y,주차장,055-230-5635,마산회원구 합성2동주민센터,2019-09-24
"남아그린빌라",공공용,경상남도 창원시 마산회원구 구암북12길 112,경상남도 창원시 마산회원구 구암동 1340-4,35.2588897295,128.5951752603,657.56,797,y,주차장,055-230-5676,마산회원구 구암1동주민센터,2019-09-24
"한우아파트",공공용,경상남도 창원시 마산회원구 구암북12길 70,경상남도 창원시 마산회원구 구암동 1337,35.2576826316,128.5967733497,122.31,148,y,회의실,055-230-5676,마산회원구 구암1동주민센터,2019-09-24
"대진학원",공공용,경상남도 창원시 마산회원구 구암북2길 81,경상남도 창원시 마산회원구 구암동 266-34,35.2548709892,128.5962127884,125.62,152,y,비어있음,055-230-5676,마산회원구 구암1동주민센터,2019-09-24
"영일맨션",공공용,경상남도 창원시 마산회원구 구암서2길 25,경상남도 창원시 마산회원구 구암동 16-2,35.2476553413,128.5903585470,168.6,204,y,주차장,055-230-5676,마산회원구 구암1동주민센터,2019-09-24
"구암1동주민센터",공공용,경상남도 창원시 마산회원구 구암서2길 95,경상남도 창원시 마산회원구 구암동 8-16,35.2493943812,128.5935346080,264.46,320,y,주차장,055-230-5676,마산회원구 구암1동주민센터,2019-09-24
"석보아파트",공공용,경상남도 창원시 마산회원구 구암서6길 36,경상남도 창원시 마산회원구 구암동 13-7,35.2490287458,128.5917344898,109.09,132,y,창고,055-230-5676,마산회원구 구암1동주민센터,2019-09-24
"구암학원",공공용,경상남도 창원시 마산회원구 구암서7길 12,경상남도 창원시 마산회원구 구암동 13-3,35.2495285444,128.5926539312,175.21,212,y,비어있음,055-230-5676,마산회원구 구암1동주민센터,2019-09-24
"솔지어린이집",공공용,경상남도 창원시 마산회원구 금강로 301,경상남도 창원시 마산회원구 구암동 269-9,35.2535753637,128.5963236202,191.74,232,y,비어있음,055-230-5676,마산회원구 구암1동주민센터,2019-09-24
"구암성당",공공용,경상남도 창원시 마산회원구 구암서2길 90,경상남도 창원시 마산회원구 구암동 10-9,35.2489507436,128.5935522920,363.64,440,y,회의실,055-230-5676,마산회원구 구암1동주민센터,2019-09-24
KT마산지사,공공용,경상남도 창원시 마산회원구 3.15대로 940,경상남도 창원시 마산회원구 구암동 84-1,35.2499188233,128.5981631221,1328.93,16087,y,창고,055-230-5733,마산회원구 구암2동주민센터,2019-09-24
"한국전력 마산지사",공공용,경상남도 창원시 마산회원구 3.15대로 966,경상남도 창원시 마산회원구 구암동 92-5,35.2515222493,128.6008930381,671.08,812,y,창고,055-230-5733,마산회원구 구암2동주민센터,2019-09-24
"진보녹원맨션",공공용,경상남도 창원시 의창구 의안로44번길 49-20,,35.2646228181,128.6302040,743,900,Y,,,경상남도 창원시청,2019-09-24
"오성아파트",공공용,경상남도 창원시 의창구 서상로 27,,35.2630624537,128.6159499521,4465,5412,Y,,,경상남도 창원시청,2019-09-24
"남아그린타워",공공용,경상남도 창원시 의창구 동정길 7,,35.2621185374,128.6121249596,4038,4894,Y,,,경상남도 창원시청,2019-09-24
"럭키소계아파트",공공용,경상남도 창원시 의창구 금강로379번길 16-9,,35.2603530,128.6013657178,1150,1393,Y,,,경상남도 창원시청,2019-09-24
"서문무학아파트",공공용,경상남도 창원시 의창구 서상로12번길 83-15,,35.2621862723,128.6226967752,2692,3263,Y,,,경상남도 창원시청,2019-09-24
"송림아파트",공공용,경상남도 창원시 의창구 의안로18번길 18,,35.2627565169,128.6256002097,1012,1226,Y,,,경상남도 창원시청,2019-09-24
"동마산보건지소",공공용,경상남도 창원시 마산회원구 구암남14길 33,경상남도 창원시 마산회원구 구암동 95-5,35.2506001870,128.6007741360,261.16,316,y,주차장,055-230-5733,마산회원구 구암2동주민센터,2019-09-24
"구암2동주민센터",공공용,경상남도 창원시 마산회원구 구암남16길 12,경상남도 창원시 마산회원구 구암동 86-2,35.2490126129,128.5984270157,475,575,y,주차장,055-230-5733,마산회원구 구암2동주민센터,2019-09-24
"중앙하이츠",공공용,경상남도 창원시 마산회원구 팔용로 215,경상남도 창원시 마산회원구 구암동 51-1,35.2469822175,128.5946650985,8163,9894,y,주차장,055-230-5733,마산회원구 구암2동주민센터,2019-09-24
"창신중학교지하식당",공공용,경상남도 창원시 마산회원구 봉암북7길 11,경상남도 창원시 마산회원구 봉암동 511-8,35.2243292412,128.5973716037,238,288,y,식당,055-230-5784,마산회원구 봉암동주민센터,2019-09-24
"정다운병원",공공용,경상남도 창원시 마산회원구 봉양로 160,경상남도 창원시 마산회원구 봉암동 472-19,35.2175649138,128.6037535728,1953.73,2364,y,주차장,055-230-5784,마산회원구 봉암동주민센터,2019-09-24
"창원교육지원청 마산교육지원센터",공공용,경상남도 창원시 마산회원구 봉덕2길 3,경상남도 창원시 마산회원구 봉암동 435-1,35.2220785096,128.5952803240,148.76,180,y,창고,055-230-5784,마산회원구 봉암동주민센터,2019-09-24
"서광아파트",공공용,경상남도 창원시 마산회원구 봉양로 241,경상남도 창원시 마산회원구 봉암동 277,35.2168808460,128.6129122132,5094,6164,y,주차장,055-230-5784,마산회원구 봉암동주민센터,2019-09-24
"중앙동-대신한울아파트",공공용,경상남도 창원시 진해구 백구로 14,,35.1467420,128.6625480,1356,1643,Y,,,경상남도 창원시청,2019-09-24
"중앙동-태영데시앙아파트",공공용,경상남도 창원시 진해구 중원동로 28,,35.1469200,128.6612754926,9200,11151,Y,,,경상남도 창원시청,2019-09-24
"태평동-대암그린비치맨션",공공용,경상남도 창원시 진해구 속천로 23번길9,,35.1441993965,128.6713183635,1235,1496,Y,,,경상남도 창원시청,2019-09-24
"태평동-신생비치맨션",공공용,경상남도 창원시 진해구 진희로 9,,35.1435270664,128.6709271812,1030,1248,Y,,,경상남도 창원시청,2019-09-24
"태평동-성신아트빌라",공공용,경상남도 창원시 진해구 태평로 34번길11,,35.1449558947,128.6619241338,747,905,Y,,,경상남도 창원시청,2019-09-24
"태평동-평화그린파크맨션",공공용,경상남도 창원시 진해구 제황로 10,,35.1461352421,128.6694882735,1011,1225,Y,,,경상남도 창원시청,2019-09-24
"태평동-수창블루안아파트",공공용,경상남도 창원시 진해구 속천로 58,,35.1419282422,128.6697620,2960,3587,Y,,,경상남도 창원시청,2019-09-24
"충무동-농협",공공용,경상남도 창원시 진해구 벚꽃로 69,,35.1518283474,128.6633680,431,522,Y,,,경상남도 창원시청,2019-09-24
"충무동-국민은행",공공용,경상남도 창원시 진해구 중원로80번길 21,,35.1512330,128.6622110,621,752,Y,,,경상남도 창원시청,2019-09-24
"충무동-원예농협",공공용,경상남도 창원시 진해구 충장로 84,,35.1522291181,128.6612310,460,557,Y,,,경상남도 창원시청,2019-09-24
"충무동-평화빌라",공공용,경상남도 창원시 진해구 중원로85번길 13,,35.1518210,128.6586380,463,561,Y,,,경상남도 창원시청,2019-09-24
"충무동-경남은행",공공용,경상남도 창원시 진해구 충장로 124,,35.1518010,128.6655080,387,469,Y,,,경상남도 창원시청,2019-09-24
"충무동-충무동주민센터",공공용,경상남도 창원시 진해구 중원로74번길 6,,35.1505040,128.6603280,171,207,Y,,,경상남도 창원시청,2019-09-24
"충무동-한일빌딩",공공용,경상남도 창원시 진해구 충장로 140,,35.1516840,128.6672080,475,575,Y,,,경상남도 창원시청,2019-09-24
"충무동-국빈장여관",공공용,경상남도 창원시 진해구 중원로79번길 5,,35.1512490,128.6592810,184,223,Y,,,경상남도 창원시청,2019-09-24
"충무동-맥도날드(구해양극장)",공공용,경상남도 창원시 진해구 벚꽃로 68-1,,35.1513160,128.6636060,419,507,Y,,,경상남도 창원시청,2019-09-24
"충무동-여성회관",공공용,경상남도 창원시 진해구 충장로 140,,35.1516840,128.6672080,1204,1459,Y,,,경상남도 창원시청,2019-09-24
"여좌동-우정빌라",공공용,경상남도 창원시 진해구 여좌남로 41번길6-2,,35.1553160,128.6606310,294,356,Y,,,경상남도 창원시청,2019-09-24
"북동시장",공공용,경상남도 창원시 의창구 의안로49번길 30,,35.2661820608,128.6206974270,2408,2918,Y,,,경상남도 창원시청,2019-09-24
"흥한웰가 102동 지하주차장",공공용,경상남도 창원시 의창구 천주로 33,,35.2644406933,128.6166717845,9334,11313,Y,,,경상남도 창원시청,2019-09-24
"중동대동다:숲아파트 108동 지하주차장",공공용,경상남도 창원시 의창구 팔용로 512,,35.2610227938,128.6199397975,13253,16064,Y,,,경상남도 창원시청,2019-09-24
"팔룡동주민센터",공공용,경상남도 창원시 의창구 팔용로 435,,35.2554796916,128.6128480,1657,2008,Y,,,경상남도 창원시청,2019-09-24
"벽산블루밍아파트C단지 301동",공공용,경상남도 창원시 의창구 남산로 20,,35.2586122214,128.6123016252,5874,7120,Y,,,경상남도 창원시청,2019-09-24
"벽산블루밍아파트C단지 305동",공공용,경상남도 창원시 의창구 남산로 20,,35.2586122214,128.6123016252,3112,3772,Y,,,경상남도 창원시청,2019-09-24
"벽산블루밍아파트C단지 308동",공공용,경상남도 창원시 의창구 남산로 20,,35.2586122214,128.6123016252,3425,4151,Y,,,경상남도 창원시청,2019-09-24
"웰빙프라자",공공용,경상남도 창원시 의창구 평산로 96,,35.2516150,128.6196640,7167,8687,Y,,,경상남도 창원시청,2019-09-24
"교차로빌딩",공공용,경상남도 창원시 의창구 창원대로 1,,35.2552273175,128.6063180,594,720,Y,,,경상남도 창원시청,2019-09-24
"몽고간장",공공용,경상남도 창원시 의창구 팔용로371번길 18,,35.2523860994,128.6066453981,404,489,Y,,,경상남도 창원시청,2019-09-24
"동서식품",공공용,경상남도 창원시 의창구 반계로 40,,35.2495776539,128.6131641939,330,400,Y,,,경상남도 창원시청,2019-09-24
"극동아파트",공공용,경상남도 창원시 의창구 팔용로 446,,35.2546636773,128.6140120974,4126,5001,Y,,,경상남도 창원시청,2019-09-24
"대동중앙아파트",공공용,경상남도 창원시 의창구 반계로 101,,35.2547592156,128.6152269587,4929,5974,Y,,,경상남도 창원시청,2019-09-24
"벽산블루밍아파트B단지관리사무소",공공용,경상남도 창원시 의창구 반계로 104-8,,35.2532197375,128.6179387192,13937,16893,Y,,,경상남도 창원시청,2019-09-24
"벽산블루밍아파트B단지 104동",공공용,경상남도 창원시 의창구 반계로 104-21,,35.2534997177,128.6196450472,4901,5940,Y,,,경상남도 창원시청,2019-09-24
"벽산블루밍아파트B단지 113동",공공용,경상남도 창원시 의창구 반계로 104-8,,35.2532197375,128.6179387192,17458,21161,Y,,,경상남도 창원시청,2019-09-24
"창원종합터미널 지하도",공공용,경상남도 창원시 의창구 창원대로 371,,35.2369503527,128.6404634352,750,909,Y,,,경상남도 창원시청,2019-09-24
"창원문성대학교 4호관(사회관)",공공용,경상남도 창원시 의창구 충혼로 91,,35.2330905201,128.6602140744,594,720,Y,,,경상남도 창원시청,2019-09-24
"시티세븐몰",공공용,경상남도 창원시 의창구 원이대로 320,,35.2396660497,128.6544074678,19096,23146,Y,,,경상남도 창원시청,2019-09-24
"대원대동2차아파트 201동",공공용,경상남도 창원시 의창구 창원대로 538,,35.2265880,128.6534687335,1979,2398,Y,,,경상남도 창원시청,2019-09-24
"대원대동2차아파트 202동",공공용,경상남도 창원시 의창구 창원대로 538,,35.2265880,128.6534687335,1427,1729,Y,,,경상남도 창원시청,2019-09-24
"대원대동2차아파트 203동",공공용,경상남도 창원시 의창구 창원대로 538,,35.2265880,128.6534687335,1228,1488,Y,,,경상남도 창원시청,2019-09-24
"대원대동1차아파트 101동",공공용,경상남도 창원시 의창구 창원대로 548,,35.2258960,128.6534637693,1387,1681,Y,,,경상남도 창원시청,2019-09-24
"대원대동1차아파트 102동",공공용,경상남도 창원시 의창구 창원대로 548,,35.2258960,128.6534637693,1444,1750,Y,,,경상남도 창원시청,2019-09-24
"대원대동1차아파트 103동",공공용,경상남도 창원시 의창구 창원대로 548,,35.2258960,128.6534637693,1198,1452,Y,,,경상남도 창원시청,2019-09-24
"대원대동1차아파트 104동",공공용,경상남도 창원시 의창구 창원대로 548,,35.2258960,128.6534637693,1449,1756,Y,,,경상남도 창원시청,2019-09-24
"대원대동1차아파트 106동",공공용,경상남도 창원시 의창구 창원대로 548,,35.2258960,128.6534637693,1663,2015,Y,,,경상남도 창원시청,2019-09-24
"여좌동-동양증권",공공용,경상남도 창원시 진해구 충장로 135,,35.1525600,128.6669080,1074,1301,Y,,,경상남도 창원시청,2019-09-24
"여좌동-동호빌딩",공공용,경상남도 창원시 진해구 여좌로 7,,35.1527300,128.6654720,241,292,Y,,,경상남도 창원시청,2019-09-24
"여좌동-금화골든파크",공공용,경상남도 창원시 진해구 충장로 79,,35.1529123119,128.6608420,664,804,Y,,,경상남도 창원시청,2019-09-24
"여좌동-이송빌라트",공공용,경상남도 창원시 진해구 여명로 89,,35.1584040,128.6613580,406,492,Y,,,경상남도 창원시청,2019-09-24
"여좌동-중앙도서관",공공용,경상남도 창원시 진해구 충장로 141,,35.1524570,128.6675000,1370,1660,Y,,,경상남도 창원시청,2019-09-24
"여좌동-대광아파트",공공용,경상남도 창원시 진해구 여명로 16번길22,,35.1542960113,128.6577335186,4983,6040,Y,,,경상남도 창원시청,2019-09-24
"여좌동-청산빌라",공공용,경상남도 창원시 진해구 여좌로 118번가길11-1,,35.1621250,128.6650430,245,296,Y,,,경상남도 창원시청,2019-09-24
"태백동-금화아파트",공공용,경상남도 창원시 진해구 대야남로 62번길6,,35.1542540,128.6718390,540,654,Y,,,경상남도 창원시청,2019-09-24
"태백동-벚꽃장회관",공공용,경상남도 창원시 진해구 충장로 161,,35.1523360,128.6698260,214,259,Y,,,경상남도 창원시청,2019-09-24
"태백동-원창시인의 마을",공공용,경상남도 창원시 진해구 태백서로 45번길3,,35.1559060,128.6728720018,1294,1568,Y,,,경상남도 창원시청,2019-09-24
"태백동-삼양프라자",공공용,경상남도 창원시 진해구 중초로 37번길21,,35.1560170,128.6790210,319,386,Y,,,경상남도 창원시청,2019-09-24
"경화동-창조빌라",공공용,경상남도 창원시 진해구 조천로 31번길12,,35.1603220,128.6829750,223,270,Y,,,경상남도 창원시청,2019-09-24
"경화동-유일전원빌라 103동",공공용,경상남도 창원시 진해구 조천로 13번길17,,35.1605151999,128.6832840,227,275,Y,,,경상남도 창원시청,2019-09-24
"경화동-보영전원빌라",공공용,경상남도 창원시 진해구 조천북로98번길7,,35.1605740,128.6829230,260,315,Y,,,경상남도 창원시청,2019-09-24
"경화동-경진전원빌라",공공용,경상남도 창원시 진해구 조천북로98번길1,,35.1610183894,128.6828490,207,250,Y,,,경상남도 창원시청,2019-09-24
"경화동-한빛프라자",공공용,경상남도 창원시 진해구 충장로 325,,35.1538329012,128.6876180,2231,2704,Y,,,경상남도 창원시청,2019-09-24
"경화동-포스코더?아파트 P1",공공용,경상남도 창원시 진해구 조천북로 65,,35.1605913623,128.6785893932,1109,1344,Y,,,경상남도 창원시청,2019-09-24
"경화동-포스코더?아파트 P2",공공용,경상남도 창원시 진해구 조천북로 65,,35.1605913623,128.6785893932,1242,1505,Y,,,경상남도 창원시청,2019-09-24
"경화동-포스코더?아파트 P3",공공용,경상남도 창원시 진해구 조천북로 65,,35.1605913623,128.6785893932,1555,1884,Y,,,경상남도 창원시청,2019-09-24
"경화동-삼정그린코아 2단지",공공용,경상남도 창원시 진해구 조천북로 99,,35.1618783194,128.6832645874,1318,1597,Y,,,경상남도 창원시청,2019-09-24
"경화동-대동다숲아파트 P1",공공용,경상남도 창원시 진해구 조천북로 79,,35.1612950670,128.6803553532,4859,5889,Y,,,경상남도 창원시청,2019-09-24
"경화동-대동다숲아파트 P2",공공용,경상남도 창원시 진해구 조천북로 79,,35.1612950670,128.6803553532,2499,3029,Y,,,경상남도 창원시청,2019-09-24
"병암동-상지약수아파트",공공용,경상남도 창원시 진해구 병암북로 4번길37,,35.1608275558,128.6942300,1275,1545,Y,,,경상남도 창원시청,2019-09-24
"병암동-농협중앙회",공공용,경상남도 창원시 진해구 충장로 347,,35.1539068172,128.6900450,406,492,Y,,,경상남도 창원시청,2019-09-24
"병암동-창남상가빌라",공공용,경상남도 창원시 진해구 충장로 337번길33,,35.1567030,128.6885003345,302,366,Y,,,경상남도 창원시청,2019-09-24
"병암동-한림아파트",공공용,경상남도 창원시 진해구 진해대로 728번길8-36,,35.1572489288,128.6931421315,1133,1373,Y,,,경상남도 창원시청,2019-09-24
"병암동-안성그린파크빌라",공공용,경상남도 창원시 진해구 충장로 364번가길4-13,,35.1521650,128.6922690,522,632,Y,,,경상남도 창원시청,2019-09-24
"대원파크빌 102동",공공용,경상남도 창원시 의창구 삼동로 121,,35.2251883924,128.6557565336,6504,7883,Y,,,경상남도 창원시청,2019-09-24
"대원파크빌 103동",공공용,경상남도 창원시 의창구 삼동로 121,,35.2251883924,128.6557565336,3239,3926,Y,,,경상남도 창원시청,2019-09-24
"의창구청",공공용,경상남도 창원시 의창구 태복산로15번길 8,,35.2535743944,128.6403237505,714,865,Y,,,경상남도 창원시청,2019-09-24
"대남종합상가",공공용,경상남도 창원시 의창구 도계로 102,,35.2559249713,128.6403020,611,740,Y,,,경상남도 창원시청,2019-09-24
"해바라기아파트 5차",공공용,경상남도 창원시 의창구 도계로50번길 6-33,,35.2596440,128.6355494206,297,360,Y,,,경상남도 창원시청,2019-09-24
"성산빌라2차",공공용,경상남도 창원시 의창구 원이대로55번길 8-17,,35.2571200,128.6357510,198,240,Y,,,경상남도 창원시청,2019-09-24
"삼전빌딩",공공용,경상남도 창원시 의창구 도계두리길 20,,35.2609350,128.6318460,495,600,Y,,,경상남도 창원시청,2019-09-24
"한일데파트",공공용,경상남도 창원시 의창구 도계로 12,,35.2596440,128.6339140,238,288,Y,,,경상남도 창원시청,2019-09-24
"일호하이파이데파트",공공용,경상남도 창원시 의창구 도계로 41,,35.2606076747,128.6368330,231,280,Y,,,경상남도 창원시청,2019-09-24
"청호빌라",공공용,경상남도 창원시 의창구 하남천서길 67,,35.2635311345,128.6424170,528,640,Y,,,경상남도 창원시청,2019-09-24
"조아쇼핑",공공용,경상남도 창원시 의창구 명지로84번길 4,,35.2489310384,128.6467120405,661,801,Y,,,경상남도 창원시청,2019-09-24
"영남초원맨션",공공용,경상남도 창원시 의창구 태복산로11번길 27,,35.2548490775,128.6377340,429,520,Y,,,경상남도 창원시청,2019-09-24
"제일파크",공공용,경상남도 창원시 의창구 하남천동길 60,,35.2631460,128.6415900,264,320,Y,,,경상남도 창원시청,2019-09-24
"명서종합상가",공공용,경상남도 창원시 의창구 명서로116번길 20,,35.2484470,128.6462196731,1052,1275,Y,,,경상남도 창원시청,2019-09-24
"상강한주맨션",공공용,경상남도 창원시 의창구 도계로73번길 17,,35.2591020315,128.6402241904,495,600,Y,,,경상남도 창원시청,2019-09-24
"강남뉴프라자",공공용,경상남도 창원시 의창구 도계로60번길 5-19,,35.2582070,128.6382210,462,560,Y,,,경상남도 창원시청,2019-09-24
"국도무궁화맨션",공공용,경상남도 창원시 의창구 도계로95번길 6-5,,35.2567410,128.6408800,330,400,Y,,,경상남도 창원시청,2019-09-24
"금강목련아파트",공공용,경상남도 창원시 의창구 하남천서길37번길 6-12,,35.2625610,128.6398270,991,1201,Y,,,경상남도 창원시청,2019-09-24
"건우맨션",공공용,경상남도 창원시 의창구 원이대로69번길 30-14,,35.2574130,128.6382700,495,600,Y,,,경상남도 창원시청,2019-09-24
"화목그린맨션",공공용,경상남도 창원시 의창구 태복산로15번길 36,,35.2558170,128.6384330,528,640,Y,,,경상남도 창원시청,2019-09-24
"국도그린맨션",공공용,경상남도 창원시 의창구 원이대로103번길 25,,35.2551340,128.6397797064,462,560,Y,,,경상남도 창원시청,2019-09-24
"장미아파트",공공용,경상남도 창원시 의창구 하남천서길15번길 20,,35.2617456719,128.6382688813,859,1041,Y,,,경상남도 창원시청,2019-09-24
"강남아파트",공공용,경상남도 창원시 의창구 하남천서길21번길 8-14,,35.2618135012,128.6393822252,1190,1442,Y,,,경상남도 창원시청,2019-09-24
"의창스포츠센터",공공용,경상남도 창원시 의창구 원이대로56번길 11,,35.2560569971,128.6334826365,7227,8760,Y,,,경상남도 창원시청,2019-09-24
"도계휴먼시아아파트",공공용,경상남도 창원시 의창구 원이대로82번길 15-15,,35.2546082443,128.6350532652,2617,3172,Y,,,경상남도 창원시청,2019-09-24
"두산위브아파트",공공용,경상남도 창원시 의창구 도계로 135,,35.2531015980,128.6430213578,60773,73664,Y,,,경상남도 창원시청,2019-09-24
"창원대학교 산학협동관 1동 지하",공공용,경상남도 창원시 의창구 창원대학로 20,,35.2459596214,128.6948177699,842,1020,Y,,,경상남도 창원시청,2019-09-24
"경남도청",공공용,경상남도 창원시 의창구 중앙대로 300,,35.2378024268,128.6919414136,1322,1602,Y,,,경상남도 창원시청,2019-09-24
"병암동-아신빌라",공공용,경상남도 창원시 진해구 경화시장로 45번길17,,35.1574410,128.6886590,205,248,Y,,,경상남도 창원시청,2019-09-24
"병암동-태화맨션",공공용,경상남도 창원시 진해구 병암북로 3번길24,,35.1602100,128.6883970,558,676,Y,,,경상남도 창원시청,2019-09-24
"병암동-대방빌리지",공공용,경상남도 창원시 진해구 충장로 339,,35.1538050,128.6892360297,1159,1404,Y,,,경상남도 창원시청,2019-09-24
"병암동-디에스아이존빌아파트",공공용,경상남도 창원시 진해구 병암로 20,,35.1547006916,128.6931112678,13201,16001,Y,,,경상남도 창원시청,2019-09-24
"석동-창원교육청 진해민원실",공공용,경상남도 창원시 진해구 진해대로 776번길11,,35.1573240,128.6996560,636,770,Y,,,경상남도 창원시청,2019-09-24
"석동-벚꽃그린빌3단지 303-304",공공용,경상남도 창원시 진해구 석동로 60,,35.1549293315,128.7068722692,2059,2495,Y,,,경상남도 창원시청,2019-09-24
"석동-벚꽃그린빌3단지 319-322",공공용,경상남도 창원시 창원시 진해구 석동로 60,,35.2279620,128.6817070,2187,2650,Y,,,경상남도 창원시청,2019-09-24
"석동-락희빌라",공공용,경상남도 창원시 창원시 진해구 돌리로 22번길 5-14,,35.2279620,128.6817070,380,460,Y,,,경상남도 창원시청,2019-09-24
"석동-석동빌라",공공용,경상남도 창원시 창원시 진해구 돌리로 16번길 4-3,,35.2279620,128.6817070,369,447,Y,,,경상남도 창원시청,2019-09-24
"석동-파인빌리지",공공용,경상남도 창원시 창원시 진해구 돌리로 22번길 5-16,,35.2279620,128.6817070,223,270,Y,,,경상남도 창원시청,2019-09-24
"석동-GS자이아파트 108동",공공용,경상남도 창원시 창원시 진해구 동진로 21번길 26,,35.2279620,128.6817070,3527,4275,Y,,,경상남도 창원시청,2019-09-24
"석동-우림필유아파트",공공용,경상남도 창원시 창원시 진해구 해원로 29,,35.2279620,128.6817070,16503,20003,Y,,,경상남도 창원시청,2019-09-24
"석동-한솔솔파크아파트",공공용,경상남도 창원시 창원시 진해구 진해대로 789번길24,,35.2279620,128.6817070,1989,2410,Y,,,경상남도 창원시청,2019-09-24
"이동-남흥아파트 106.107동",공공용,경상남도 창원시 창원시 진해구 해원로 5,,35.2279620,128.6817070,1644,1992,Y,,,경상남도 창원시청,2019-09-24
"이동-석동주공아파트",공공용,경상남도 창원시 창원시 진해구 냉천로 52,,35.2279620,128.6817070,3440,4169,Y,,,경상남도 창원시청,2019-09-24
"이동-동부교회",공공용,경상남도 창원시 창원시 진해구 충장로455번길 19,,35.2279620,128.6817070,372,450,Y,,,경상남도 창원시청,2019-09-24
"자은동-삼성아파트",공공용,경상남도 창원시 창원시 진해구 자은로 64번길39,,35.2279620,128.6817070,3465,4200,Y,,,경상남도 창원시청,2019-09-24
"자은동-자은주공아파트",공공용,경상남도 창원시 창원시 진해구 진해대로 901번길9,,35.2279620,128.6817070,1876,2273,Y,,,경상남도 창원시청,2019-09-24
"자은동-성원아파트",공공용,경상남도 창원시 창원시 진해구 냉천로 108번길6,,35.2279620,128.6817070,5446,6601,Y,,,경상남도 창원시청,2019-09-24
"자은동-대동아파트",공공용,경상남도 창원시 창원시 진해구 냉천로 88,,35.2279620,128.6817070,2401,2910,Y,,,경상남도 창원시청,2019-09-24
"자은동-부길골든프라자",공공용,경상남도 창원시 창원시 진해구 자은로 64번길3,,35.2279620,128.6817070,630,763,Y,,,경상남도 창원시청,2019-09-24
"자은동-안성명작빌라",공공용,경상남도 창원시 창원시 진해구 진해대로 913번길29,,35.2279620,128.6817070,833,1009,Y,,,경상남도 창원시청,2019-09-24
"자은동-벚꽃마을주공아파트",공공용,경상남도 창원시 진해구 진해대로 921번길12,,35.1471240,128.7083024619,6283,7615,Y,,,경상남도 창원시청,2019-09-24
"자은동-월드메르디앙아파트",공공용,경상남도 창원시 진해구 자은로 64번가길26,,35.1513758015,128.7111520869,7751,9395,Y,,,경상남도 창원시청,2019-09-24
"자은동-자은프라임아파트",공공용,경상남도 창원시 진해구 냉천로 257,,35.1525869009,128.7215930790,33272,40329,Y,,,경상남도 창원시청,2019-09-24
"덕산동-여명상가빌라",공공용,경상남도 창원시 진해구 풍호로 15,,35.1399350,128.7029310,493,597,Y,,,경상남도 창원시청,2019-09-24
"경남지방경찰청",공공용,경상남도 창원시 의창구 상남로 289,,35.2390816914,128.6955797762,1068,1294,Y,,,경상남도 창원시청,2019-09-24
"경남교육연수원",공공용,경상남도 창원시 의창구 사림로111번길 22,,35.2466382650,128.6864958848,585,709,Y,,,경상남도 창원시청,2019-09-24
"동승빌딩",공공용,경상남도 창원시 의창구 봉곡로111번길 8,,35.2471130,128.6711320,215,260,Y,,,경상남도 창원시청,2019-09-24
"경남은행 명곡지점",공공용,경상남도 창원시 의창구 원이대로 265,,35.2435000,128.6493130,496,601,Y,,,경상남도 창원시청,2019-09-24
"청마빌딩",공공용,경상남도 창원시 의창구 원이대로 283,,35.2427119430,128.6509660,397,481,Y,,,경상남도 창원시청,2019-09-24
"고려상가",공공용,경상남도 창원시 의창구 원이대로 277,,35.2428260,128.6505060,231,280,Y,,,경상남도 창원시청,2019-09-24
"봉곡진보프라자",공공용,경상남도 창원시 의창구 창이대로205번길 5,,35.2454010,128.6595030,496,601,Y,,,경상남도 창원시청,2019-09-24
"상관빌딩",공공용,경상남도 창원시 의창구 원이대로261번길 16-9,,35.2446110,128.6505640,483,585,Y,,,경상남도 창원시청,2019-09-24
"코오롱아파트(제1주차장)",공공용,경상남도 창원시 의창구 지귀로95번길 7,,35.2482015182,128.6565803508,5312,6438,Y,,,경상남도 창원시청,2019-09-24
"우영프라자",공공용,경상남도 창원시 의창구 용지로293번길 28,,35.2408487508,128.6880544933,2348,2846,Y,,,경상남도 창원시청,2019-09-24
"명서지하도",공공용,경상남도 창원시 의창구 명서로141번길 28,,35.2439190,128.6483610,280,339,Y,,,경상남도 창원시청,2019-09-24
"경남도청 신관",공공용,경상남도 창원시 의창구 중앙대로 300,,35.2378024268,128.6919414136,527,638,Y,,,경상남도 창원시청,2019-09-24
"경상남도의회",공공용,경상남도 창원시 의창구 상남로 290,,35.2364049665,128.6944130,171,207,Y,,,경상남도 창원시청,2019-09-24
"봉림동주민센터",공공용,경상남도 창원시 의창구 대봉로26번길 5,,35.2519219668,128.6675854748,1115,1351,Y,,,경상남도 창원시청,2019-09-24
LH피닉스포레,공공용,경상남도 창원시 의창구 대봉로 27,,35.2520032139,128.6666598742,10373,12573,Y,,,경상남도 창원시청,2019-09-24
"봉림동휴먼시아 1단지아파트(109-111동지하)",공공용,경상남도 창원시 의창구 소봉로 50,,35.2539888193,128.6706294134,170674,206877,Y,,,경상남도 창원시청,2019-09-24
"봉림동휴먼시아 1단지아파트(101-102동지하)",공공용,경상남도 창원시 의창구 소봉로 50,,35.2539888193,128.6706294134,269504,326671,Y,,,경상남도 창원시청,2019-09-24
"봉림동휴먼시아 2단지아파트(208-209동지하)",공공용,경상남도 창원시 의창구 소봉로 50,,35.2539888193,128.6706294134,370466,449049,Y,,,경상남도 창원시청,2019-09-24
"창원시청 지하건물",공공용,경상남도 창원시 의창구 중앙대로 151,,35.2289681291,128.6817674346,1382,1675,Y,,,경상남도 창원시청,2019-09-24
"창원중부경찰서 지하건물",공공용,경상남도 창원시 의창구 상남로 177,,35.2284230,128.6858917499,231,280,Y,,,경상남도 창원시청,2019-09-24
"경남도교육청 지하건물",공공용,경상남도 창원시 의창구 중앙대로 241,,35.2335549394,128.6873629235,1388,1682,Y,,,경상남도 창원시청,2019-09-24
"도청 지하보도",공공용,경상남도 창원시 의창구 중앙대로 259,,35.2356257678,128.6893126941,456,552,Y,,,경상남도 창원시청,2019-09-24
"한국국토정보공사 경남본부",공공용,경상남도 창원시 의창구 창이대로532번길 6,,35.2351490,128.6907430,19876.19,24092,Y,,,경상남도 창원시청,2019-09-24
"용지주민센터 지하주차장",공공용,경상남도 창원시 의창구 용지로239번길 19-4,,35.2360351826,128.6845100366,661,801,Y,,,경상남도 창원시청,2019-09-24
"성산아트홀 지하주차장",공공용,경상남도 창원시 의창구 중앙대로 181,,35.2293855086,128.6831204264,22486,27255,Y,,,경상남도 창원시청,2019-09-24
"한국전력공사 지하주차장",공공용,경상남도 창원시 의창구 중앙대로210번길 13,,35.2316513774,128.6889271253,698,846,Y,,,경상남도 창원시청,2019-09-24
"서진라이크빌 지하주차장",공공용,경상남도 창원시 의창구 용지로169번길 13,,35.2304000,128.6809190513,1345,1630,Y,,,경상남도 창원시청,2019-09-24
"덕산동-덕산동주민센터",공공용,경상남도 창원시 진해로 동진로 157번길5,,35.1332040,128.7101810,221,267,Y,,,경상남도 창원시청,2019-09-24
"덕산동-덕산해군아파트",공공용,경상남도 창원시 진해구 진해대로 943,,35.1447185101,128.7105738148,714,865,Y,,,경상남도 창원시청,2019-09-24
"덕산동-송림홈타운",공공용,경상남도 창원시 진해구 동진로 138,,35.1450089139,128.7027546189,3188,3864,Y,,,경상남도 창원시청,2019-09-24
"덕산동-원창베스트빌 101동",공공용,경상남도 창원시 진해구 풍호로 35번길19,,35.1413396925,128.7045240,2662,3226,Y,,,경상남도 창원시청,2019-09-24
"덕산동-자은3주공아파트",공공용,경상남도 창원시 진해대로 975번길23,,32.5312900,123.7747400,941,1140,Y,,,경상남도 창원시청,2019-09-24
"풍호동-우성아파트 P2",공공용,경상남도 창원시 진해구 충장로 575,,35.1379688011,128.7027352367,3704,4489,Y,,,경상남도 창원시청,2019-09-24
"풍호동-우성아파트 P3",공공용,경상남도 창원시 진해구 충장로 575,,35.1379688011,128.7027352367,3202,3881,Y,,,경상남도 창원시청,2019-09-24
"풍호동-평화마을아파트",공공용,경상남도 창원시 진해구 충장로 603번길10,,35.1353440,128.7033740,2970,3600,Y,,,경상남도 창원시청,2019-09-24
"풍호동-한림리츠빌아파트",공공용,경상남도 창원시 진해구 풍호동 83번지 77호,,35.1367440,128.7105190,2146,2601,Y,,,경상남도 창원시청,2019-09-24
"풍호동-대동다숲아파트",공공용,경상남도 창원시 진해구 장천동 119번지 12호,,35.1301290,128.7103850,17465,21169,Y,,,경상남도 창원시청,2019-09-24
"풍호동-벽산e솔렌스힐아파트",공공용,경상남도 창원시 진해구 장천동 132번지,,35.1293720,128.7103120,8190,9927,Y,,,경상남도 창원시청,2019-09-24
"풍호동-창원마린푸르지오2단지",공공용,경상남도 창원시 진해구 충장로657번길 35,,35.1312830,128.7063525505,15424,18695,Y,,,경상남도 창원시청,2019-09-24
"풍호동-창원한신휴플러스오션파크",공공용,경상남도 창원시 진해구 행암로 5,,35.1296312922,128.7083230602,21589,26168,Y,,,경상남도 창원시청,2019-09-24
"풍호동-창원마린푸르지오1단지",공공용,경상남도 창원시 진해구 충장로657번길 35,,35.1312830,128.7063525505,71210,86315,Y,,,경상남도 창원시청,2019-09-24
"웅천동-대풍아파트",공공용,경상남도 창원시 진해구 웅천로 159번길 15-1,,35.1151791929,128.7477940,676,819,Y,,,경상남도 창원시청,2019-09-24
"웅동1동-남명플럼빌리지",공공용,경상남도 창원시 진해구 웅동로 70,,35.1249379532,128.7831189411,8220,9963,Y,,,경상남도 창원시청,2019-09-24
"웅동1동-청안해오름아파트",공공용,경상남도 창원시 진해구 웅동로 150,,35.1200300,128.7906870104,3774,4574,Y,,,경상남도 창원시청,2019-09-24
"웅동1동-청안그린빌아파트",공공용,경상남도 창원시 진해구 웅동로 51번길24-3,,35.1274922583,128.7819660,1816,2201,Y,,,경상남도 창원시청,2019-09-24
"웅동1동-동화맨션",공공용,경상남도 창원시 진해구 소사로 35,,35.1270520,128.7784002571,1385,1678,Y,,,경상남도 창원시청,2019-09-24
"웅동2동-용원골프장 지하",공공용,경상남도 창원시 진해구 가주로 133,,35.1156149467,128.8331838625,795,963,Y,,,경상남도 창원시청,2019-09-24
"웅동2동-현대아파트",공공용,경상남도 창원시 진해구 안청북로 42,,35.1046950249,128.8087692648,4562,5529,Y,,,경상남도 창원시청,2019-09-24
"웅동2동-풍림아파트",공공용,경상남도 창원시 진해구 안청북로 39,,35.1060028476,128.8068855879,13402,16244,Y,,,경상남도 창원시청,2019-09-24
"웅동2동-해인로즈빌아파트",공공용,경상남도 창원시 진해구 안청로 126,,35.1074145378,128.8060750,5074,6150,Y,,,경상남도 창원시청,2019-09-24
"웅동2동-부영아파트",공공용,경상남도 창원시 진해구 안청남로 13,,35.1013901724,128.8058143718,15210,18436,Y,,,경상남도 창원시청,2019-09-24
"웅동2동-부영2차아파트",공공용,경상남도 창원시 진해구 안청북로 12,,35.1033828298,128.8036913953,4552,5517,Y,,,경상남도 창원시청,2019-09-24
"웅동2동-부영3차아파트",공공용,경상남도 창원시 진해구 안청남로 15,,35.1021350,128.8048770,7620,9236,Y,,,경상남도 창원시청,2019-09-24
"토월복합상가 지하주차장",공공용,경상남도 창원시 의창구 신월로 42,,35.2280030,128.6919130,2179,2641,Y,,,경상남도 창원시청,2019-09-24
"고운치과 지하주차장",공공용,경상남도 창원시 의창구 원이대로 595,,35.2280085053,128.6802680,1458,1767,Y,,,경상남도 창원시청,2019-09-24
"경남발전연구원 지하주차장",공공용,경상남도 창원시 의창구 용지로 248,,35.2353110,128.6875040,4373,5300,Y,,,경상남도 창원시청,2019-09-24
"반송동주민센터 지하주차장",공공용,경상남도 창원시 성산구 원이대로473번길 19-14,,35.2358280218,128.6695450704,695,842,Y,,,경상남도 창원시청,2019-09-24
"노블파크아파트 지하주차장",공공용,경상남도 창원시 성산구 원이대로 449,,35.2379816548,128.6660345796,57045,69145,Y,,,경상남도 창원시청,2019-09-24
"트리비앙아파트 지하주차장",공공용,경상남도 창원시 성산구 원이대로 495,,35.2333265398,128.6736984854,38537,46711,Y,,,경상남도 창원시청,2019-09-24
"현대산업아파트 지하주차장",공공용,경상남도 창원시 성산구 외동반림로 219,,35.2389085293,128.6767043766,7349,8907,Y,,,경상남도 창원시청,2019-09-24
"현대건설아파트 지하주차장",공공용,경상남도 창원시 성산구 반송로 177,,35.2377604745,128.6752659247,7613,9227,Y,,,경상남도 창원시청,2019-09-24
"럭키아파트 지하주차장",공공용,경상남도 창원시 성산구 반송로 105,,35.2387925774,128.6689247821,2699,3271,Y,,,경상남도 창원시청,2019-09-24
"까치아파트 지하주차장",공공용,경상남도 창원시 성산구 창원천로 254,,35.2441215585,128.6672851036,7696,9328,Y,,,경상남도 창원시청,2019-09-24
"대동아파트 지하주차장",공공용,경상남도 창원시 성산구 창원천로 292,,35.2449724240,128.6698907324,20357,24675,Y,,,경상남도 창원시청,2019-09-24
"종합운동장 지하보도",공공용,경상남도 창원시 성산구 원이대로393번길,,32.5312900,123.7747400,819,992,Y,,,경상남도 창원시청,2019-09-24
"케이프타운 지하",공공용,경상남도 창원시 성산구 원이대로393번길지하25,,35.2288270,128.6768920,8048,9755,Y,,,경상남도 창원시청,2019-09-24
"동남산업단지 공단",공공용,경상남도 창원시 성산구 창원대로 754,,35.2149750435,128.6728472134,387,469,Y,,,경상남도 창원시청,2019-09-24
kt 창원지사 대피시설,공공용,경상남도 창원시 성산구 상남로 49,,35.2182440763,128.6778720,364,441,Y,,,경상남도 창원시청,2019-09-24
"창원우체국 대피시설",공공용,경상남도 창원시 성산구 창원대로 57,,35.2175640,128.6694940,314,380,Y,,,경상남도 창원시청,2019-09-24
"한국기계대피시설",공공용,경상남도 창원시 성산구 창원대로 797,,35.2151413403,128.6777615799,1428,1730,Y,,,경상남도 창원시청,2019-09-24
"산업은행 구내 대피시설",공공용,경상남도 창원시 성산구 성남로 25,,32.5312900,123.7747400,645,781,Y,,,경상남도 창원시청,2019-09-24
"경남은행 지하도",공공용,경상남도 창원시 성산구 성남로 25,,32.5312900,123.7747400,400,484,Y,,,경상남도 창원시청,2019-09-24
"민방위전용교육장",공공용,경상남도 창원시 성산구 중앙대로21번길,,32.5312900,123.7747400,1107,1341,Y,,,경상남도 창원시청,2019-09-24
"경남오피스텔",공공용,경상남도 창원시 성산구 중앙대로 37,,35.2192810,128.6752155801,2314,2804,Y,,,경상남도 창원시청,2019-09-24
"성원 오피스텔",공공용,경상남도 창원시 성산구 용지로 70,,35.2220610,128.6763013255,2463,2985,Y,,,경상남도 창원시청,2019-09-24
"동성샛별아파트 지하",공공용,경상남도 창원시 성산구 연덕로184번길 1,,35.2190510,128.6664190,972,1178,Y,,,경상남도 창원시청,2019-09-24
"그라미 아파트",공공용,경상남도 창원시 성산구 연덕로184번길 23,,35.2179639981,128.6683708125,1464,1774,Y,,,경상남도 창원시청,2019-09-24
"창원리제스타워 지하",공공용,경상남도 창원시 성산구 중앙대로 85,,35.2229316635,128.6782920,400,484,Y,,,경상남도 창원시청,2019-09-24
"내동 월드메르디앙",공공용,경상남도 창원시 성산구 삼동로 128번길 24,,35.2244227982,128.6566459645,15541,18837,Y,,,경상남도 창원시청,2019-09-24
"외동 월드 메르디앙",공공용,경상남도 창원시 성산구 창원대로780번길 34,,35.2138435550,128.6751608341,13640,16533,Y,,,경상남도 창원시청,2019-09-24
"웅동2동-마린푸르지오2단지",공공용,경상남도 창원시 진해구 안골로298번길 26,,35.0982016007,128.8064239039,15837,19196,Y,,,경상남도 창원시청,2019-09-24
"웅동2동-일신님아파트",공공용,경상남도 창원시 진해구 안골로 357,,35.1031120,128.8097460,2694.98,3266,Y,,,경상남도 창원시청,2019-09-24
"웅동2동-코아루아파트",공공용,경상남도 창원시 진해구 안청남로 33,,35.1010410,128.8067640,3034,3677,Y,,,경상남도 창원시청,2019-09-24
"웅동2동-이지더원아파트1단지",공공용,경상남도 창원시 진해구 신항동로 143,,35.0884071778,128.8114970050,4143.7,5022,Y,,,경상남도 창원시청,2019-09-24
"웅동2동-이지더원아파트2단지",공공용,경상남도 창원시 진해구 신항동로 143,,35.0884071778,128.8114970050,13635,16527,Y,,,경상남도 창원시청,2019-09-24
"상남 꿈에 그린",공공용,경상남도 창원시 성산구 토월로27번길 18,,35.2145433383,128.6811096029,50335,61012,Y,,,경상남도 창원시청,2019-09-24
"성원그랜드쇼핑",공공용,경상남도 창원시 성산구 성원그랜드쇼핑,,35.1984650,128.7026440,9792,11869,Y,,,경상남도 창원시청,2019-09-24
"성원아파트 101동",공공용,경상남도 창원시 성산구 원이대로 774,,35.2151826697,128.6918847016,694,841,Y,,,경상남도 창원시청,2019-09-24
"성원아파트 103동",공공용,경상남도 창원시 성산구 원이대로 774,,35.2151826697,128.6918847016,661,801,Y,,,경상남도 창원시청,2019-09-24
"성원아파트 104동",공공용,경상남도 창원시 성산구 원이대로 774,,35.2151826697,128.6918847016,694,841,Y,,,경상남도 창원시청,2019-09-24
"성원아파트 106동",공공용,경상남도 창원시 성산구 원이대로 774,,35.2151826697,128.6918847016,694,841,Y,,,경상남도 창원시청,2019-09-24
"성원아파트 107동",공공용,경상남도 창원시 성산구 원이대로 774,,35.2151826697,128.6918847016,694,841,Y,,,경상남도 창원시청,2019-09-24
"성원아파트 108동",공공용,경상남도 창원시 성산구 원이대로 774,,35.2151826697,128.6918847016,760,921,Y,,,경상남도 창원시청,2019-09-24
"성원아파트 201동",공공용,경상남도 창원시 성산구 원이대로 774,,35.2151826697,128.6918847016,760,921,Y,,,경상남도 창원시청,2019-09-24
"성원아파트 203동",공공용,경상남도 창원시 성산구 원이대로 774,,35.2151826697,128.6918847016,760,921,Y,,,경상남도 창원시청,2019-09-24
"성원아파트 204동",공공용,경상남도 창원시 성산구 원이대로 774,,35.2151826697,128.6918847016,760,921,Y,,,경상남도 창원시청,2019-09-24
"성원아파트 205동",공공용,경상남도 창원시 성산구 원이대로 774,,35.2151826697,128.6918847016,628,761,Y,,,경상남도 창원시청,2019-09-24
"성원아파트 206동",공공용,경상남도 창원시 성산구 원이대로 774,,35.2151826697,128.6918847016,628,761,Y,,,경상남도 창원시청,2019-09-24
"성원아파트 301동",공공용,경상남도 창원시 성산구 원이대로 774,,35.2151826697,128.6918847016,628,761,Y,,,경상남도 창원시청,2019-09-24
"성원아파트 302동",공공용,경상남도 창원시 성산구 원이대로 774,,35.2151826697,128.6918847016,826,1001,Y,,,경상남도 창원시청,2019-09-24
"성원아파트 306동",공공용,경상남도 창원시 성산구 원이대로 774,,35.2151826697,128.6918847016,694,841,Y,,,경상남도 창원시청,2019-09-24
"성원아파트 309동",공공용,경상남도 창원시 성산구 원이대로 774,,35.2151826697,128.6918847016,760,921,Y,,,경상남도 창원시청,2019-09-24
"성원아파트 310동",공공용,경상남도 창원시 성산구 원이대로 774,,35.2151826697,128.6918847016,760,921,Y,,,경상남도 창원시청,2019-09-24
"성원아파트 501동",공공용,경상남도 창원시 성산구 원이대로 774,,35.2151826697,128.6918847016,661,801,Y,,,경상남도 창원시청,2019-09-24
"성원아파트 502동",공공용,경상남도 창원시 성산구 원이대로 774,,35.2151826697,128.6918847016,727,881,Y,,,경상남도 창원시청,2019-09-24
"성원아파트 503동",공공용,경상남도 창원시 성산구 원이대로 774,,35.2151826697,128.6918847016,727,881,Y,,,경상남도 창원시청,2019-09-24
"성원아파트 504동",공공용,경상남도 창원시 성산구 원이대로 774,,35.2151826697,128.6918847016,727,881,Y,,,경상남도 창원시청,2019-09-24
"성원아파트 510동",공공용,경상남도 창원시 성산구 원이대로 774,,35.2151826697,128.6918847016,661,801,Y,,,경상남도 창원시청,2019-09-24
"성원아파트 511동",공공용,경상남도 창원시 성산구 원이대로 774,,35.2151826697,128.6918847016,661,801,Y,,,경상남도 창원시청,2019-09-24
"대동아파트 101동",공공용,경상남도 창원시 성산구 동산로 115,,35.2190562198,128.6876162081,1051,1273,Y,,,경상남도 창원시청,2019-09-24
"대동아파트 104동",공공용,경상남도 창원시 성산구 동산로 115,,35.2190562198,128.6876162081,625,757,Y,,,경상남도 창원시청,2019-09-24
"대동아파트 105동",공공용,경상남도 창원시 성산구 동산로 115,,35.2190562198,128.6876162081,694,841,Y,,,경상남도 창원시청,2019-09-24
"대동아파트 107동",공공용,경상남도 창원시 성산구 동산로 115,,35.2190562198,128.6876162081,674,816,Y,,,경상남도 창원시청,2019-09-24
"대동아파트 109동",공공용,경상남도 창원시 성산구 동산로 115,,35.2190562198,128.6876162081,664,804,Y,,,경상남도 창원시청,2019-09-24
"대동아파트 113동",공공용,경상남도 창원시 성산구 동산로 115,,35.2190562198,128.6876162081,1051,1273,Y,,,경상남도 창원시청,2019-09-24
"대동아파트 114동",공공용,경상남도 창원시 성산구 동산로 115,,35.2190562198,128.6876162081,674,816,Y,,,경상남도 창원시청,2019-09-24
"대동아파트 118동",공공용,경상남도 창원시 성산구 동산로 115,,35.2190562198,128.6876162081,764,926,Y,,,경상남도 창원시청,2019-09-24
"대동아파트 120동",공공용,경상남도 창원시 성산구 동산로 115,,35.2190562198,128.6876162081,1607,1947,Y,,,경상남도 창원시청,2019-09-24
"대동아파트 117동",공공용,경상남도 창원시 성산구 동산로 115,,35.2190562198,128.6876162081,1160,1406,Y,,,경상남도 창원시청,2019-09-24
"대동아파트 123동",공공용,경상남도 창원시 성산구 동산로 115,,35.2190562198,128.6876162081,476,576,Y,,,경상남도 창원시청,2019-09-24
"대동아파트관리사무소",공공용,경상남도 창원시 성산구 동산로 115,,35.2190562198,128.6876162081,1061,1286,Y,,,경상남도 창원시청,2019-09-24
"대동백화점",공공용,경상남도 창원시 성산구 대동백화점,,35.1984650,128.7026440,17785,21557,Y,,,경상남도 창원시청,2019-09-24
"상남 지하보도",공공용,경상남도 창원시 성산구 상남 지하보도,,35.1984650,128.7026440,293,355,Y,,,경상남도 창원시청,2019-09-24
"토월 지하보도",공공용,경상남도 창원시 성산구 토월 지하보도,,35.1984650,128.7026440,299,362,Y,,,경상남도 창원시청,2019-09-24
"창원지방검찰청",공공용,경상남도 창원시 성산구 창이대로 669,,35.2251700,128.7014315240,231,280,Y,,,경상남도 창원시청,2019-09-24
"창원지방법원",공공용,경상남도 창원시 성산구 창이대로 669,,35.2251700,128.7014315240,506,613,Y,,,경상남도 창원시청,2019-09-24
"사파민원센터",공공용,경상남도 창원시 성산구 창이대로706번길16-23,,35.2218100,128.6982210,198,240,Y,,,경상남도 창원시청,2019-09-24
"사파동성(아)",공공용,경상남도 창원시 성산구 창이대로737,,35.2189636572,128.7050230152,307,372,Y,,,경상남도 창원시청,2019-09-24
"대방덕산타운",공공용,경상남도 창원시 성산구 대정로131,,35.2136201341,128.7068922744,7299,8847,Y,,,경상남도 창원시청,2019-09-24
"성원3차(아)",공공용,경상남도 창원시 성산구 대암로82,,35.2148405465,128.7062413701,13002,15760,Y,,,경상남도 창원시청,2019-09-24
"대방대동(아)",공공용,경상남도 창원시 성산구 대정로142,,35.2101448575,128.7092045510,13822,16753,Y,,,경상남도 창원시청,2019-09-24
"개나리1차(아)",공공용,경상남도 창원시 성산구 대정로149,,35.2128575358,128.7077987277,5398,6543,Y,,,경상남도 창원시청,2019-09-24
"대방동성(아)",공공용,경상남도 창원시 성산구 대암로82,,35.2148405465,128.7062413701,7984,9677,Y,,,경상남도 창원시청,2019-09-24
"대방그린빌(아)",공공용,경상남도 창원시 성산구 대암로256,,35.2055143895,128.7108643226,23874,28938,Y,,,경상남도 창원시청,2019-09-24
"대방덕산2차(아)",공공용,경상남도 창원시 성산구 대암로272,,35.2039092091,128.7086390426,7550,9151,Y,,,경상남도 창원시청,2019-09-24
"대방지하보도",공공용,경상남도 창원시 성산구 대방동대방지하보도,,35.2101910,128.7152220,270,327,Y,,,경상남도 창원시청,2019-09-24
"성원2차아파트 대피시설",공공용,경상남도 창원시 성산구 대정로 99,,35.2114241007,128.7028448192,20727,25123,Y,,,경상남도 창원시청,2019-09-24
"피오르빌아파트대피시설",공공용,경상남도 창원시 성산구 대정로 84,,35.2091985480,128.7006329419,4462,5408,Y,,,경상남도 창원시청,2019-09-24
"개나리3차아파트대피시설",공공용,경상남도 창원시 성산구 대정로 100,,35.2109685997,128.7029363301,2809,3404,Y,,,경상남도 창원시청,2019-09-24
"위드파크아파트대피시설",공공용,경상남도 창원시 성산구 가양로 99,,35.2090307167,128.7033394747,8661,10498,Y,,,경상남도 창원시청,2019-09-24
"창원자이아파트대피시설",공공용,경상남도 창원시 성산구 원이대로 883번길 23,,35.2070859192,128.6965349049,6203,7518,Y,,,경상남도 창원시청,2019-09-24
"한림풀에버아파트",공공용,경상남도 창원시 성산구 가음정로23번길 10-21,,35.2107830,128.6886267238,9298,11270,Y,,,경상남도 창원시청,2019-09-24
"청솔아파트 지하주차장",공공용,경상남도 창원시 성산구 안민로101번길 29,,35.1896815134,128.6877681180,30743,37264,Y,,,경상남도 창원시청,2019-09-24
"신우에이스타운 지하주차장",공공용,경상남도 창원시 성산구 안민안길 8,,35.1854650,128.6905047856,5190,6290,Y,,,경상남도 창원시청,2019-09-24
"푸르지오아파트 지하주차장",공공용,경상남도 창원시 성산구 외리로 34번길 13,,35.2018662885,128.7108624533,13176,15970,Y,,,경상남도 창원시청,2019-09-24
"프리빌리지아파트 지하주차장",공공용,경상남도 창원시 성산구 대암로 253,,35.2019443475,128.7122255751,21633,26221,Y,,,경상남도 창원시청,2019-09-24
"대동한솔아파트 지하주차장",공공용,경상남도 창원시 성산구 안민안길 14,,35.1861083731,128.6911620,2776,3364,Y,,,경상남도 창원시청,2019-09-24
"디에스아이존빌 2",공공용,경상남도 창원시 성산구 신촌로 90,,35.2015626211,128.6277110,2845,3448,Y,,,경상남도 창원시청,2019-09-24
"디에스아이존빌 1",공공용,경상남도 창원시 성산구 신촌로 94,,35.2009985739,128.6279170343,1312,1590,Y,,,경상남도 창원시청,2019-09-24
"신촌동원로얄듀크",공공용,경상남도 창원시 성산구 신촌로 130,,35.1993723636,128.6279460631,7064,8562,Y,,,경상남도 창원시청,2019-09-24
"혜창아파트",공공용,경상남도 창원시 마산합포구 요장1길 33,,35.1117630,128.4909020,1719,2083,Y,,,경상남도 창원시청,2019-09-24
"한일유앤아이아파트",공공용,경상남도 창원시 마사합포구 진북산업로 58,,35.2279620,128.6817070,536,649,Y,,,경상남도 창원시청,2019-09-24
"협성엠파이어아파트",공공용,경상남도 창원시 마산합포구 진북산업로 55,,35.1201810,128.4868710,856,1037,Y,,,경상남도 창원시청,2019-09-24
"건화그린맨션",공공용,경상남도 창원시 마산합포구 가포로176-45,,35.1699237454,128.5630899096,572,693,Y,,,경상남도 창원시청,2019-09-24
"중흥1차아파트",공공용,경상남도 창원시 마산합포구 현동4길 20 중흥아파트 101동,,35.1507790,128.5512590,1137,1378,Y,,,경상남도 창원시청,2019-09-24
"월영동주민센터",공공용,경상남도 창원시 마산합포구 월영남1길13,,35.1792350,128.5577310,698,846,Y,,,경상남도 창원시청,2019-09-24
"경남대학교(본관지하)",공공용,경상남도 창원시 마산합포구 경남대학로7,,35.1843203764,128.5550972416,493,597,Y,,,경상남도 창원시청,2019-09-24
"월영라이프A",공공용,경상남도 창원시 마산합포구 월영서3길95,,35.1768749935,128.5549027148,1574,1907,Y,,,경상남도 창원시청,2019-09-24
"월영화인A",공공용,경상남도 창원시 마산합포구 무학로32,,35.1758621858,128.5548878154,426,516,Y,,,경상남도 창원시청,2019-09-24
"경남맨션A",공공용,경상남도 창원시 마산합포구 문화남11길51,,35.1835051946,128.5568161571,367,444,Y,,,경상남도 창원시청,2019-09-24
"두산2차A",공공용,경상남도 창원시 마산합포구 월영동로19,,35.1784781582,128.5645006589,347,420,Y,,,경상남도 창원시청,2019-09-24
"두산3차A",공공용,경상남도 창원시 마산합포구 월영동11길42,,35.1792044001,128.5654893284,579,701,Y,,,경상남도 창원시청,2019-09-24
"한일비치A",공공용,경상남도 창원시 마산합포구 월영남로22,,35.1768690,128.5586810,810,981,Y,,,경상남도 창원시청,2019-09-24
"해운현대A",공공용,경상남도 창원시 마산합포구 월여동11길37,,32.5312900,123.7747400,750,909,Y,,,경상남도 창원시청,2019-09-24
"두산1차A",공공용,경상남도 창원시 마산합포구 월영동6길39,,35.1788930868,128.5630772257,787,953,Y,,,경상남도 창원시청,2019-09-24
"대동씨코아A",공공용,경상남도 창원시 마산합포구 월영동로8,,35.1797180,128.5624440,347,420,Y,,,경상남도 창원시청,2019-09-24
"평화골드A",공공용,경상남도 창원시 마산합포구 월영동남로16,,35.1775270,128.5663480,407,493,Y,,,경상남도 창원시청,2019-09-24
"해운동성A",공공용,경상남도 창원시 마산합포구 월영동16길17,,35.1831147544,128.5638610,681,825,Y,,,경상남도 창원시청,2019-09-24
"동아1차A",공공용,경상남도 창원시 마산합포구 월영남로59,,35.1743141862,128.5608865053,605,733,Y,,,경상남도 창원시청,2019-09-24
"월영대동A",공공용,경상남도 창원시 마산합포구 월영마을로10,,35.1753479713,128.5578723890,3197,3875,Y,,,경상남도 창원시청,2019-09-24
"월영현대A",공공용,경상남도 창원시 마산합포구 월영마을로12,,35.1743205970,128.5573083620,568,688,Y,,,경상남도 창원시청,2019-09-24
"현대산업1차A",공공용,경상남도 창원시 마산합포구 월영마을로 7,,35.1737523081,128.5580850,478,579,Y,,,경상남도 창원시청,2019-09-24
"동아2차A",공공용,경상남도 창원시 마산합포구 월영마을로29,,35.1725803676,128.5591937824,22435,27193,Y,,,경상남도 창원시청,2019-09-24
"현대산업2차A",공공용,경상남도 창원시 마산합포구 월영마을로52,,35.1712089718,128.5587505125,553,670,Y,,,경상남도 창원시청,2019-09-24
"창포동성A",공공용,경상남도 창원시 마산합포구 문화동7길 25,,35.1844260,128.5618290,7788,9440,Y,,,경상남도 창원시청,2019-09-24
"유록동대산빌라",공공용,경상남도 창원시 마산합포구 문화남1길 87,,35.1852450,128.5563144675,1032,1250,Y,,,경상남도 창원시청,2019-09-24
"한아름A",공공용,경상남도 창원시 마산합포구 고운로 68,,35.1885180,128.5580140,496,601,Y,,,경상남도 창원시청,2019-09-24
"창포한백아파트",공공용,경상남도 창원시 마산합포구 문화동15길 95,,35.1844167696,128.5627307298,817,990,Y,,,경상남도 창원시청,2019-09-24
"동성아파트",공공용,경상남도 창원시 마산합포구 무학로 214,,35.1901404494,128.5563880,39598,47997,Y,,,경상남도 창원시청,2019-09-24
"배진파크맨션",공공용,경상남도 창원시 마산합포구 문화남4길 38,,35.1855586158,128.5586390,285,345,Y,,,경상남도 창원시청,2019-09-24
"창포경남A",공공용,경상남도 창원시 마산합포구 문화동7길 36,,35.1840442892,128.5622625394,14151,17152,Y,,,경상남도 창원시청,2019-09-24
"광신A",공공용,경상남도 창원시 마산합포구 문화동14길 54,,35.1827556156,128.5612350,198,240,Y,,,경상남도 창원시청,2019-09-24
"경민A",공공용,경상남도 창원시 마산합포구 문화동14길 46,,35.1821305810,128.5613730,205,248,Y,,,경상남도 창원시청,2019-09-24
"경동메르빌A",공공용,경상남도 창원시 마산합포구 중앙동3길 22,,35.1938457950,128.5675927164,6199,7513,Y,,,경상남도 창원시청,2019-09-24
"벽산블루밍A",공공용,경상남도 창원시 마산합포구 3.15대로 154,,35.1922740,128.5663740,288,349,Y,,,경상남도 창원시청,2019-09-24
"마산합포구청",공공용,경상남도 창원시 마산합포구 3.15대로 210,,35.1969100,128.5678340,380,460,Y,,,경상남도 창원시청,2019-09-24
"검찰청(마산지청)",공공용,경상남도 창원시 마산합포구 3.15대로 210,,35.1969100,128.5678340,476,576,Y,,,경상남도 창원시청,2019-09-24
"신한토탈아파트",공공용,경상남도 창원시 마산합포구 장군천로 38,,35.1960467095,128.5660540045,124,150,Y,,,경상남도 창원시청,2019-09-24
"현대아파트(반월중앙동)",공공용,경상남도 창원시 마산합포구 중앙남8길 7,,35.1941425728,128.5655300,661,801,Y,,,경상남도 창원시청,2019-09-24
"중앙우방아파트",공공용,경상남도 창원시 마산합포구 중앙동로 10,,35.1961261443,128.5677155840,331,401,Y,,,경상남도 창원시청,2019-09-24
"반월중앙동주민센터",공공용,경상남도 창원시 마산합포구 중앙남5길 45,,35.1940600,128.5641240,1835,2224,Y,,,경상남도 창원시청,2019-09-24
"완월동주민센터",공공용,경상남도 창원시 마산합포구 완월동11길 6,,35.1995172859,128.5641620,992,1202,Y,,,경상남도 창원시청,2019-09-24
"경남맨션",공공용,경상남도 창원시 마산합포구 장장군로 3,,35.1973263059,128.5627188843,579,701,Y,,,경상남도 창원시청,2019-09-24
"완월서광A",공공용,경상남도 창원시 마산합포구 고운로 168,,35.1968540,128.5623065226,2522,3056,Y,,,경상남도 창원시청,2019-09-24
"상강A",공공용,경상남도 창원시 마산합포구 무학로 322,,35.1983050,128.5565320,823,997,Y,,,경상남도 창원시청,2019-09-24
"완월기공A",공공용,경상남도 창원시 마산합포구 완월북5길 74,,35.1995146299,128.5576490,3177,3850,Y,,,경상남도 창원시청,2019-09-24
"완월전원파크",공공용,경상남도 창원시 마산합포구 무학로 326,,35.1987090,128.5568750,198,240,Y,,,경상남도 창원시청,2019-09-24
"신월경남A",공공용,경상남도 창원시 마산합포구 완월남14길 12,,35.1937349053,128.5611086554,459,556,Y,,,경상남도 창원시청,2019-09-24
"완월화인A",공공용,경상남도 창원시 마산합포구 완월남8길 16,,35.1951709995,128.5584879810,496,601,Y,,,경상남도 창원시청,2019-09-24
"경남데파트",공공용,경상남도 창원시 마산합포구 3.15대로 255,,35.2009420,128.5671040,2975,3606,Y,,,경상남도 창원시청,2019-09-24
"팔도타워A",공공용,경상남도 창원시 마산합포구 자산삼거리로 97,,35.2068190,128.5633144530,1720,2084,Y,,,경상남도 창원시청,2019-09-24
"평화골든맨션",공공용,경상남도 창원시 마산합포구 자산삼거리로 61,,35.2061068786,128.5653160254,493,597,Y,,,경상남도 창원시청,2019-09-24
"한백4차A",공공용,경상남도 창원시 마산합포구 자산북3길 10,,35.2056310,128.5648630,1574,1907,Y,,,경상남도 창원시청,2019-09-24
"대림공작1차A",공공용,경상남도 창원시 마산합포구 자산삼거리로 90,,35.2073810,128.5647817963,427,517,Y,,,경상남도 창원시청,2019-09-24
"성은빌라",공공용,경상남도 창원시 마산합포구 자산서10길 31,,35.2046066577,128.5611440,579,701,Y,,,경상남도 창원시청,2019-09-24
"영승A",공공용,경상남도 창원시 마산합포구 자산북3길 23,,35.2056540,128.5639300,810,981,Y,,,경상남도 창원시청,2019-09-24
"한백3차A",공공용,경상남도 창원시 마산합포구 자산북4길 33,,35.2064270,128.5643040587,751,910,Y,,,경상남도 창원시청,2019-09-24
"경남A",공공용,경상남도 창원시 마산합포구 자산북4길 11,,35.2063430,128.5649127684,787,953,Y,,,경상남도 창원시청,2019-09-24
"대림공작2차A",공공용,경상남도 창원시 마산합포구 자산북4길 8,,35.2067098317,128.5658019622,407,493,Y,,,경상남도 창원시청,2019-09-24
"상진힐프라자",공공용,경상남도 창원시 마산합포구 자산서14길 95,,35.2014680,128.5588270,681,825,Y,,,경상남도 창원시청,2019-09-24
"한백푸른A",공공용,경상남도 창원시 마산합포구 문신길 66,,35.2070030,128.5664233705,605,733,Y,,,경상남도 창원시청,2019-09-24
"부림지하상가",공공용,경상남도 창원시 마산합포구 3.15대로 351,,35.2058730,128.5728930,3197,3875,Y,,,경상남도 창원시청,2019-09-24
"롯데백화점마산점",공공용,경상남도 창원시 마산합포구 동서동로 18,,35.2014778541,128.5734006295,22435,27193,Y,,,경상남도 창원시청,2019-09-24
"한백마리나타운",공공용,경상남도 창원시 마산합포구 해안도로 331,,32.5312900,123.7747400,7789,9441,Y,,,경상남도 창원시청,2019-09-24
"터전리치클 Ⅱ",공공용,경상남도 창원시 마산합포구 아구찜길 7,,35.2059110,128.5781210,1032,1250,Y,,,경상남도 창원시청,2019-09-24
"신포센트럴A",공공용,경상남도 창원시 마산합포구 서성로 23,,35.1992014584,128.5696412208,16216,19655,Y,,,경상남도 창원시청,2019-09-24
"오동동주민센터",공공용,경상남도 창원시 마산합포구 동서북4길 13,,35.2042200,128.5737091242,258,312,Y,,,경상남도 창원시청,2019-09-24
"마산아이만파크",공공용,경상남도 창원시 마산합포구 제2부두로 17,,35.1961927733,128.5734172647,39598,47997,Y,,,경상남도 창원시청,2019-09-24
"성호동주민센터",공공용,경상남도 창원시 마산합포구 몽고정길 30,,35.2074430,128.5726400,285,345,Y,,,경상남도 창원시청,2019-09-24
"정법사",공공용,경상남도 창원시 마산합포구 몽고정길 46,,35.2066250,128.5719980,2649,3210,Y,,,경상남도 창원시청,2019-09-24
"삼성생명(오동동)",공공용,경상남도 창원시 마산합포구 불종거리로 46,,35.2084150,128.5766560,926,1122,Y,,,경상남도 창원시청,2019-09-24
"상록아파트",공공용,경상남도 창원시 마산합포구 노산서18길 141,,35.2139770838,128.5624801255,14151,17152,Y,,,경상남도 창원시청,2019-09-24
"다조맨션",공공용,경상남도 창원시 마산합포구 교방동1길 64,,35.2128550,128.5661540,198,240,Y,,,경상남도 창원시청,2019-09-24
"교보빌딩",공공용,경상남도 창원시 마산합포구 3.15대로 409,,35.2113440,128.5749850,1736,2104,Y,,,경상남도 창원시청,2019-09-24
"서광A",공공용,경상남도 창원시 마산합포구 노산북6길26,,35.2140130,128.5729060,1660,2012,Y,,,경상남도 창원시청,2019-09-24
"우신A",공공용,경상남도 창원시 마산합포구 천하장사로87,,35.2114592613,128.5726224835,2158,2615,Y,,,경상남도 창원시청,2019-09-24
"합포동주민센터",공공용,경상남도 창원시 마산합포구 허당로 31,,35.2109000,128.5792220,288,349,Y,,,경상남도 창원시청,2019-09-24
"상남지하도",공공용,경상남도 창원시 마산합포구 3.15대로 419,,35.2121350,128.5753530,380,460,Y,,,경상남도 창원시청,2019-09-24
"국제A1동지하",공공용,경상남도 창원시 마산합포구 합포동5길 15,,35.2099240,128.5852340,1835,2224,Y,,,경상남도 창원시청,2019-09-24
"국제A2동지하",공공용,경상남도 창원시 마산합포구 합포동 5길 22,,35.2095210,128.5846710,992,1202,Y,,,경상남도 창원시청,2019-09-24
"진웅네스빌",공공용,경상남도 창원시 마산합포구 합포남2길 11,,35.2097390,128.5824650,2523,3058,Y,,,경상남도 창원시청,2019-09-24
"산호시장",공공용,경상남도 창원시 마산합포구 산호북14길34,,35.2183260018,128.5818780,824,998,Y,,,경상남도 창원시청,2019-09-24
"삼성타운",공공용,경상남도 창원시 마산합포구 산호북1길15,,35.2169434938,128.5838727952,3177,3850,Y,,,경상남도 창원시청,2019-09-24
"동일빌딩",공공용,경상남도 창원시 마산합포구 합포로222,,35.2170260,128.5875250078,460,557,Y,,,경상남도 창원시청,2019-09-24
"상강아파트",공공용,경상남도 창원시 마산합포구 산호남2길40,,35.2163160,128.5813250,496,601,Y,,,경상남도 창원시청,2019-09-24
"썬프라자오피스텔",공공용,경상남도 창원시 마산합포구 합포로250,,35.2194050,128.5873355120,2976,3607,Y,,,경상남도 창원시청,2019-09-24
"서광1차아파트",공공용,경상남도 창원시 마산회원구 내서읍 광려천동로 22,경상남도 창원시 마산회원구 호계리 300,35.2538604094,128.5198860640,925.62,1120,y,주차장,055-230-5034,마산회원구 내서읍주민센터,2019-09-24
"한백아파트",공공용,경상남도 창원시 마산회원구 내서읍 광려천북로 198,경상남도 창원시 마산회원구 호계리 53,35.2672744579,128.5233233698,552.07,669,y,주차장,055-230-5034,마산회원구 내서읍주민센터,2019-09-24
"화인태양맨션",공공용,경상남도 창원시 마산회원구 내서읍 광려천북로 206,경상남도 창원시 마산회원구 호계리 53-1,35.2678806722,128.5235632899,1256.2,1522,y,창고,055-230-5034,마산회원구 내서읍주민센터,2019-09-24
"세한그린파크",공공용,경상남도 창원시 마산회원구 내서읍 광려천북로 74,경상남도 창원시 마산회원구 호계리 350,35.2565835930,128.5194842287,1983.48,2403,y,주차장,055-230-5034,마산회원구 내서읍주민센터,2019-09-24
THE푸른아파트 10-12동,공공용,경상남도 창원시 마산회원구 내서읍 삼계10길 22,경상남도 창원시 마산회원구 삼계리 7,35.2349133088,128.5028096374,535.54,649,y,주차장,055-230-5034,마산회원구 내서읍주민센터,2019-09-24
THE푸른아파트 13-15동,공공용,경상남도 창원시 마산회원구 내서읍 삼계10길 22,경상남도 창원시 마산회원구 삼계리 7,35.2349133088,128.5028096374,462.81,561,y,주차장,055-230-5034,마산회원구 내서읍주민센터,2019-09-24
THE푸른아파트 1-3동,공공용,경상남도 창원시 마산회원구 내서읍 삼계10길 22,경상남도 창원시 마산회원구 삼계리 7,35.2349133088,128.5028096374,614.88,745,y,주차장,055-230-5034,마산회원구 내서읍주민센터,2019-09-24
THE푸른아파트 16-19동,공공용,경상남도 창원시 마산회원구 내서읍 삼계10길 22,경상남도 창원시 마산회원구 삼계리 7,35.2349133088,128.5028096374,588.43,712,y,주차장,055-230-5034,마산회원구 내서읍주민센터,2019-09-24
THE푸른아파트 4-6동,공공용,경상남도 창원시 마산회원구 내서읍 삼계10길 22,경상남도 창원시 마산회원구 삼계리 7,35.2349133088,128.5028096374,842.98,1021,y,주차장,055-230-5034,마산회원구 내서읍주민센터,2019-09-24
THE푸른아파트 7-9동,공공용,경상남도 창원시 마산회원구 내서읍 삼계10길 22,경상남도 창원시 마산회원구 삼계리 7,35.2349133088,128.5028096374,932.24,1129,y,주차장,055-230-5034,마산회원구 내서읍주민센터,2019-09-24
"삼계현대아파트",공공용,경상남도 창원시 마산회원구 내서읍 삼풍로 82,경상남도 창원시 마산회원구 삼계리 21,35.2340678018,128.5023854194,168.4,204,y,주차장,055-230-5034,마산회원구 내서읍주민센터,2019-09-24
"상곡리 주공1단지아파트",공공용,경상남도 창원시 마산회원구 내서읍 중리 상곡로 49,경상남도 창원시 마산회원구 상곡리 193,35.2455031319,128.5069951491,2314.06,2804,y,창고,055-230-5034,마산회원구 내서읍주민센터,2019-09-24
"상곡리 주공2단지아파트",공공용,경상남도 창원시 마산회원구 내서읍 중리 상곡로 67,경상남도 창원시 마산회원구 상곡리 192,35.1436220,128.2957720,2730.59,3310,y,창고,055-230-5034,마산회원구 내서읍주민센터,2019-09-24
"숲속마을6주공아파트 601~606동",공공용,경상남도 창원시 마산회원구 내서읍 숲속로 27,경상남도 창원시 마산회원구 삼계리 508-1,35.2298494090,128.4977778887,4000.02,4848,y,주차장,055-230-5034,마산회원구 내서읍주민센터,2019-09-24
"숲속마을6주공아파트 607~612동",공공용,경상남도 창원시 마산회원구 내서읍 숲속로 27,경상남도 창원시 마산회원구 삼계리 508-1,35.2298494090,128.4977778887,4026.46,4880,y,주차장,055-230-5034,마산회원구 내서읍주민센터,2019-09-24
"숲속마을5주공아파트 501~503동",공공용,경상남도 창원시 마산회원구 내서읍 숲속로 30,경상남도 창원시 마산회원구 삼계리 507-1,35.2289737085,128.4968786984,1305.79,1582,y,주차장,055-230-5034,마산회원구 내서읍주민센터,2019-09-24
"숲속마을5주공아파트 504~506동",공공용,경상남도 창원시 마산회원구 내서읍 숲속로 30,경상남도 창원시 마산회원구 삼계리 507-1,35.2289737085,128.4968786984,1695.88,2055,y,주차장,055-230-5034,마산회원구 내서읍주민센터,2019-09-24
"숲속마을4주공아파트",공공용,경상남도 창원시 마산회원구 내서읍 숲속로 8,경상남도 창원시 마산회원구 삼계리 506,35.2313176994,128.4965263358,1861.17,2255,y,주차장,055-230-5034,마산회원구 내서읍주민센터,2019-09-24
"스마일빌라",공공용,경상남도 창원시 마산회원구 내서읍 중리상곡로 107-28,경상남도 창원시 마산회원구 중리 996,35.2504241026,128.5095823903,330.58,401,y,주차장,055-230-5034,마산회원구 내서읍주민센터,2019-09-24
"동신1차아파트",공공용,경상남도 창원시 마산회원구 내서읍 중리상곡로 114,경상남도 창원시 마산회원구 중리 1038,35.2501562005,128.5105398476,8694.25,10538,y,주차장,055-230-5034,마산회원구 내서읍주민센터,2019-09-24
"동신2차아파트",공공용,경상남도 창원시 마산회원구 내서읍 중리상곡로 134,경상남도 창원시 마산회원구 중리 1036,35.2515523543,128.5116116921,9917.4,12020,y,주차장,055-230-5034,마산회원구 내서읍주민센터,2019-09-24
"그린모텔 지하주차장",공공용,경상남도 창원시 마산회원구 내서읍 중리상곡로 84,경상남도 창원시 마산회원구 내서읍 중리 1045-2,35.2481260508,128.5091398814,231.41,280,y,주차장,055-230-5034,마산회원구 내서읍주민센터,2019-09-24
"한주아파트",공공용,경상남도 창원시 마산회원구 내서읍 함마대로 2821,경상남도 창원시 마산회원구 중리 470-11,35.2483461660,128.5206400565,1652.9,2003,y,주차장,055-230-5034,마산회원구 내서읍주민센터,2019-09-24
"국제한마음타운",공공용,경상남도 창원시 마산회원구 내서읍 호계본동로 38,경상남도 창원시 마산회원구 호계리 790-23,35.2638457871,128.5213471995,2975.22,3606,y,주차장,055-230-5034,마산회원구 내서읍주민센터,2019-09-24
"서광2차아파트",공공용,경상남도 창원시 마산회원구 내서읍 호계안길 91,경상남도 창원시 마산회원구 호계리 348,35.2577323975,128.5201517450,2314.06,2804,y,주차장,055-230-5034,마산회원구 내서읍주민센터,2019-09-24
"현대아파트",공공용,경상남도 창원시 마산회원구 내서읍 호원로 186-1,경상남도 창원시 마산회원구 중리 338-1,35.2510822703,128.5226511847,6611.6,8013,y,창고,055-230-5034,마산회원구 내서읍주민센터,2019-09-24
"신우타워",공공용,경상남도 창원시 마산회원구 내서읍 호원로 371,경상남도 창원시 마산회원구 호계리 9,35.2662878046,128.5263817441,661.16,801,y,주차장,055-230-5034,마산회원구 내서읍주민센터,2019-09-24
"코오롱하늘채 1차아파트 지하주차장",공공용,경상남도 창원시 마산회원구 호원로 361-3,경상남도 창원시 마산회원구 내서읍 호계리 10,35.2669496192,128.5254686994,34351,41638,y,주차장,055-230-5034,마산회원구 내서읍주민센터,2019-09-24
"코오롱하늘채 2차아파트 지하주차장",공공용,경상남도 창원시 마산회원구 호원로 359,경상남도 창원시 마산회원구 내서읍 호계리 80,35.2636633576,128.5231491922,37948,45998,y,주차장,055-230-5034,마산회원구 내서읍주민센터,2019-09-24
"삼계대동이미지1차아파트(101~115동)",공공용,경상남도 창원시 마산회원구 광려로 28,경상남도 창원시 마산회원구 내서읍 삼계리260,35.2238212443,128.5034585583,18610,22558,y,주차장,055-230-5034,마산회원구 내서읍주민센터,2019-09-24
"삼계대동이미지2차아파트(201~208동)",공공용,경상남도 창원시 마산회원구 호원로 29,경상남도 창원시 마산회원구 내서읍 삼계리 290,35.2229708814,128.5016746557,9893,11992,y,주차장,055-230-5034,마산회원구 내서읍주민센터,2019-09-24
"버스회관",공공용,경상남도 창원시 마산회원구 3.15대로 482,경상남도 창원시 마산회원구 회원동 68-45,35.2173564429,128.5756770303,327.37,396,y,주차장,055-230-5225,마산회원구 회원1동주민센터,2019-09-24
"삼성빌딩",공공용,경상남도 창원시 마산회원구 3.15대로 529,경상남도 창원시 마산회원구 회원동 33-36,35.2213473706,128.5734451231,183.91,220,y,주차장,055-230-5225,마산회원구 회원1동주민센터,2019-09-24
"키즈클럽",공공용,경상남도 창원시 마산회원구 3.15대로 537,경상남도 창원시 마산회원구 회원동 27-9,35.2219317482,128.5731450770,563.84,683,y,주차장,055-230-5225,마산회원구 회원1동주민센터,2019-09-24
"천지리치빌",공공용,경상남도 창원시 마산회원구 북성로 138,경상남도 창원시 마산회원구 회원동 50-5,35.2194071963,128.5710318233,5700.27,6909,y,주차장,055-230-5225,마산회원구 회원1동주민센터,2019-09-24
"삼성메르빌아파트",공공용,경상남도 창원시 마산회원구 회원남1길 49,경상남도 창원시 마산회원구 회원동 403-3,35.2185382956,128.5702067852,3150.91,3819,y,주차장,055-230-5225,마산회원구 회원1동주민센터,2019-09-24
"회원1동주민센터",공공용,경상남도 창원시 마산회원구 회원동11길 7,경상남도 창원시 마산회원구 회원동 62-4,35.2183798038,128.5740826404,361.8,438,y,주차장,055-230-5225,마산회원구 회원1동주민센터,2019-09-24
"회원동 지하도",공공용,경상남도 창원시 마산회원구 3.15대로 536,경상남도 창원시 마산회원구 회원동 34-7,35.2220160980,128.5739725386,218.18,264,y,지하도,055-230-5225,마산회원구 회원1동주민센터,2019-09-24
"한효아파트 1동",공공용,경상남도 창원시 마산회원구 회원동3길 38,경상남도 창원시 마산회원구 회원동 415,35.2173869032,128.5717045220,909.1,1102,y,주차장,055-230-5225,마산회원구 회원1동주민센터,2019-09-24
"한효아파트 3동",공공용,경상남도 창원시 마산회원구 회원동3길 38,경상남도 창원시 마산회원구 회원동 415,35.2173869032,128.5717045220,915.71,1110,y,주차장,055-230-5225,마산회원구 회원1동주민센터,2019-09-24
"영빈빌딩",공공용,경상남도 창원시 마산회원구 회원동북로 18,경상남도 창원시 마산회원구 회원동 35-54,35.2212519555,128.5755438781,228.1,276,y,주차장,055-230-5225,마산회원구 회원1동주민센터,2019-09-24
"신우투시스빌",공공용,경상남도 창원시 마산회원구북성로 188,경상남도 창원시 마산회원구 회원동 21-4,35.2238899525,128.5714477240,1979.08,2397,y,주차장,055-230-5225,마산회원구 회원1동주민센터,2019-09-24
"한효아파트 2동",공공용,경상남도 창원시 마산회원구회원동3길 38,경상남도 창원시 마산회원구 회원동 415,35.2173869032,128.5717045220,909.1,1102,y,주차장,055-230-5225,마산회원구 회원1동주민센터,2019-09-24
"마산요양병원",공공용,경상남도 창원시 마산회원구 무학로 619,경상남도 창원시 마산회원구 회원동 634-1,35.2217349290,128.5644343871,198.35,240,y,보일러실,055-230-5276,마산회원구 회원2동주민센터,2019-09-24
"형제상가빌라",공공용,경상남도 창원시 마산회원구 회원남25길 46,경상남도 창원시 마산회원구 회원동 674-2,35.2169562819,128.5646527448,231.41,280,y,주차장,055-230-5276,마산회원구 회원2동주민센터,2019-09-24
"대림파크맨션2동",공공용,경상남도 창원시 마산회원구 회원남로 78,경상남도 창원시 마산회원구 회원동 355-13,35.2187060280,128.5692260082,244.63,296,y,창고,055-230-5276,마산회원구 회원2동주민센터,2019-09-24
"대림파크맨션3동",공공용,경상남도 창원시 마산회원구 회원남로 78,경상남도 창원시 마산회원구 회원동 355-13,35.2187060280,128.5692260082,247.94,300,y,창고,055-230-5276,마산회원구 회원2동주민센터,2019-09-24
"대림파크맨션5동",공공용,경상남도 창원시 마산회원구 회원남로 78,경상남도 창원시 마산회원구 회원동 355-13,35.2187060280,128.5692260082,409.92,495,y,창고,055-230-5276,마산회원구 회원2동주민센터,2019-09-24
"회원주공아파트",공공용,경상남도 창원시 마산회원구 회원서11길 21,경상남도 창원시 마산회원구 회원동 648-1,35.2169459439,128.5592512117,723.97,877,y,주차장,055-230-5276,마산회원구 회원2동주민센터,2019-09-24
"대림파크맨션1동",공공용,경상남도 창원시 마산회원구회원남로 78,경상남도 창원시 마산회원구 회원동 355-13,35.2187060280,128.5692260082,231.41,280,y,창고,055-230-5276,마산회원구 회원2동주민센터,2019-09-24
