"민방위대피시설명",민방위대피시설구분,소재지도로명주소,소재지지번주소,위도,경도,민방위대피시설면적,대피가능인원수,개방여부,평시활용유형,관리기관전화번호,관리기관명,데이터기준일자
"충대병원",공공용,"대전광역시 중구 문화로 282 (대사동, 충남대학교병원)",대전광역시 중구 대사동 640,36.3168435594,127.4153038895,1946,2359,Y,지하,042-606-7462,대전광역시 중구청,2020-09-17
"남대전성결교회",공공용,대전광역시 중구 문창로 30 (문창동),대전광역시 중구 문창동 107-11,36.3167459736,127.4354094935,495.87,601,Y,지하,042-606-7462,대전광역시 중구청,2020-09-17
"서문교회",공공용,대전광역시 중구 산성로138번길 8 (문화동),대전광역시 중구 문화동 388-3,36.3112614659,127.4024483586,303.6,368,Y,지하,042-606-7462,대전광역시 중구청,2020-09-17
"은혜아파트",공공용,대전광역시 중구 대종로334번길 40 (문창동),대전광역시 중구 문창동 123-23,36.3161853706,127.4359385,274.38,333,Y,지하주차장,042-606-7462,대전광역시 중구청,2020-09-17
"유진하나@",공공용,"대전광역시 중구 태평로44번길 53 (유천동, 유진하나아파트)",대전광역시 중구 유천동 319-1,36.3216469587,127.3954183093,2181.83,2645,Y,지하,042-606-7462,대전광역시 중구청,2020-09-17
"대전하나병원",공공용,대전광역시 중구 계룡로 934 (대사동),대전광역시 중구 대사동 248-357,36.3193434,127.4157752,255.68,310,Y,지하,042-606-7462,대전광역시 중구청,2020-09-17
"삼부아파트 4단지",공공용,"대전광역시 중구 태평로 55 (태평동, 삼부아파트4단지)",대전광역시 중구 태평동 393,36.3225283958,127.3932620810,7790.1,9443,Y,지하,042-606-7462,대전광역시 중구청,2020-09-17
"산성동 우성아파트",공공용,"대전광역시 중구 당디로 45 (산성동, 우성아파트)",대전광역시 중구 산성동 37-1,36.3085360657,127.3926533464,8218,9961,Y,지하,042-606-7462,대전광역시 중구청,2020-09-17
"중앙로 지하상가",공공용,대전광역시 중구 중앙로 지하 145(은행동),대전광역시 중구 은행동 216,36.3279601440,127.4249656561,12322,14936,Y,지하상가,042-606-7462,대전광역시 중구청,2020-09-17
"중도빌딩(쇼핑)",공공용,"대전광역시 중구 목중로26번길 45 (중촌동, 중도상가(지하주차장))",대전광역시 중구 중촌동 12-2,36.337722,127.4126985528,791,959,Y,지하주차장,042-606-7462,대전광역시 중구청,2020-09-17
"유천2동 현대아파트 1차",공공용,"대전광역시 중구 계백로1615번길 34 (유천동, 현대아파트)",대전광역시 중구 유천동 10,36.3204047010,127.3999906333,7915.36,9594,Y,지하,042-606-7462,대전광역시 중구청,2020-09-17
"산성동 한밭가든아파트",공공용,"대전광역시 중구 유등천동로 280 (산성동, 한밭가든아파트(101동~107동 전동지하))",대전광역시 중구 산성동 78-4,36.3075303,127.3849778,5615,6806,Y,지하,042-606-7462,대전광역시 중구청,2020-09-17
"중구 민방위대피소",공공용,"대전광역시 중구 문화로46번길 50 (산성동, 민방위교육장)",대전광역시 중구 산성동 36-2,36.30850149,127.3912687,1345.46,1631,Y,교육장,042-606-7462,대전광역시 중구청,2020-09-17
"센트리아오피스텔",공공용,"대전광역시 중구 계백로 1719 (오류동, 센트리아오피스텔)",대전광역시 중구 오류동 154-4,36.3222482762,127.410475,7001.68,8487,Y,지하주차장,042-606-7462,대전광역시 중구청,2020-09-17
"호암웨딩홀",공공용,대전광역시 중구 태평로 143 (태평동),대전광역시 중구 태평동 365-4,36.3293763,127.3962318,843.5,1022,Y,지하주차장,042-606-7462,대전광역시 중구청,2020-09-17
"삼부아파트 5단지",공공용,"대전광역시 중구 태평로 89 (태평동, 삼부아파트5단지)",대전광역시 중구 태평동 408-1,36.3250721546,127.3935073,3646.3,4420,Y,지하주차장,042-606-7462,대전광역시 중구청,2020-09-17
"선병원",공공용,"대전광역시 중구 목중로 29 (목동, 선병원)",대전광역시 중구 목동 10-7,36.3359392589,127.4104197376,6611.6,8014,Y,지하주차장,042-606-7462,대전광역시 중구청,2020-09-17
"현대@ 2차",공공용,"대전광역시 중구 계백로1615번길 34 (유천동, 현대아파트)",대전광역시 중구 유천동 10,36.3204047010,127.3999906333,4876.06,5910,Y,지하주차장,042-606-7462,대전광역시 중구청,2020-09-17
SK텔레콤,공공용,대전광역시 중구 보문로 82 (부사동),대전광역시 중구 부사동 137-5,36.313666,127.4319703,2517,3051,Y,지하주차장,042-606-7462,대전광역시 중구청,2020-09-17
"사학연금회관",공공용,"대전광역시 중구 계룡로 786 (오류동, 사학연금회관)",대전광역시 중구 오류동 188-15,36.3288626,127.4041372,7600.03,9212,Y,지하주차장,042-606-7462,대전광역시 중구청,2020-09-17
"벽산프라자",공공용,"대전광역시 중구 계백로 1619 (유천동, 벽산프라자)",대전광역시 중구 유천동 187-9,36.3192543,127.3997912,4343.82,5265,Y,지하주차장,042-606-7462,대전광역시 중구청,2020-09-17
"벽산빌딩",공공용,"대전광역시 중구 계백로 1625 (유천동, 벽산빌딩)",대전광역시 중구 유천동 187-16,36.3194148363,127.4003504,4218.2,5113,Y,지하주차장,042-606-7462,대전광역시 중구청,2020-09-17
"삼성푸른아파트(102동 앞 지하주차장)",공공용,"대전광역시 중구 보문산로161번길 56 (문화동, 삼성푸른아파트(102,108동앞 지하주차장))",대전광역시 중구 문화동 777,36.3076728852,127.3982473294,7203,8731,Y,지하주차장,042-606-7462,대전광역시 중구청,2020-09-17
"라이프포럼(삼성물산)",공공용,대전광역시 중구 계룡로 858 (오류동),대전광역시 중구 오류동 175-8,36.3242429,127.4097979,3975,4818,Y,지하주차장,042-606-7462,대전광역시 중구청,2020-09-17
"을지의과대학",공공용,"대전광역시 중구 계룡로771번길 90 (목동, 을지의과대학(을지관 지하주차장))",대전광역시 중구 목동 24-36,36.3327427,127.4064605185,1652.9,2004,Y,지하주차장,042-606-7462,대전광역시 중구청,2020-09-17
"중앙로역",공공용,대전광역시 중구 중앙로 지하 145,대전광역시 중구 은행동 216,36.3279601440,127.4249656561,7589,9199,Y,지하철역사,042-606-7462,대전광역시 중구청,2020-09-17
"하나은행",공공용,대전광역시 중구 계룡로 820 (오류동),대전광역시 중구 오류동 176-1,36.3265117,127.4069518,6350.44,7698,Y,지하주차장,042-606-7462,대전광역시 중구청,2020-09-17
"한신휴플러스보르미아파트",공공용,"대전광역시 중구 계백로1686번길 16 (문화동, 한신휴플러스보르미아파트)",대전광역시 중구 문화동 311-3,36.3196950463,127.4068991076,4736.7,5741,Y,지하주차장,042-606-7462,대전광역시 중구청,2020-09-17
"대흥동 참좋은아파트",공공용,"대전광역시 중구 대종로 425 (대흥동, 동건참좋은아파트)",대전광역시 중구 대흥동 402-1,36.3229639782,127.4288196,8173,9907,Y,지하주차장,042-606-7462,대전광역시 중구청,2020-09-17
"대흥동 듀오빌아파트",공공용,"대전광역시 중구 보문로230번길 32 (대흥동, 듀오빌아파트)",대전광역시 중구 대흥동 447-2,36.3235209,127.4247441,1519,1841,Y,지하주차장,042-606-7462,대전광역시 중구청,2020-09-17
"탑스빌아파트",공공용,"대전광역시 중구 대흥로 115 (대흥동, 대흥탑스빌)",대전광역시 중구 대흥동 447-4,36.3235078,127.425026,535.54,649,Y,지하주차장,042-606-7462,대전광역시 중구청,2020-09-17
"중구청역",공공용,"대전광역시 중구 중앙로 지하 71 (선화동, 연교빌딩)",대전광역시 중구 선화동 383,36.32478189,127.4195259,9749,11817,Y,지하철역사,042-606-7462,대전광역시 중구청,2020-09-17
"푸른뫼아파트(101동)",공공용,"대전광역시 중구 수침로 122 (태평동, 푸른뫼아파트)",대전광역시 중구 태평동 254-4,36.3303462199,127.3994378,2866.95,3475,Y,지하주차장,042-606-7462,대전광역시 중구청,2020-09-17
"유등마을아파트(101동)",공공용,"대전광역시 중구 수침로 138 (태평동, 유등마을아파트)",대전광역시 중구 태평동 253-1,36.3323285440,127.3981832169,4229.4,5127,Y,지하주차장,042-606-7462,대전광역시 중구청,2020-09-17
"태평아파트(101동)",공공용,"대전광역시 중구 평촌로 111 (태평동, 태평아파트)",대전광역시 중구 태평동 317,36.3231402351,127.3986939611,5213.6,6320,Y,지하주차장,042-606-7462,대전광역시 중구청,2020-09-17
"루이스호텔",공공용,대전광역시 중구 대종로386번길 53 (문창동),대전광역시 중구 문창동 44-4,36.3209078988,127.4335706,333.66,404,Y,지하주차장,042-606-7462,대전광역시 중구청,2020-09-17
"대흥동 현대아파트 1차",공공용,"대전광역시 중구 대흥로 176-15 (대흥동, 현대아파트)",대전광역시 중구 대흥동 22-9,36.3244604646,127.4321176496,2584,3132,Y,지하,042-606-7462,대전광역시 중구청,2020-09-17
"대흥동 현대아파트 2차",공공용,대전광역시 중구 보문로162번길 23 (대흥동),대전광역시 중구 대흥동 106-48,36.3185872592,127.4260057457,1143,1385,Y,지하주차장,042-606-7462,대전광역시 중구청,2020-09-17
"미르마을아파트(104동)",공공용,"대전광역시 중구 선화로22번길 25 (용두동, 미르마을아파트)",대전광역시 중구 용두동 39,36.3240710334,127.4144921794,4229.81,5127,Y,지하주차장,042-606-7462,대전광역시 중구청,2020-09-17
"오룡역",공공용,"대전광역시 중구 계룡로 지하 793 (오류동, 오룡역)",대전광역시 중구 오류동 195,36.3286514378,127.4049255975,7542,9142,Y,지하철역사,042-606-7462,대전광역시 중구청,2020-09-17
"문화마을금호어울림아파트",공공용,"대전광역시 중구 계백로1716번길 40 (문화동, 문화마을금호어울림아파트)",대전광역시 중구 문화동 1-43,36.3195687799,127.4102771004,6299,7635,Y,지하주차장,042-606-7462,대전광역시 중구청,2020-09-17
"센트럴파크아파트 2단지",공공용,"대전광역시 중구 서문로 96 (문화동, 센트럴파크2단지아파트(전동 지하주차장))",대전광역시 중구 문화동 1-253,36.3170140117,127.4101505741,8726,10577,Y,지하주차장,042-606-7462,대전광역시 중구청,2020-09-17
"쌍용예가아파트",공공용,"대전광역시 중구 평촌로 93 (태평동, 쌍용예가아파트)",대전광역시 중구 태평동 554,36.3230510561,127.3980066103,22000,26667,Y,지하주차장,042-606-7462,대전광역시 중구청,2020-09-17
"목양마을아파트(102동)",공공용,"대전광역시 중구 목동로 37 (목동, 목양마을아파트)",대전광역시 중구 목동 24,36.3340562653,127.4071484256,3933,4767,Y,지하주차장,042-606-7462,대전광역시 중구청,2020-09-17
"금호한사랑아파트",공공용,"대전광역시 중구 동서대로 1388 (목동, 금호한사랑아파트)",대전광역시 중구 목동 111-12,36.3320690359,127.4116340544,4253.6,5156,Y,지하주차장,042-606-7462,대전광역시 중구청,2020-09-17
"남대전종합시장",공공용,"대전광역시 중구 대종로316번길 19 (부사동, 남대전종합시장아이비)",대전광역시 중구 부사동 101-1,36.3145470224,127.4351171,3645.92,4419,Y,지하주차장,042-606-7462,대전광역시 중구청,2020-09-17
"창조아파트",공공용,"대전광역시 중구 부용로 15 (부사동, 창조아파트)",대전광역시 중구 부사동 298-11,36.3123087,127.4318806618,656.8,796,Y,지하주차장,042-606-7462,대전광역시 중구청,2020-09-17
"대사동 대자연마을아파트",공공용,"대전광역시 중구 보문산로 375 (대사동, 대자연아파트)",대전광역시 중구 대사동 640-7,36.3154399591,127.4169905787,3807.5,4615,Y,지하주차장,042-606-7462,대전광역시 중구청,2020-09-17
"우남스타원 아파트",공공용,"대전광역시 중구 안영로 68 (사정동, 성산마을우남스타원아파트(104,108동 앞 지하주차장))",대전광역시 중구 사정동 487,36.2946147911,127.3824202318,25832,31312,Y,지하주차장,042-606-7462,대전광역시 중구청,2020-09-17
"에플릿타워(삼진토건(주))",공공용,대전광역시 중구 계백로 1580 (유천동),대전광역시 중구 유천동 305-13,36.317668,127.3956561,338.2,410,Y,지하주차장,042-606-7462,대전광역시 중구청,2020-09-17
"큰솔아파트(대유주택(주))",공공용,대전광역시 중구 대둔산로 503 (유천동),대전광역시 중구 유천동 341-31,36.3138603314,127.3891574,5245,6358,Y,지하주차장,042-606-7462,대전광역시 중구청,2020-09-17
"유등탑스빌아파트",공공용,"대전광역시 중구 유천로33번길 106 (유천동, 유등탑스빌)",대전광역시 중구 유천동 331-10,36.3144033521,127.3927341,1982.7,2403,Y,지하주차장,042-606-7462,대전광역시 중구청,2020-09-17
"한밭우성아파트",공공용,"대전광역시 중구 서문로 32 (문화동, 한밭우성아파트)",대전광역시 중구 문화동 141,36.3113455,127.4101495056,10213.8,12380,Y,지하,042-606-7462,대전광역시 중구청,2020-09-17
"산성 경성공원아파트",공공용,대전광역시 중구 보문산로141번길 11 (산성동),대전광역시 중구 산성동 330-3,36.3058368,127.3956541462,5024,6090,Y,지하주차장,042-606-7462,대전광역시 중구청,2020-09-17
"대전광역시도시철도공사(서대전네거리역)",공공용,"대전광역시 중구 계룡로 지하 889(용두동, 서대전네거리역)",대전광역시 중구 용두동 155,36.32244513,127.4125376,10970,13297,Y,지하철역사,042-606-7462,대전광역시 중구청,2020-09-17
"한밭종합운동장(보조경기장 주차장)",공공용,"대전광역시 중구 대종로 373 (부사동, 충무체육관)",대전광역시 중구 부사동 209-1,36.3173370007,127.4280138234,13385,16224,Y,지하주차장,042-606-7462,대전광역시 중구청,2020-09-17
"더샵아파트",공공용,"대전광역시 중구 목동로22번길 16 (목동, 목동더샵)",대전광역시 중구 목동 360,36.3330580092,127.4091606345,24610.5,29831,Y,지하주차장,042-606-7462,대전광역시 중구청,2020-09-17
"평제빌딩",공공용,"대전광역시 중구 대종로 626 (중촌동, 평제빌딩)",대전광역시 중구 중촌동 391-8,36.3371325238,127.4158371699,253,307,Y,지하주차장,042-606-7462,대전광역시 중구청,2020-09-17
"금호아파트",공공용,"대전광역시 중구 대종로 713 (중촌동, 금호아파트)",대전광역시 중구 중촌동 10-2,36.3410075578,127.4068629102,4442,5384,Y,지하,042-606-7462,대전광역시 중구청,2020-09-17
"중촌동 현대아파트",공공용,"대전광역시 중구 목중로26번길 29 (중촌동, 현대아파트)",대전광역시 중구 중촌동 16-1,36.3386122601,127.4109112755,5933,7192,Y,지하,042-606-7462,대전광역시 중구청,2020-09-17
"주공아파트 2단지",공공용,"대전광역시 중구 대전천서로 695 (중촌동, 주공아파트2단지)",대전광역시 중구 중촌동 128-1,36.3448668151,127.410512,2677,3245,Y,지하,042-606-7462,대전광역시 중구청,2020-09-17
"주공아파트 3단지",공공용,"대전광역시 중구 목중로 69 (중촌동, 주공아파트3단지)",대전광역시 중구 중촌동 283,36.3385109638,127.4064323370,16848,20422,Y,지하주차장,042-606-7462,대전광역시 중구청,2020-09-17
"대석침례교회(구관)",공공용,대전광역시 중구 대종로 175 (석교동),대전광역시 중구 석교동 88-1,36.3066696,127.4471535,244.9,297,Y,지하,042-606-7462,대전광역시 중구청,2020-09-17
"대석침례교회 신관",공공용,대전광역시 중구 대종로 175 (석교동),대전광역시 중구 석교동 88-1,36.3066696,127.4471535,172.2,209,Y,지하,042-606-7462,대전광역시 중구청,2020-09-17
"조마루감자탕",공공용,대전광역시 중구 대종로 159 (호동),대전광역시 중구 호동 11-2,36.3057711,127.4481353,555.1,673,Y,지하주차장,042-606-7462,대전광역시 중구청,2020-09-17
"충일성결교회",공공용,대전광역시 중구 대종로 76 (옥계동),대전광역시 중구 옥계동 42-10,36.2999238,127.4540749857,453,549,Y,지하,042-606-7462,대전광역시 중구청,2020-09-17
"선화동 센트럴뷰아파트",공공용,"대전광역시 중구 중앙로 45 (선화동, 센트럴뷰아파트)",대전광역시 중구 선화동 877,36.3238733665,127.4163960422,22141.57,26838,Y,지하주차장,042-606-7462,대전광역시 중구청,2020-09-17
"대전극동아파트(102동 지하주차장)",공공용,"대전광역시 중구 송리로 6 (문화동, 극동아파트(102동 지하주차장))",대전광역시 중구 문화동 584-4,36.3060764027,127.4024040108,3478.85,4217,Y,지하주차장,042-606-7462,대전광역시 중구청,2020-09-17
"목양마을아파트(104동)",공공용,"대전광역시 중구 목동로 37 (목동, 목양마을아파트)",대전광역시 중구 목동 24,36.3340562653,127.4071484256,16483,19979,Y,지하주차장,042-606-7462,대전광역시 중구청,2020-09-17
"목양마을아파트(106동)",공공용,"대전광역시 중구 목동로 37 (목동, 목양마을아파트)",대전광역시 중구 목동 24,36.3340562653,127.4071484256,15375,18636,Y,지하주차장,042-606-7462,대전광역시 중구청,2020-09-17
"목양마을아파트(114동)",공공용,"대전광역시 중구 목동로 37 (목동, 목양마을아파트)",대전광역시 중구 목동 24,36.3340562653,127.4071484256,2924,3544,Y,지하주차장,042-606-7462,대전광역시 중구청,2020-09-17
"목양마을아파트(116동)",공공용,"대전광역시 중구 목동로 37 (목동, 목양마을아파트)",대전광역시 중구 목동 24,36.3340562653,127.4071484256,2502,3033,Y,지하주차장,042-606-7462,대전광역시 중구청,2020-09-17
"미르마을아파트(109동)",공공용,"대전광역시 중구 선화로22번길 25 (용두동, 미르마을아파트)",대전광역시 중구 용두동 39,36.3240710334,127.4144921794,666.6,808,Y,지하주차장,042-606-7462,대전광역시 중구청,2020-09-17
"미르마을아파트(111동)",공공용,"대전광역시 중구 선화로22번길 25 (용두동, 미르마을아파트)",대전광역시 중구 용두동 39,36.3240710334,127.4144921794,1590.54,1928,Y,지하주차장,042-606-7462,대전광역시 중구청,2020-09-17
"푸른뫼아파트(103동)",공공용,"대전광역시 중구 수침로 122 (태평동, 푸른뫼아파트)",대전광역시 중구 태평동 254-4,36.3303462199,127.3994378,2866.95,3475,Y,지하주차장,042-606-7462,대전광역시 중구청,2020-09-17
"푸른뫼아파트(105동)",공공용,"대전광역시 중구 수침로 122 (태평동, 푸른뫼아파트)",대전광역시 중구 태평동 254-4,36.3303462199,127.3994378,3184.27,3860,Y,지하주차장,042-606-7462,대전광역시 중구청,2020-09-17
"푸른뫼아파트(107동)",공공용,"대전광역시 중구 수침로 122 (태평동, 푸른뫼아파트)",대전광역시 중구 태평동 254-4,36.3303462199,127.3994378,3285.16,3982,Y,지하주차장,042-606-7462,대전광역시 중구청,2020-09-17
"유등마을아파트(104동)",공공용,"대전광역시 중구 수침로 138 (태평동, 유등마을아파트)",대전광역시 중구 태평동 253-1,36.3323285440,127.3981832169,5426.4,6577,Y,지하주차장,042-606-7462,대전광역시 중구청,2020-09-17
"유등마을아파트(106동)",공공용,"대전광역시 중구 수침로 138 (태평동, 유등마을아파트)",대전광역시 중구 태평동 253-1,36.3323285440,127.3981832169,4229.4,5127,Y,지하주차장,042-606-7462,대전광역시 중구청,2020-09-17
"유등마을아파트(108동)",공공용,"대전광역시 중구 수침로 138 (태평동, 유등마을아파트)",대전광역시 중구 태평동 253-1,36.3323285440,127.3981832169,3830.4,4643,Y,지하주차장,042-606-7462,대전광역시 중구청,2020-09-17
"유등마을아파트(110동)",공공용,"대전광역시 중구 수침로 138 (태평동, 유등마을아파트)",대전광역시 중구 태평동 253-1,36.3323285440,127.3981832169,1252.8,1519,Y,지하주차장,042-606-7462,대전광역시 중구청,2020-09-17
"유등마을아파트(111동)",공공용,"대전광역시 중구 수침로 138 (태평동, 유등마을아파트)",대전광역시 중구 태평동 253-1,36.3323285440,127.3981832169,2114.7,2563,Y,지하주차장,042-606-7462,대전광역시 중구청,2020-09-17
"유등마을아파트(112동)",공공용,"대전광역시 중구 수침로 138 (태평동, 유등마을아파트)",대전광역시 중구 태평동 253-1,36.3323285440,127.3981832169,2114.7,2563,Y,지하주차장,042-606-7462,대전광역시 중구청,2020-09-17
"태평아파트(103동)",공공용,"대전광역시 중구 평촌로 111 (태평동, 태평아파트)",대전광역시 중구 태평동 317,36.3231402351,127.3986939611,3630.24,4400,Y,지하주차장,042-606-7462,대전광역시 중구청,2020-09-17
"태평아파트(104동)",공공용,"대전광역시 중구 평촌로 111 (태평동, 태평아파트)",대전광역시 중구 태평동 317,36.3231402351,127.3986939611,6881,8341,Y,지하주차장,042-606-7462,대전광역시 중구청,2020-09-17
"태평아파트(106동)",공공용,"대전광역시 중구 평촌로 111 (태평동, 태평아파트)",대전광역시 중구 태평동 317,36.3231402351,127.3986939611,2408.5,2919,Y,지하주차장,042-606-7462,대전광역시 중구청,2020-09-17
"태평아파트(107동)",공공용,"대전광역시 중구 평촌로 111 (태평동, 태평아파트)",대전광역시 중구 태평동 317,36.3231402351,127.3986939611,6328,7670,Y,지하주차장,042-606-7462,대전광역시 중구청,2020-09-17
"태평아파트(109동)",공공용,"대전광역시 중구 평촌로 111 (태평동, 태평아파트)",대전광역시 중구 태평동 317,36.3231402351,127.3986939611,5026.51,6093,Y,지하주차장,042-606-7462,대전광역시 중구청,2020-09-17
"센트럴파크1단지아파트",공공용,"대전광역시 중구 서문로 95, 102동 (문화동, 센트럴파크1단지아파트)",대전광역시 중구 문화동 284-168,36.3165526257,127.4070872233,5699.54,6909,Y,지하주차장,042-606-7462,대전광역시 중구청,2020-09-17
"극동(늘푸른)아파트 103동",공공용,"대전광역시 중구 동서대로 1347 (용두동, 늘푸른아파트)",대전광역시 중구 용두동 99-4,36.3299250325,127.4082221847,1098.31,1331,Y,지하주차장,042-606-7462,대전광역시 중구청,2020-09-17
