"민방위대피시설명",민방위대피시설구분,소재지도로명주소,소재지지번주소,위도,경도,민방위대피시설면적,대피가능인원수,개방여부,평시활용유형,관리기관전화번호,관리기관명,데이터기준일자
"롯데백화점",공공용,서울특별시 중구 남대문로 81,,37.564729,126.9817316,63954,77520,Y,,,서울특별시 중구청,2021-06-01
"한국은행앞지하보도",공공용,서울특별시 중구 남대문로 39,,37.56251583,126.9797219,356,431,Y,,,서울특별시 중구청,2021-06-01
"남대문앞지하보도",공공용,서울특별시 중구 세종대로 50,,37.56092582,126.9762483787,442,535,Y,,,서울특별시 중구청,2021-06-01
"부영빌딩",공공용,서울특별시 중구 세종대로9길 42,,37.56165692,126.9738321,2821,3419,Y,,,서울특별시 중구청,2021-06-01
"남대문로지하쇼핑센터",공공용,서울특별시 중구 남대문로 지하14,,37.56101264,126.977916,3059,3707,Y,,,서울특별시 중구청,2021-06-01
"프라자호텔",공공용,서울특별시 중구 소공로 119,,37.56466351,126.9780915,13993,16961,Y,,,서울특별시 중구청,2021-06-01
"소공지하도상가",공공용,서울특별시 중구 소공로 116,,37.56485828,126.9789516,2310,2800,Y,,,서울특별시 중구청,2021-06-01
2호선시청역지하철승강장,공공용,서울특별시 중구 서소문로 지하127,,37.56357818,126.9753889,8322,10087,Y,,,서울특별시 중구청,2021-06-01
"삼성본관",공공용,서울특별시 중구 세종대로 67,,37.56238169,126.9755613,8655,10490,Y,,,서울특별시 중구청,2021-06-01
"대한상공회의소",공공용,서울특별시 중구 세종대로 39,,37.56071266,126.9737736,5029,6095,Y,,,서울특별시 중구청,2021-06-01
"소공지하쇼핑센터",공공용,서울특별시 중구 소공로 지하102,,37.56404395,126.9799388,5655,6854,Y,,,서울특별시 중구청,2021-06-01
"경향아트힐",공공용,서울특별시 중구 정동길 3,,37.5681732680,126.9699761132,476,576,Y,,,서울특별시 중구청,2021-06-01
"대한항공",공공용,서울특별시 중구 서소문로 117,,37.56357791,126.9741258,5700,6909,Y,,,서울특별시 중구청,2021-06-01
"농협중앙회",공공용,서울특별시 중구 새문안로 16,,37.56649939,126.9685558,1585,1921,Y,,,서울특별시 중구청,2021-06-01
1호선서울역지하철승강장,공공용,서울특별시 중구 세종대로 지하2,,37.55715885,126.9725526,9292,11263,Y,,,서울특별시 중구청,2021-06-01
"서울역우체국앞지하보도",공공용,서울특별시 중구 통일로 21,,37.55758745,126.9714025,495,600,Y,,,서울특별시 중구청,2021-06-01
"남산입구지하보도",공공용,서울특별시 중구 소월로 3,,37.55937249,126.9762007,620,751,Y,,,서울특별시 중구청,2021-06-01
"회현지하도상가",공공용,서울특별시 중구 소공로 지하58,,37.56066733,126.9818457,287,347,Y,,,서울특별시 중구청,2021-06-01
4호선회현역지하철승강장,공공용,서울특별시 중구 퇴계로 지하54,,37.55853676,126.9782381,10233,12403,Y,,,서울특별시 중구청,2021-06-01
"삼익패션타운",공공용,서울특별시 중구 남대문시장8길 7,,37.56043619,126.9789574,1442,1747,Y,,,서울특별시 중구청,2021-06-01
"연세봉래빌딩",공공용,서울특별시 중구 칠패로 36,,37.55939701,126.9728868,1808,2191,Y,,,서울특별시 중구청,2021-06-01
"단암타워빌딩",공공용,서울특별시 중구 소월로 10,,37.55853981,126.9754132,1650,2000,Y,,,서울특별시 중구청,2021-06-01
4호선서울역지하철승강장,공공용,서울특별시 중구 한강대로 405,,37.55472902,126.969525,18070,21903,Y,,,서울특별시 중구청,2021-06-01
"중구회현체육센터",공공용,서울특별시 중구 퇴계로12길 78,,37.55603257,126.9816386,1056,1280,Y,,,서울특별시 중구청,2021-06-01
1호선시청역지하철승강장,공공용,서울특별시 중구 세종대로 지하101,,37.56543816,126.976982,8616,10443,Y,,,서울특별시 중구청,2021-06-01
"을지로지하상가",공공용,서울특별시 중구 을지로 지하88,,37.56615326,126.9868693327,14430,17490,Y,,,서울특별시 중구청,2021-06-01
2호선을지로입구역지하철승강장,공공용,서울특별시 중구 을지로 지하42,,37.56605176,126.9823741,10408,12615,Y,,,서울특별시 중구청,2021-06-01
"회현지하쇼핑센터",공공용,서울특별시 중구 소공로 지하58,,37.56066733,126.9818457,7678,9306,Y,,,서울특별시 중구청,2021-06-01
"조양빌딩신관",공공용,서울특별시 중구 삼일대로6길 5,,37.56254231,126.9893064,2851,3455,Y,,,서울특별시 중구청,2021-06-01
"명동역지하철승강장",공공용,서울특별시 중구 퇴계로 지하126,,37.56090935,126.9859474,9875,11969,Y,,,서울특별시 중구청,2021-06-01
"명동지하쇼핑센터",공공용,서울특별시 중구 남대문로 지하72,,37.56356497,126.9820895,1758,2130,Y,,,서울특별시 중구청,2021-06-01
"천수빌딩KEB하나은행",공공용,서울특별시 중구 수표로 67,,37.56735363,126.9892921,7187,8711,Y,,,서울특별시 중구청,2021-06-01
"금세기빌딩",공공용,서울특별시 중구 무교로 6,,37.56648017,126.9794719,3894,4720,Y,,,서울특별시 중구청,2021-06-01
"서울신문사앞지하보도",공공용,서울특별시 중구 세종대로 124,,37.56742052,126.9778733,448,543,Y,,,서울특별시 중구청,2021-06-01
"시청광장지하쇼핑센터",공공용,서울특별시 중구 을지로 지하12,,37.56562948,126.9786312073,1287,1560,Y,,,서울특별시 중구청,2021-06-01
2호선을지로3가역지하철승강장,공공용,서울특별시 중구 을지로 지하106,,37.56626532,126.9903064,6154,7459,Y,,,서울특별시 중구청,2021-06-01
"을지로입구지하쇼핑센터",공공용,서울특별시 중구 을지로 지하42,,37.56605176,126.9823741,1815,2200,Y,,,서울특별시 중구청,2021-06-01
"서울특별시청",공공용,서울특별시 중구 세종대로110,,37.56631769,126.9778284,2021,2449,Y,,,서울특별시 중구청,2021-06-01
3호선충무로역지하철승강장,공공용,서울특별시 중구 퇴계로 지하199,,37.56117313,126.9941108000,15474,18756,Y,,,서울특별시 중구청,2021-06-01
"엘크루메트로시티",공공용,서울특별시 중구 충무로 13,,37.56224704,126.992634,8800,10666,Y,,,서울특별시 중구청,2021-06-01
"앰배서더호텔",공공용,서울특별시 중구 동호로 287,,37.5605790552,127.0021232778,4217,5111,Y,,,서울특별시 중구청,2021-06-01
3호선동대입구역지하철승강장,공공용,서울특별시 중구 동호로 지하256,,37.55902878,127.0054597,8890,10775,Y,,,서울특별시 중구청,2021-06-01
"반얀트리클럽앤스파서울",공공용,서울특별시 중구 장충단로 60,,37.55006939,127.0004979,5179,6277,Y,,,서울특별시 중구청,2021-06-01
"인현지하쇼핑센터",공공용,서울특별시 중구 마른내로 72,,37.56354463,126.9958167,1970,2387,Y,,,서울특별시 중구청,2021-06-01
4호선충무로역지하철승강장,공공용,서울특별시 중구 퇴계로 지하199,,37.56117313,126.9941108000,10701,12970,Y,,,서울특별시 중구청,2021-06-01
"묵정공원공영주차장",공공용,서울특별시 중구 퇴계로45길 32-12,,37.56368166,126.9998008,4735,5739,Y,,,서울특별시 중구청,2021-06-01
"쌍림빌딩",공공용,서울특별시 중구 퇴계로 286,,37.56307974,127.0035948,904,1095,Y,,,서울특별시 중구청,2021-06-01
"동대문역사문화공원역지하철승강장",공공용,서울특별시 중구 을지로 지하279,,37.56558781,127.0091321,14468,17536,Y,,,서울특별시 중구청,2021-06-01
"을지로4구역지하쇼핑센터",공공용,서울특별시 중구 을지로 지하218,,37.56661166,127.0030878,4600,5575,Y,,,서울특별시 중구청,2021-06-01
"중구청",공공용,서울특별시 중구 창경궁로 17,,37.56412133,126.9980079,1448,1755,Y,,,서울특별시 중구청,2021-06-01
"중구구민회관",공공용,서울특별시 중구 을지로39길 40,,37.56898658,127.0057955,907,1099,Y,,,서울특별시 중구청,2021-06-01
"청계5가지하쇼핑센터",공공용,서울특별시 중구 동호로 지하384,,37.56896508,127.0020918,884,1071,Y,,,서울특별시 중구청,2021-06-01
"을지로4가역지하철승강장",공공용,서울특별시 중구 을지로 지하178,,37.5666369,126.9978539,7656,9280,Y,,,서울특별시 중구청,2021-06-01
3호선을지로3가역지하철승강장,공공용,서울특별시 중구 을지로 지하106,,37.56626532,126.9903064,16529,20035,Y,,,서울특별시 중구청,2021-06-01
"을지로3구역지하쇼핑센터",공공용,서울특별시 중구 을지로 지하131,,37.56644576,126.9940779,14430,17490,Y,,,서울특별시 중구청,2021-06-01
"에이피엠",공공용,서울특별시 중구 마장로 40,,37.56772449,127.0140313,2487,3014,Y,,,서울특별시 중구청,2021-06-01
6호선신당역지하철승강장,공공용,서울특별시 중구 다산로 지하260,,37.56627542,127.0161544,19215,23290,Y,,,서울특별시 중구청,2021-06-01
"선일빌딩3호선약수역지하철승강장",공공용,서울특별시 중구 동호로 191,,37.55494517,127.0099637,9019,10932,Y,,,서울특별시 중구청,2021-06-01
6호선버티고개역지하철승강장,공공용,서울특별시 중구 다산로 지하38,,37.54799329,127.0068848,6278,7609,Y,,,서울특별시 중구청,2021-06-01
3호선약수역지하철승강장,공공용,서울특별시 중구 다산로 지하122,,37.55455947,127.0108238,1128,1367,Y,,,서울특별시 중구청,2021-06-01
6호선약수역지하철승강장,공공용,서울특별시 중구 다산로 지하115,,37.55389279,127.010122,10785,13072,Y,,,서울특별시 중구청,2021-06-01
"남산타운아파트1",공공용,서울특별시 중구 다산로 32,,37.54716803,127.0056761,71343,86476,Y,,,서울특별시 중구청,2021-06-01
"남산타운아파트2",공공용,서울특별시 중구 다산로 32,,37.54716803,127.0056761,24454,29641,Y,,,서울특별시 중구청,2021-06-01
"중구청소년수련관",공공용,서울특별시 중구 동호로5길 19,,37.5518563,127.0125662,1208,1464,Y,,,서울특별시 중구청,2021-06-01
"남산타운문화체육센터",공공용,서울특별시 중구 다산로 32,,37.54716803,127.0056761,438,530,Y,,,서울특별시 중구청,2021-06-01
"청구역지하철승강장",공공용,서울특별시 중구 청구로 지하77,,37.5602931,127.013808,2138,2591,Y,,,서울특별시 중구청,2021-06-01
"약수하이츠아파트",공공용,서울특별시 중구 동호로10길 30,,37.55530847,127.0163105,47064,57047,Y,,,서울특별시 중구청,2021-06-01
"신당삼성아파트",공공용,서울특별시 중구 청구로1길 23,,37.55853733,127.018448,33660,40800,Y,,,서울특별시 중구청,2021-06-01
2호선신당역지하철승강장,공공용,서울특별시 중구 퇴계로 지하431-1,,37.56565502,127.0195409,6345,7690,Y,,,서울특별시 중구청,2021-06-01
"중구종합복지센터",공공용,서울특별시 중구 퇴계로 460,,37.56509222,127.022787,8045,9751,Y,,,서울특별시 중구청,2021-06-01
"삼성홈타운신당아파트",공공용,서울특별시 중구 다산로42가길 43,,37.56276504,127.0168781,1911,2316,Y,,,서울특별시 중구청,2021-06-01
"신당동파라다이스아파트",공공용,서울특별시 중구 다산로42나길 46,,37.5623289,127.0172583,1945,2357,Y,,,서울특별시 중구청,2021-06-01
"신당현대아파트",공공용,서울특별시 중구 다산로36길 109,,37.56050431,127.0229712,2594,3144,Y,,,서울특별시 중구청,2021-06-01
"신당대우푸르지오아파트",공공용,서울특별시 중구 다산로36길 110,,37.5598635,127.0190324,25890,31381,Y,,,서울특별시 중구청,2021-06-01
"신당지하쇼핑센터",공공용,서울특별시 중구 퇴계로85길 지하56,,37.56752911,127.0194644,1412,1711,Y,,,서울특별시 중구청,2021-06-01
"베네치아메가몰",공공용,서울특별시 중구 청계천로 400,,37.57081199,127.0214621,39896,48358,Y,,,서울특별시 중구청,2021-06-01
"한국경제신문사",공공용,서울특별시 중구 청파로 463,,37.55986766,126.9671099,17916,21716,Y,,,서울특별시 중구청,2021-06-01
"서울역디오빌",공공용,서울특별시 중구 만리재로 193,,37.55502032,126.967198,4150,5030,Y,,,서울특별시 중구청,2021-06-01
"손기정체육공원주차장",공공용,서울특별시 중구 손기정로 101,,37.5554795035,126.9648157462,6776,8213,Y,,,서울특별시 중구청,2021-06-01
