"민방위대피시설명",민방위대피시설구분,소재지도로명주소,소재지지번주소,위도,경도,민방위대피시설면적,대피가능인원수,개방여부,평시활용유형,관리기관전화번호,관리기관명,데이터기준일자
"광림교회",공공용,전라남도 여수시 오림3길 12 (오림동),전라남도 여수시 오림동 399-9,34.7577059962,127.7139427915,992,1202,Y,종교시설,061-659-3142,여수시청,2021-07-01
"동서볼링장",공공용,전라남도 여수시 장군산길 67 (오림동),전라남도 여수시 오림동 408-21,34.7560834677,127.7164933520,436,529,Y,상가시설,061-659-3142,여수시청,2021-07-01
"럭키광무아파트",공공용,전라남도 여수시 좌수영로 191 (광무동),전라남도 여수시 광무동 915-3,34.7552696040,127.7233988202,1037,1257,Y,아파트 지하공간,061-659-3142,여수시청,2021-07-01
"삼익멘션",공공용,"전라남도 여수시 오림3길 12-12 (오림동, 삼익맨션)",전라남도 여수시 오림동 399-13,34.7576320096,127.7129551411,106,128,Y,아파트 지하공간,061-659-3142,여수시청,2021-07-01
"상공회의소",공공용,"전라남도 여수시 좌수영로 55 (광무동, 여수상공회의소)",전라남도 여수시 광무동 119-3,34.7453131933,127.7280209443,132,160,Y,상가시설,061-659-3142,여수시청,2021-07-01
"시민회관",공공용,"전라남도 여수시 좌수영로 69 (광무동, 시민회관)",전라남도 여수시 광무동 42-4,34.7470923758,127.7279290972,331,401,Y,기타,061-659-3142,여수시청,2021-07-01
"시외버스터미널",공공용,"전라남도 여수시 좌수영로 268 (오림동, 여수버스터미널)",전라남도 여수시 오림동 390,34.7582999491,127.7164708868,100,121,Y,상가시설,061-659-3142,여수시청,2021-07-01
"알리안츠생명",공공용,"전라남도 여수시 좌수영로 67 (광무동, 국민건강보험공단여수지사)",전라남도 여수시 광무동 42-18,34.7464725771,127.7282305239,221,268,Y,상가시설,061-659-3142,여수시청,2021-07-01
"오림동 부영아파트 305동",공공용,"전라남도 여수시 장군산길 42 (오림동, 부영아파트3단지)",전라남도 여수시 오림동 409-2,34.7560315161,127.7152106953,100,121,Y,아파트 지하공간,061-659-3142,여수시청,2021-07-01
"오림동 부영아파트 310동",공공용,"전라남도 여수시 장군산길 42 (오림동, 부영아파트3단지)",전라남도 여수시 오림동 409-2,34.7560315161,127.7152106953,100,121,Y,아파트 지하공간,061-659-3142,여수시청,2021-07-01
"오림동 준성에버빌",공공용,"전라남도 여수시 진남체육관길 41 (오림동, 준성에버빌)",전라남도 여수시 오림동 353,34.7607822288,127.7200431801,1172,1421,Y,아파트 지하주차장,061-659-3142,여수시청,2021-07-01
"전남병원",공공용,"전라남도 여수시 좌수영로 49 (광무동, 여수전남병원)",전라남도 여수시 광무동 175-1,34.7451209708,127.7281943095,942,1142,Y,의료시설,061-659-3142,여수시청,2021-07-01
"전남병원 장례식장",공공용,"전라남도 여수시 광무1길 28-6 (광무동, 전남병원장례식장)",전라남도 여수시 광무동 175,34.7454530015,127.7278547628,539,653,Y,의료시설,061-659-3142,여수시청,2021-07-01
"진남지하도",공공용,전라남도 여수시 좌수영로 129 (광무동),전라남도 여수시 광무동 24,34.7518883373,127.7274615975,106,128,Y,기타,061-659-3142,여수시청,2021-07-01
"국동 경남아파트 101동",공공용,"전라남도 여수시 구봉길 29 (국동, 경남아파트)",전라남도 여수시 국동 1104,34.7299293718,127.7116154066,123,149,Y,아파트 지하공간,061-659-3142,여수시청,2021-07-01
"국동 구봉아파트 101동",공공용,"전라남도 여수시 구봉길 41 (국동, 국동시영아파트)",전라남도 여수시 국동 1103,34.7292305779,127.7108485294,297,360,Y,아파트 지하공간,061-659-3142,여수시청,2021-07-01
"국동 귀인아파트 501동",공공용,"전라남도 여수시 구봉길 43 (국동, 귀인아파트)",전라남도 여수시 국동 1107,34.7312083725,127.7116915525,581,704,Y,아파트 지하공간,061-659-3142,여수시청,2021-07-01
"국동 대주아파트 101동",공공용,"전라남도 여수시 신월로 686 (국동, 대주아파트)",전라남도 여수시 국동 543,34.7316759087,127.7188175872,364,441,Y,아파트 지하공간,061-659-3142,여수시청,2021-07-01
"국동 라인아파트 101동",공공용,"전라남도 여수시 구봉길 79 (국동, 국동라인1차아파트)",전라남도 여수시 국동 857,34.7346242262,127.7130317587,951,1153,Y,아파트 지하공간,061-659-3142,여수시청,2021-07-01
"국동 서희스타힐스아파트 101동",공공용,"전라남도 여수시 신월로 655 (국동, 서희스타힐스)",전라남도 여수시 국동 438,34.7303579130,127.7148301594,8467,10263,Y,아파트 지하주차장,061-659-3142,여수시청,2021-07-01
"국동 중앙아파트 1동",공공용,"전라남도 여수시 구봉산길 52 (국동, 국동중앙아파트)",전라남도 여수시 국동 800,34.7375933541,127.7160410658,793,961,Y,아파트 지하공간,061-659-3142,여수시청,2021-07-01
"국동라인1차아파트 지하주차장",공공용,"전라남도 여수시 구봉길 79(국동, 라인아파트)",전라남도 여수시 국동 857,34.7346242262,127.7130317587,950,1056,Y,아파트 지하공간,061-659-3142,여수시청,2021-07-01
"무지개아파트",공공용,"전라남도 여수시 남산로 54 (남산동, 무지개아파트)",전라남도 여수시 남산동 379-1,34.7353140710,127.7322202399,307,372,Y,아파트 지하공간,061-659-3142,여수시청,2021-07-01
"사랑재활용양병원",공공용,"전라남도 여수시 봉산남3길 9 (봉산동, 병원)",전라남도 여수시 봉산동 267-40,34.7342148337,127.7207925131,891,1080,Y,의료시설,061-659-3142,여수시청,2021-07-01
"여수남산초등학교",공공용,"전라남도 여수시 남산북10길 8 (남산동, 남산초등학교)",전라남도 여수시 남산동 765,34.7373076315,127.7299172723,299,362,Y,교육시설,061-659-3142,여수시청,2021-07-01
"영락교회",공공용,"전라남도 여수시 봉산새철3길 2 (봉산동, 영락교회)",전라남도 여수시 봉산동 484-1,34.7373455062,127.7241460262,455,552,Y,종교시설,061-659-3142,여수시청,2021-07-01
"돌산청솔아파트 101동",공공용,전라남도 여수시 돌산읍 강남8길 20 (청솔1차아파트),전라남도 여수시 돌산읍 우두리 1046-1,34.7185546939,127.7477505579,527,639,Y,아파트 지하주차장,061-659-3142,여수시청,2021-07-01
"돌산청솔아파트 102동",공공용,전라남도 여수시 돌산읍 강남8길 20 (청솔1차아파트),전라남도 여수시 돌산읍 우두리 1046-1,34.7185546939,127.7477505579,527,639,Y,아파트 지하주차장,061-659-3142,여수시청,2021-07-01
"돌산청솔아파트 103동",공공용,전라남도 여수시 돌산읍 강남8길 20 (청솔1차아파트),전라남도 여수시 돌산읍 우두리 1046-1,34.7185546939,127.7477505579,527,639,Y,아파트 지하주차장,061-659-3142,여수시청,2021-07-01
"돌산청솔아파트 104동",공공용,전라남도 여수시 돌산읍 강남8길 20 (청솔1차아파트),전라남도 여수시 돌산읍 우두리 1046-1,34.7185546939,127.7477505579,527,639,Y,아파트 지하주차장,061-659-3142,여수시청,2021-07-01
"돌산청솔아파트 105동",공공용,전라남도 여수시 돌산읍 강남8길 20 (청솔1차아파트),전라남도 여수시 돌산읍 우두리 1046-1,34.7185546939,127.7477505579,409,496,Y,아파트 지하주차장,061-659-3142,여수시청,2021-07-01
"돌산청솔아파트 106동",공공용,전라남도 여수시 돌산읍 강남8길 20 (청솔1차아파트),전라남도 여수시 돌산읍 우두리 1046-1,34.7185546939,127.7477505579,409,496,Y,아파트 지하주차장,061-659-3142,여수시청,2021-07-01
"돌산청솔아파트 107동",공공용,전라남도 여수시 돌산읍 강남8길 20 (청솔1차아파트),전라남도 여수시 돌산읍 우두리 1046-1,34.7185546939,127.7477505579,409,496,Y,아파트 지하주차장,061-659-3142,여수시청,2021-07-01
"돌산청솔아파트 201동",공공용,전라남도 여수시 돌산읍 강남동로 46-25 (돌산청솔2단지아파트),전라남도 여수시 돌산읍 우두리 1132-1,34.7170887382,127.7573689216,527,639,Y,아파트 지하주차장,061-659-3142,여수시청,2021-07-01
"돌산청솔아파트 202동",공공용,전라남도 여수시 돌산읍 강남동로 46-25 (돌산청솔2단지아파트),전라남도 여수시 돌산읍 우두리 1132-1,34.7170887382,127.7573689216,527,639,Y,아파트 지하주차장,061-659-3142,여수시청,2021-07-01
"돌산청솔아파트 203동",공공용,전라남도 여수시 돌산읍 강남동로 46-25 (돌산청솔2단지아파트),전라남도 여수시 돌산읍 우두리 1132-1,34.7170887382,127.7573689216,527,639,Y,아파트 지하주차장,061-659-3142,여수시청,2021-07-01
"돌산청솔아파트 204동",공공용,전라남도 여수시 돌산읍 강남동로 46-25,전라남도 여수시 돌산읍 우두리 1132-1,34.7170887382,127.7573689216,527,639,Y,아파트 지하주차장,061-659-3142,여수시청,2021-07-01
"돌산청솔아파트 205동",공공용,전라남도 여수시 돌산읍 강남동로 46-25 (돌산청솔2단지아파트),전라남도 여수시 돌산읍 우두리 1132-1,34.7170887382,127.7573689216,763,925,Y,아파트 지하주차장,061-659-3142,여수시청,2021-07-01
"돌산청솔아파트 301동",공공용,전라남도 여수시 돌산읍 강남동로 46-7,전라남도 여수시 돌산읍 우두리1134-2,34.7199752847,127.7573106363,586,710,Y,아파트 지하주차장,061-659-3142,여수시청,2021-07-01
"돌산청솔아파트 302동",공공용,"전라남도 여수시 돌산읍 강남동로 46-7, 302동",전라남도 여수시 돌산읍 우두리 1134-2,34.7199752847,127.7573106363,586,710,Y,아파트 지하주차장,061-659-3142,여수시청,2021-07-01
"돌산청솔아파트 303동",공공용,전라남도 여수시 돌산읍 강남동로 46-7 (돌산청솔3단지아파트),전라남도 여수시 돌산읍 우두리 1134-2,34.7199752847,127.7573106363,586,710,Y,아파트 지하주차장,061-659-3142,여수시청,2021-07-01
"돌산청솔아파트 304동",공공용,전라남도 여수시 돌산읍 강남동로 46-7,전라남도 여수시 돌산읍 우두리 1134-2,34.7199752847,127.7573106363,527,639,Y,아파트 지하주차장,061-659-3142,여수시청,2021-07-01
"돌산청솔아파트 305동",공공용,전라남도 여수시 돌산읍 강남동로 46-7 (돌산청솔3단지아파트),전라남도 여수시 돌산읍 우두리 1134-2,34.7199752847,127.7573106363,527,639,Y,아파트 지하주차장,061-659-3142,여수시청,2021-07-01
"전라남도 국제교육원",공공용,전라남도 여수시 돌산읍 강남로 31 (전라남도국제교육원),전라남도 여수시 돌산읍 우두리 1049,34.7182210755,127.7482074751,151,183,Y,관공서,061-659-3142,여수시청,2021-07-01
"동문동우체국",공공용,"전라남도 여수시 동문로 52 (관문동, 동문동우체국)",전라남도 여수시 관문동 299-1,34.7414789466,127.7407835314,126,153,Y,관공서,061-659-3142,여수시청,2021-07-01
"종고산온천",공공용,전라남도 여수시 관문서1길 3 (관문동),전라남도 여수시 관문동 408,34.7416368063,127.7379730952,720,873,Y,상가시설,061-659-3142,여수시청,2021-07-01
"여수엑스포골드클래스아파트 1지하주차장",공공용,"전라남도 여수시 관문6길 10(관문동, 골드클래스아파트)",전라남도 여수시 관문동 1156,34.7434145503,127.7423612808,1882,2091,Y,아파트 지하공간,061-659-3142,여수시청,2021-07-01
"여수엑스포골드클래스아파트 2지하주차장",공공용,"전라남도 여수시 관문6길 10(관문동, 골드클래스아파트)",전라남도 여수시 관문동 1156,34.7434145503,127.7423612808,3543,3937,Y,아파트 지하공간,061-659-3142,여수시청,2021-07-01
"여수엑스포골드클래스아파트 3지하주차장",공공용,"전라남도 여수시 관문6길 10(관문동, 골드클래스아파트)",전라남도 여수시 관문동 1156,34.7434145503,127.7423612808,4527,5030,Y,아파트 지하공간,061-659-3142,여수시청,2021-07-01
"여수엑스포골드클래스아파트 4지하주차장",공공용,"전라남도 여수시 관문6길 10(관문동, 골드클래스아파트)",전라남도 여수시 관문동 1156,34.7434145503,127.7423612808,985,1094,Y,아파트 지하공간,061-659-3142,여수시청,2021-07-01
"라온유아파트",공공용,"전라남도 여수시 상암로 16 (둔덕동, 라온유아파트)",전라남도 여수시 둔덕동 266,34.7844196567,127.6966622357,2790,3382,Y,아파트 지하공간,061-659-3142,여수시청,2021-07-01
"선경볼링장",공공용,전라남도 여수시 만성로 27 (둔덕동),전라남도 여수시 둔덕동 487-11,34.7695985358,127.6988108459,1676,2032,Y,상가시설,061-659-3142,여수시청,2021-07-01
"성심병원",공공용,"전라남도 여수시 둔덕5길 19 (둔덕동, 여수성심병원)",전라남도 여수시 둔덕동 471-77,34.7655849474,127.6987706821,769,932,Y,의료시설,061-659-3142,여수시청,2021-07-01
"신원아르시스아파트",공공용,"전라남도 여수시 둔덕1길 14 (둔덕동, 신원아르시스아파트)",전라남도 여수시 둔덕동 464-3,34.7651553230,127.7001705472,806,977,Y,아파트 지하공간,061-659-3142,여수시청,2021-07-01
"전남대학교 여수캠퍼스",공공용,"전라남도 여수시 대학로 50 (둔덕동, 전남대학교 여수캠퍼스)",전라남도 여수시 둔덕동 산96-1,34.7729994999,127.7005508624,805,976,Y,교육시설,061-659-3142,여수시청,2021-07-01
"중앙하이츠아파트 1동",공공용,"전라남도 여수시 쌍봉로 366 (둔덕동, 중앙하이츠아파트)",전라남도 여수시 둔덕동 583,34.7674329743,127.6937446446,394,478,Y,아파트 지하공간,061-659-3142,여수시청,2021-07-01
"중앙하이츠아파트 2동",공공용,"전라남도 여수시 쌍봉로 366 (둔덕동, 중앙하이츠아파트)",전라남도 여수시 둔덕동 583,34.7674329743,127.6937446446,394,478,Y,아파트 지하공간,061-659-3142,여수시청,2021-07-01
"중앙하이츠아파트 3동",공공용,"전라남도 여수시 쌍봉로 366 (둔덕동, 중앙하이츠아파트)",전라남도 여수시 둔덕동 583,34.7674329743,127.6937446446,394,478,Y,아파트 지하공간,061-659-3142,여수시청,2021-07-01
"중앙하이츠아파트 4동",공공용,"전라남도 여수시 쌍봉로 366 (둔덕동, 중앙하이츠아파트)",전라남도 여수시 둔덕동 583,34.7674329743,127.6937446446,394,478,Y,아파트 지하공간,061-659-3142,여수시청,2021-07-01
"중앙하이츠아파트 5동",공공용,"전라남도 여수시 쌍봉로 366 (둔덕동, 중앙하이츠아파트)",전라남도 여수시 둔덕동 583,34.7674329743,127.6937446446,394,478,Y,아파트 지하공간,061-659-3142,여수시청,2021-07-01
"중앙하이츠아파트 6동",공공용,"전라남도 여수시 쌍봉로 366 (둔덕동, 중앙하이츠아파트)",전라남도 여수시 둔덕동 583,34.7674329743,127.6937446446,394,478,Y,아파트 지하공간,061-659-3142,여수시청,2021-07-01
"중앙하이츠아파트 7동",공공용,"전라남도 여수시 쌍봉로 366 (둔덕동, 중앙하이츠아파트)",전라남도 여수시 둔덕동 583,34.7674329743,127.6937446446,394,478,Y,아파트 지하공간,061-659-3142,여수시청,2021-07-01
"중앙하이츠아파트 8동",공공용,"전라남도 여수시 쌍봉로 366 (둔덕동, 중앙하이츠아파트)",전라남도 여수시 둔덕동 583,34.7674329743,127.6937446446,394,478,Y,아파트 지하공간,061-659-3142,여수시청,2021-07-01
"한려아파트 101동",공공용,"전라남도 여수시 쌍봉로 316 (둔덕동, 한려아파트)",전라남도 여수시 둔덕동 648,34.7659743501,127.6891871477,272,330,Y,아파트 지하주차장,061-659-3142,여수시청,2021-07-01
"한려아파트 102동",공공용,"전라남도 여수시 쌍봉로 316 (둔덕동, 한려아파트)",전라남도 여수시 둔덕동 648,34.7659743501,127.6891871477,272,330,Y,아파트 지하주차장,061-659-3142,여수시청,2021-07-01
"한려아파트 103동",공공용,"전라남도 여수시 쌍봉로 316 (둔덕동, 한려아파트)",전라남도 여수시 둔덕동 648,34.7659743501,127.6891871477,272,330,Y,아파트 지하주차장,061-659-3142,여수시청,2021-07-01
"한려아파트 104동",공공용,"전라남도 여수시 쌍봉로 316 (둔덕동, 한려아파트)",전라남도 여수시 둔덕동 648,34.7659743501,127.6891871477,272,330,Y,아파트 지하주차장,061-659-3142,여수시청,2021-07-01
"한려아파트 105동",공공용,"전라남도 여수시 쌍봉로 316 (둔덕동, 한려아파트)",전라남도 여수시 둔덕동 648,34.7659743501,127.6891871477,272,330,Y,아파트 지하주차장,061-659-3142,여수시청,2021-07-01
"한려아파트 106동",공공용,전라남도 여수시 쌍봉로 316 (둔덕동),전라남도 여수시 둔덕동 648,34.7659743501,127.6891871477,272,330,Y,아파트 지하주차장,061-659-3142,여수시청,2021-07-01
"한려아파트 107동",공공용,"전라남도 여수시 쌍봉로 316 (둔덕동, 한려아파트)",전라남도 여수시 둔덕동 648,34.7659743501,127.6891871477,272,330,Y,아파트 지하주차장,061-659-3142,여수시청,2021-07-01
"한려아파트 108동",공공용,"전라남도 여수시 쌍봉로 316 (둔덕동, 한려아파트)",전라남도 여수시 둔덕동 648,34.7659743501,127.6891871477,272,330,Y,아파트 지하주차장,061-659-3142,여수시청,2021-07-01
"한려아파트 109동",공공용,"전라남도 여수시 쌍봉로 316 (둔덕동, 한려아파트)",전라남도 여수시 둔덕동 648,34.7659743501,127.6891871477,272,330,Y,아파트 지하주차장,061-659-3142,여수시청,2021-07-01
"한려아파트 110동",공공용,"전라남도 여수시 쌍봉로 316 (둔덕동, 한려아파트)",전라남도 여수시 둔덕동 648,34.7659743501,127.6891871477,272,330,Y,아파트 지하주차장,061-659-3142,여수시청,2021-07-01
"한려아파트 111동",공공용,"전라남도 여수시 쌍봉로 316 (둔덕동, 한려아파트)",전라남도 여수시 둔덕동 648,34.7659743501,127.6891871477,272,330,Y,아파트 지하주차장,061-659-3142,여수시청,2021-07-01
"한려아파트 112동",공공용,"전라남도 여수시 쌍봉로 316 (둔덕동, 한려아파트)",전라남도 여수시 둔덕동 648,34.7659743501,127.6891871477,272,330,Y,아파트 지하주차장,061-659-3142,여수시청,2021-07-01
"한려아파트 113동",공공용,"전라남도 여수시 쌍봉로 316 (둔덕동, 한려아파트)",전라남도 여수시 둔덕동 648,34.7659743501,127.6891871477,272,330,Y,아파트 지하주차장,061-659-3142,여수시청,2021-07-01
"덕충동 귀인그린파크",공공용,"전라남도 여수시 덕충2길 37 (덕충동, 귀인그린파크아파트)",전라남도 여수시 덕충동 1797,34.7551916425,127.7373287245,826,1001,Y,아파트 지하공간,061-659-3142,여수시청,2021-07-01
"덕충동 성학맨션",공공용,"전라남도 여수시 덕충3길 6 (덕충동, 성학맨션)",전라남도 여수시 덕충동 1744-1,34.7540608631,127.7367298990,576,698,Y,아파트 지하공간,061-659-3142,여수시청,2021-07-01
"덕충동엑스포힐스테이트 1단지",공공용,"전라남도 여수시 박람회길 61 (덕충동, 엑스포힐스테이트1단지)",전라남도 여수시 덕충동 2038,34.7548648082,127.7420161789,3856,4674,Y,아파트 지하주차장,061-659-3142,여수시청,2021-07-01
"덕충동 제일맨션",공공용,"전라남도 여수시 덕충3길 12 (덕충동, 제일맨션)",전라남도 여수시 덕충동 1740-1,34.7545852146,127.7367281125,115,139,Y,아파트 지하공간,061-659-3142,여수시청,2021-07-01
"덕충동 창조경제혁신센터 사택",공공용,"전라남도 여수시 덕충2길 32 (덕충동, GS칼텍스벨류센터)",전라남도 여수시 덕충동 1754,34.7543459732,127.7377424481,66,80,Y,공공시설,061-659-3142,여수시청,2021-07-01
"덕충동 태창맨션 A동",공공용,전라남도 여수시 충민공원길 6 (덕충동),전라남도 여수시 덕충동 1734-1,34.7541384539,127.7357192632,165,200,Y,아파트 지하공간,061-659-3142,여수시청,2021-07-01
"덕충동 태창아파트 501동",공공용,"전라남도 여수시 충민공원길 5 (덕충동, 태창아파트)",전라남도 여수시 덕충동 1733-3,34.7541623086,127.7353515314,158,192,Y,아파트 지하공간,061-659-3142,여수시청,2021-07-01
"덕충동 태창아파트 502동",공공용,"전라남도 여수시 충민공원길 9 (덕충동, 태창아파트)",전라남도 여수시 덕충동 1731,34.7543780420,127.7352570074,165,200,Y,아파트 지하공간,061-659-3142,여수시청,2021-07-01
"덕충동 태창아파트 503동",공공용,"전라남도 여수시 충민공원길 9 (덕충동, 태창아파트)",전라남도 여수시 덕충동 1731,34.7543780420,127.7352570074,184,223,Y,아파트 지하공간,061-659-3142,여수시청,2021-07-01
"만덕동주민센터",공공용,전라남도 여수시 덕충안길 95 (덕충동),전라남도 여수시 덕충동 2029,34.7536604882,127.7465974034,287,348,Y,관공서,061-659-3142,여수시청,2021-07-01
"엑스포힐스테이트 2단지",공공용,"전라남도 여수시 박람회길 81 (덕충동, 엑스포힐스테이트2단지)",전라남도 여수시 덕충동 2020,34.7567364228,127.7436182177,1292,1566,Y,아파트 지하주차장,061-659-3142,여수시청,2021-07-01
"여수엑스포타운시티프라디움 1단지 지하주차장",공공용,"전라남도 여수시 박람회길 70(덕충동, 엑스포시트프라디움 1차)",전라남도 여수시 덕충동 2033,34.7548135103,127.7441299077,4143,4603,Y,아파트 지하공간,061-659-3142,여수시청,2021-07-01
"여수엑스포타운시티프라디움 2단지 지하주차장",공공용,"전라남도 여수시 덕충안길 84(덕충동, 엑스포시트프라디움 2차)",전라남도 여수시 덕충동 2034,34.7535512470,127.7443728332,3549,3943,Y,아파트 지하공간,061-659-3142,여수시청,2021-07-01
"여수엑스포타운동성노블힐스 1단지 지하주차장",공공용,"전라남도 여수시 박람회길 46(덕충동, 동성노빌힐스아파트)",전라남도 여수시 덕충동 2041,34.7532896851,127.7430851562,3600,4000,Y,아파트 지하공간,061-659-3142,여수시청,2021-07-01
"여수엑스포타운동성노블힐스 2단지 지하주차장",공공용,"전라남도 여수시 박람회길 46(덕충동, 동성노빌힐스아파트)",전라남도 여수시 덕충동 2041,34.7532896851,127.7430851562,3017,3352,Y,아파트 지하공간,061-659-3142,여수시청,2021-07-01
"문수그린아파트 201동",공공용,"전라남도 여수시 문수북5길 16 (문수동, 문수그린아파트)",전라남도 여수시 문수동 8-8,34.7567320092,127.7110363085,1650,2000,Y,아파트 지하공간,061-659-3142,여수시청,2021-07-01
"문수그린아파트 202동",공공용,"전라남도 여수시 문수북5길 16 (문수동, 문수그린아파트)",전라남도 여수시 문수동 8-8,34.7567320092,127.7110363085,825,1000,Y,아파트 지하공간,061-659-3142,여수시청,2021-07-01
"문수동 무궁화 아파트 102동",공공용,"전라남도 여수시 여문2로 133 (문수동, 무궁화아파트)",전라남도 여수시 문수동 170,34.7542144964,127.6993792099,641,777,Y,아파트 지하공간,061-659-3142,여수시청,2021-07-01
"문수동 부영 아파트 1001동",공공용,"전라남도 여수시 여문2로 62 (문수동, 부영아파트)",전라남도 여수시 문수동 480,34.7533937836,127.6933880340,990,1200,Y,아파트 지하공간,061-659-3142,여수시청,2021-07-01
"문수동 부영 아파트 1002동",공공용,"전라남도 여수시 여문2로 62 (문수동, 부영아파트)",전라남도 여수시 문수동 480,34.7533937836,127.6933880340,932,1129,Y,아파트 지하공간,061-659-3142,여수시청,2021-07-01
"문수동 부영 아파트 901동",공공용,"전라남도 여수시 여문2로 61 (문수동, 부영9차아파트)",전라남도 여수시 문수동 450-1,34.7549334158,127.6920488128,372,451,Y,아파트 지하공간,061-659-3142,여수시청,2021-07-01
"문수동 부영 아파트 902동",공공용,"전라남도 여수시 여문2로 61 (문수동, 부영9차아파트)",전라남도 여수시 문수동 450-1,34.7549334158,127.6920488128,372,451,Y,아파트 지하공간,061-659-3142,여수시청,2021-07-01
"문수동 부영 아파트 903동",공공용,"전라남도 여수시 여문2로 61 (문수동, 부영9차아파트)",전라남도 여수시 문수동 450-1,34.7549334158,127.6920488128,372,451,Y,아파트 지하공간,061-659-3142,여수시청,2021-07-01
"문수동 부영 아파트 904동",공공용,"전라남도 여수시 여문2로 61 (문수동, 부영9차아파트)",전라남도 여수시 문수동 450-1,34.7549334158,127.6920488128,372,451,Y,아파트 지하공간,061-659-3142,여수시청,2021-07-01
"문수동 부영 아파트 905동",공공용,"전라남도 여수시 여문2로 61 (문수동, 부영9차아파트)",전라남도 여수시 문수동 450-1,34.7549334158,127.6920488128,372,451,Y,아파트 지하공간,061-659-3142,여수시청,2021-07-01
"문수동 부영 아파트 906동",공공용,"전라남도 여수시 여문2로 61 (문수동, 부영9차아파트)",전라남도 여수시 문수동 450-1,34.7549334158,127.6920488128,372,451,Y,아파트 지하공간,061-659-3142,여수시청,2021-07-01
"문수동 부영 아파트 907동",공공용,"전라남도 여수시 여문2로 61 (문수동, 부영9차아파트)",전라남도 여수시 문수동 450-1,34.7549334158,127.6920488128,843,1021,Y,아파트 지하공간,061-659-3142,여수시청,2021-07-01
"문수동 여문교회",공공용,"전라남도 여수시 소미1길 29-7 (문수동, 여수여문교회)",전라남도 여수시 문수동 158,34.7546762432,127.7002955975,198,240,Y,종교시설,061-659-3142,여수시청,2021-07-01
"문수동 여수양문교회",공공용,"전라남도 여수시 문수5길 2 (문수동, 여수양문교회)",전라남도 여수시 문수동 183-6,34.7523307215,127.7002169311,108,131,Y,종교시설,061-659-3142,여수시청,2021-07-01
"문수동 여수정보과학고등학교",공공용,"전라남도 여수시 여문2로 148 (문수동, 여수정보과학고등학교)",전라남도 여수시 문수동 182,34.7524935878,127.6983989347,661,801,Y,교육시설,061-659-3142,여수시청,2021-07-01
"문수동 원앙아파트 802동",공공용,"전라남도 여수시 여문1로 90 (문수동, 원앙파크맨션)",전라남도 여수시 문수동 310-1,34.7570242374,127.7033543158,344,417,Y,아파트 지하공간,061-659-3142,여수시청,2021-07-01
"문수동 원앙아파트 803동",공공용,"전라남도 여수시 여문1로 90 (문수동, 원앙파크맨션)",전라남도 여수시 문수동 310-1,34.7570242374,127.7033543158,344,417,Y,아파트 지하공간,061-659-3142,여수시청,2021-07-01
"문수동 원앙아파트 804동",공공용,"전라남도 여수시 여문1로 90 (문수동, 원앙파크맨션)",전라남도 여수시 문수동 310-1,34.7570242374,127.7033543158,344,417,Y,아파트 지하공간,061-659-3142,여수시청,2021-07-01
"문수동 원앙아파트 805동",공공용,"전라남도 여수시 여문1로 90 (문수동, 원앙파크맨션)",전라남도 여수시 문수동 310-1,34.7570242374,127.7033543158,344,417,Y,아파트 지하공간,061-659-3142,여수시청,2021-07-01
"문수동 원앙아파트 806동",공공용,"전라남도 여수시 여문1로 90 (문수동, 원앙파크맨션)",전라남도 여수시 문수동 310-1,34.7570242374,127.7033543158,344,417,Y,아파트 지하공간,061-659-3142,여수시청,2021-07-01
"문수동 은현맨션 제A동",공공용,"전라남도 여수시 문수북10길 2 (문수동, 은현맨션)",전라남도 여수시 문수동 80-1,34.7586554932,127.7092438883,116,141,Y,아파트 지하공간,061-659-3142,여수시청,2021-07-01
"문수동 전원그릴",공공용,전라남도 여수시 문수로 147-1 (문수동),전라남도 여수시 문수동 82-5,34.7575562312,127.7093385738,167,203,Y,아파트 지하공간,061-659-3142,여수시청,2021-07-01
"문수동 주공 아파트 102동",공공용,"전라남도 여수시 여문2로 11 (문수동, 문수주공아파트)",전라남도 여수시 문수동 797,34.7489466384,127.6927408299,578,701,Y,아파트 지하공간,061-659-3142,여수시청,2021-07-01
"문수동 주공 아파트 103동",공공용,"전라남도 여수시 여문2로 11 (문수동, 주공아파트)",전라남도 여수시 문수동 797,34.7489466384,127.6927408299,658,797,Y,아파트 지하공간,061-659-3142,여수시청,2021-07-01
"문수동 주공 아파트 104동",공공용,"전라남도 여수시 여문2로 11 (문수동, 문수주공아파트)",전라남도 여수시 문수동 797,34.7489466384,127.6927408299,331,401,Y,아파트 지하공간,061-659-3142,여수시청,2021-07-01
"문수동 주공 아파트 105동",공공용,"전라남도 여수시 여문2로 11 (문수동, 문수주공아파트)",전라남도 여수시 문수동 797,34.7489466384,127.6927408299,373,453,Y,아파트 지하공간,061-659-3142,여수시청,2021-07-01
"문수동 주공 아파트 107동",공공용,"전라남도 여수시 여문2로 11 (문수동, 문수주공아파트)",전라남도 여수시 문수동 797,34.7489466384,127.6927408299,578,701,Y,아파트 지하공간,061-659-3142,여수시청,2021-07-01
"문수동 진영 빌라 가동",공공용,"전라남도 여수시 문수북3길 8 (문수동, 진영맨션)",전라남도 여수시 문수동 5-1,34.7580584367,127.7114487348,260,315,Y,아파트 지하공간,061-659-3142,여수시청,2021-07-01
"문수동 태창 아파트 601동",공공용,"전라남도 여수시 문수북5길 7-16 (문수동, 아파트)",전라남도 여수시 문수동 4-1,34.7576857629,127.7111618956,100,121,Y,아파트 지하공간,061-659-3142,여수시청,2021-07-01
"문수동 태창 아파트 602동",공공용,"전라남도 여수시 문수북5길 15 (문수동, 아파트,근생)",전라남도 여수시 문수동 4-7,34.7571156104,127.7115973759,290,351,Y,아파트 지하공간,061-659-3142,여수시청,2021-07-01
"문수동 한국통신 북여수전화국",공공용,"전라남도 여수시 문수로 117 (문수동, KT북여수지점)",전라남도 여수시 문수동 111-2,34.7557831030,127.7072919781,495,600,Y,상가시설,061-659-3142,여수시청,2021-07-01
"문수동 흥화 아파트 제1동",공공용,"전라남도 여수시 허문정1길 18 (문수동, 흥화아파트)",전라남도 여수시 문수동 675-1,34.7513364904,127.6973721115,540,655,Y,아파트 지하공간,061-659-3142,여수시청,2021-07-01
"문수동 흥화 아파트 제2동",공공용,"전라남도 여수시 허문정1길 18 (문수동, 흥화아파트)",전라남도 여수시 문수동 675-1,34.7513364904,127.6973721115,540,655,Y,아파트 지하공간,061-659-3142,여수시청,2021-07-01
"문수동 흥화 아파트 제3동",공공용,"전라남도 여수시 허문정1길 18 (문수동, 흥화아파트)",전라남도 여수시 문수동 675-1,34.7513364904,127.6973721115,540,655,Y,아파트 지하공간,061-659-3142,여수시청,2021-07-01
"문수동 흥화 아파트 제4동",공공용,"전라남도 여수시 허문정1길 18 (문수동, 흥화아파트)",전라남도 여수시 문수동 675-1,34.7513364904,127.6973721115,540,655,Y,아파트 지하공간,061-659-3142,여수시청,2021-07-01
"산돌 교회",공공용,"전라남도 여수시 허문정2길 8 (문수동, 여수산돌교회)",전라남도 여수시 문수동 724,34.7493109717,127.6956208569,610,739,Y,종교시설,061-659-3142,여수시청,2021-07-01
"세종 캐슬하임 아파트 101동",공공용,전라남도 여수시 여문2로 110 (문수동),전라남도 여수시 문수동 640-1,34.7544250163,127.6964619939,278,337,Y,아파트 지하공간,061-659-3142,여수시청,2021-07-01
"세종 캐슬하임 아파트 102동",공공용,"전라남도 여수시 여문2로 110 (문수동, 세종캐슬하임아파트)",전라남도 여수시 문수동 640-1,34.7544250163,127.6964619939,278,337,Y,아파트 지하공간,061-659-3142,여수시청,2021-07-01
"코아루수 아파트 101동",공공용,"전라남도 여수시 여문2로 54-26 (문수동, 문수코아루수아파트)",전라남도 여수시 문수동 787,34.7519679823,127.6942690325,854,1035,Y,아파트 지하공간,061-659-3142,여수시청,2021-07-01
"피오레 아파트 102동",공공용,"전라남도 여수시 문수1길 26 (문수동, 피오레아파트)",전라남도 여수시 문수동 928,34.7574604455,127.7038963555,922,1118,Y,아파트 지하공간,061-659-3142,여수시청,2021-07-01
"미평동 미평초등학교",공공용,"전라남도 여수시 좌수영로 390 (미평동, 미평초등학교)",전라남도 여수시 미평동 580,34.7640014458,127.7067081263,1500,1818,Y,교육시설,061-659-3142,여수시청,2021-07-01
"미평동 선경아파트 101동",공공용,"전라남도 여수시 대학로 46 (미평동, 선경1차아파트)",전라남도 여수시 미평동 746,34.7736892945,127.7028725889,206,250,Y,아파트 지하공간,061-659-3142,여수시청,2021-07-01
"미평동 선경아파트 102동",공공용,"전라남도 여수시 대학로 46 (미평동, 선경1차아파트)",전라남도 여수시 미평동 746,34.7736892945,127.7028725889,206,250,Y,아파트 지하공간,061-659-3142,여수시청,2021-07-01
"미평동 선경아파트 103동",공공용,"전라남도 여수시 대학로 46 (미평동, 선경1차아파트)",전라남도 여수시 미평동 746,34.7736892945,127.7028725889,206,250,Y,아파트 지하공간,061-659-3142,여수시청,2021-07-01
"미평동 선경아파트 104동",공공용,"전라남도 여수시 대학로 46 (미평동, 선경1차아파트)",전라남도 여수시 미평동 746,34.7736892945,127.7028725889,206,250,Y,아파트 지하공간,061-659-3142,여수시청,2021-07-01
"미평동 선경아파트 105동",공공용,"전라남도 여수시 대학로 46 (미평동, 선경1차아파트)",전라남도 여수시 미평동 746,34.7736892945,127.7028725889,206,250,Y,아파트 지하공간,061-659-3142,여수시청,2021-07-01
"미평동 선경아파트 201동",공공용,"전라남도 여수시 양지6길 2 (미평동, 선경2차아파트)",전라남도 여수시 미평동 741,34.7726490844,127.7038714986,560,679,Y,아파트 지하공간,061-659-3142,여수시청,2021-07-01
"미평동 선경아파트 306동",공공용,"전라남도 여수시 양지1길 5 (미평동, 선경3차아파트)",전라남도 여수시 미평동 807,34.7708235880,127.7018564220,398,482,Y,아파트 지하공간,061-659-3142,여수시청,2021-07-01
"미평동 선경아파트 308동",공공용,"전라남도 여수시 양지1길 5 (미평동, 선경3차아파트)",전라남도 여수시 미평동 807,34.7708235880,127.7018564220,398,482,Y,아파트 지하공간,061-659-3142,여수시청,2021-07-01
"미평동 선경아파트 309동",공공용,"전라남도 여수시 양지1길 5, 309동 (미평동, 선경3차아파트)",전라남도 여수시 미평동 807,34.7708235880,127.7018564220,398,482,Y,아파트 지하공간,061-659-3142,여수시청,2021-07-01
"미평동 선경아파트 310동",공공용,"전라남도 여수시 양지1길 5 (미평동, 선경3차아파트)",전라남도 여수시 미평동 807,34.7708235880,127.7018564220,398,482,Y,아파트 지하공간,061-659-3142,여수시청,2021-07-01
"미평동 선경아파트 312동",공공용,"전라남도 여수시 양지1길 5 (미평동, 선경3차아파트)",전라남도 여수시 미평동 807,34.7708235880,127.7018564220,398,482,Y,아파트 지하공간,061-659-3142,여수시청,2021-07-01
"미평동 선경아파트 313동",공공용,"전라남도 여수시 양지1길 5 (미평동, 선경3차아파트)",전라남도 여수시 미평동 807,34.7708235880,127.7018564220,398,482,Y,아파트 지하공간,061-659-3142,여수시청,2021-07-01
"미평동 선경아파트 314동",공공용,"전라남도 여수시 양지1길 5 (미평동, 선경3차아파트)",전라남도 여수시 미평동 807,34.7708235880,127.7018564220,398,482,Y,아파트 지하공간,061-659-3142,여수시청,2021-07-01
"미평동 양지초등학교",공공용,"전라남도 여수시 양지1길 21 (미평동, 양지초등학교)",전라남도 여수시 미평동 762,34.7728288245,127.7010904822,1500,1818,Y,교육시설,061-659-3142,여수시청,2021-07-01
"미평동 주공아파트 101동",공공용,"전라남도 여수시 미평로 77 (미평동, 미평주공아파트)",전라남도 여수시 미평동 284,34.7711404701,127.7091753634,511,619,Y,아파트 지하공간,061-659-3142,여수시청,2021-07-01
"미평동 주공아파트 102동",공공용,"전라남도 여수시 미평로 77 (미평동, 미평주공아파트)",전라남도 여수시 미평동 284,34.7711404701,127.7091753634,511,619,Y,아파트 지하공간,061-659-3142,여수시청,2021-07-01
"미평동 주공아파트 103동",공공용,"전라남도 여수시 미평로 77 (미평동, 미평주공아파트)",전라남도 여수시 미평동 284,34.7711404701,127.7091753634,511,619,Y,아파트 지하공간,061-659-3142,여수시청,2021-07-01
"미평동 주공아파트 201동",공공용,"전라남도 여수시 미평로 77 (미평동, 미평주공아파트)",전라남도 여수시 미평동 284,34.7711404701,127.7091753634,565,685,Y,아파트 지하공간,061-659-3142,여수시청,2021-07-01
"미평동 주공아파트 202동",공공용,"전라남도 여수시 미평로 77 (미평동, 미평주공아파트)",전라남도 여수시 미평동 284,34.7711404701,127.7091753634,565,685,Y,아파트 지하공간,061-659-3142,여수시청,2021-07-01
"미평동 주공아파트 203동",공공용,"전라남도 여수시 미평로 77 (미평동, 미평주공아파트)",전라남도 여수시 미평동 284,34.7711404701,127.7091753634,565,685,Y,아파트 지하공간,061-659-3142,여수시청,2021-07-01
"미평동 주공아파트 204동",공공용,"전라남도 여수시 미평로 77 (미평동, 미평주공아파트)",전라남도 여수시 미평동 284,34.7711404701,127.7091753634,565,685,Y,아파트 지하공간,061-659-3142,여수시청,2021-07-01
"미평동 주공아파트 205동",공공용,"전라남도 여수시 미평로 77 (미평동, 미평주공아파트)",전라남도 여수시 미평동 284,34.7711404701,127.7091753634,565,685,Y,아파트 지하공간,061-659-3142,여수시청,2021-07-01
LG화학여수SM공장,공공용,전라남도 여수시 여수산단로 951 (적량동),전라남도 여수시 적량동 1214-1,34.8584972647,127.7053506397,182,220,Y,기타,061-659-3142,여수시청,2021-07-01
"금호석유화학",공공용,"전라남도 여수시 여수산단3로 118 (평여동, 롯데케미칼(주))",전라남도 여수시 평여동 287-1,34.8262140168,127.6683479278,122,148,Y,기타,061-659-3142,여수시청,2021-07-01
"금호폴리켐",공공용,전라남도 여수시 여수산단2로 116-46 (월하동),전라남도 여수시 화치동 48-10,34.8113305613,127.6577595697,360,437,Y,기타,061-659-3142,여수시청,2021-07-01
"남해화학",공공용,전라남도 여수시 여수산단로 1384 (낙포동),전라남도 여수시 낙포동 323,34.8486219216,127.7482620128,129,156,Y,기타,061-659-3142,여수시청,2021-07-01
"대림산업여수공장",공공용,전라남도 여수시 여수산단2로 220-10 (화치동),전라남도 여수시 화치동 48,34.8177158590,127.6571200960,1081,1310,Y,기타,061-659-3142,여수시청,2021-07-01
"롯데첨단소재",공공용,"전라남도 여수시 여수산단로 334-27, 롯데첨단소재(주) (평여동)","전라남도 여수시 평여동 62, 롯데첨단소재(주)",34.8131631146,127.6799096313,641,777,Y,기타,061-659-3142,여수시청,2021-07-01
"롯데케미칼",공공용,"전라남도 여수시 여수산단4로 53 (중흥동, 롯데케미칼(주))",전라남도 여수시 중흥동 172,34.8206408083,127.6781570842,245,297,Y,기타,061-659-3142,여수시청,2021-07-01
"삼남석유화학",공공용,전라남도 여수시 여수산단로 955 (적량동),전라남도 여수시 적량동 1155-19,34.8576417569,127.7128185874,139,168,Y,기타,061-659-3142,여수시청,2021-07-01
"엘지화학",공공용,"전라남도 여수시 여수산단2로 55 (화치동, LG화학(주))",전라남도 여수시 화치동 70-1,34.8008542512,127.6510840111,741,898,Y,기타,061-659-3142,여수시청,2021-07-01
"호남화력",공공용,전라남도 여수시 여수산단로 1203 (월내동),전라남도 여수시 월내동 280,,,165,200,Y,기타,061-659-3142,여수시청,2021-07-01
KT여수지점,공공용,전라남도 여수시 중앙로 10 (서교동),전라남도 여수시 서교동 534-9,34.7400858035,127.7288221194,300,364,Y,상가시설,061-659-3142,여수시청,2021-07-01
"교보생명",공공용,"전라남도 여수시 신월로 804 (서교동, 교보빌딩)",전라남도 여수시 서교동 680,34.7395887340,127.7270038023,919,1114,Y,상가시설,061-659-3142,여수시청,2021-07-01
"세일신경외과",공공용,"전라남도 여수시 신월로 786-3 (봉강동, 세일신경외과)",전라남도 여수시 봉강동 342-1,34.7387574212,127.7252120689,119,144,Y,의료시설,061-659-3142,여수시청,2021-07-01
"여수중앙교회",공공용,"전라남도 여수시 서교3길 23 (서교동, 중앙교회)",전라남도 여수시 서교동 905,34.7420193635,127.7261401504,212,257,Y,종교시설,061-659-3142,여수시청,2021-07-01
"해태동백타운",공공용,"전라남도 여수시 봉강서1길 38 (봉강동, 해태동백타운)",전라남도 여수시 봉강동 471,34.7413692487,127.7206511015,1812,2196,Y,아파트 지하공간,061-659-3142,여수시청,2021-07-01
"여천농협 소라지점",공공용,전라남도 여수시 소라면 덕양로 432,전라남도 여수시 소라면 덕양리 1223-21,34.7965539563,127.6323336039,109,132,Y,상가시설,061-659-3142,여수시청,2021-07-01
"죽림 부영1차아파트 101동",공공용,전라남도 여수시 소라면 죽림로 10 (죽림부영1차),전라남도 여수시 소라면 죽림리 1130,34.7627927519,127.6403738829,5275,6394,Y,아파트 지하주차장,061-659-3142,여수시청,2021-07-01
"죽림 부영1차아파트 113동",공공용,전라남도 여수시 소라면 죽림로 10 (죽림부영1차),전라남도 여수시 소라면 죽림리 1130,34.7627927519,127.6403738829,3842,4657,Y,아파트 지하주차장,061-659-3142,여수시청,2021-07-01
"죽림 부영1차아파트 119동",공공용,전라남도 여수시 소라면 죽림로 10 (죽림부영1차),전라남도 여수시 소라면 죽림리 1130,34.7627927519,127.6403738829,6490,7867,Y,아파트 지하주차장,061-659-3142,여수시청,2021-07-01
"죽림 부영2차아파트 206동",공공용,전라남도 여수시 소라면 덕양로 114 (여수죽림사랑으로부영2차),전라남도 여수시 소라면 죽림리 1111,34.7698207176,127.6385311762,8751,10607,Y,아파트 지하주차장,061-659-3142,여수시청,2021-07-01
"죽림휴먼시아 1차 102동",공공용,전라남도 여수시 소라면 덕양로 97-9 (죽림휴먼시아),전라남도 여수시 소라면 죽림리 1102,34.7694781215,127.6332972553,1607,1948,Y,아파트 지하주차장,061-659-3142,여수시청,2021-07-01
"죽림휴먼시아 1차 105동",공공용,전라남도 여수시 소라면 덕양로 97-9 (죽림휴먼시아),전라남도 여수시 소라면 죽림리 1102,34.7694781215,127.6332972553,1845,2236,Y,아파트 지하주차장,061-659-3142,여수시청,2021-07-01
"죽림휴먼시아 1차 109동",공공용,전라남도 여수시 소라면 덕양로 97-9 (죽림휴먼시아),전라남도 여수시 소라면 죽림리 1102,34.7694781215,127.6332972553,615,745,Y,아파트 지하주차장,061-659-3142,여수시청,2021-07-01
"죽림휴먼시아 2차 203동",공공용,전라남도 여수시 소라면 죽림로 38 (죽림휴먼시아2차),전라남도 여수시 소라면 죽림리 1123,34.7653634996,127.6386140533,873,1058,Y,아파트 지하주차장,061-659-3142,여수시청,2021-07-01
"죽림휴먼시아 2차 205동",공공용,전라남도 여수시 소라면 죽림로 38 (죽림휴먼시아2차),전라남도 여수시 소라면 죽림리 1123,34.7653634996,127.6386140533,1041,1262,Y,아파트 지하주차장,061-659-3142,여수시청,2021-07-01
"죽림휴먼시아 2차 211동",공공용,전라남도 여수시 소라면 죽림로 38 (죽림휴먼시아2차),전라남도 여수시 소라면 죽림리 1123,34.7653634996,127.6386140533,2886,3498,Y,아파트 지하주차장,061-659-3142,여수시청,2021-07-01
"죽림휴먼시아 2단지 지하주차장",공공용,"전라남도 여수시 소라면 죽림로 36(죽림리, 죽림휴먼시아)",전라남도 여수시 소라면 죽림리 1123,34.7644445497,127.6399996419,7069,7854,Y,아파트 지하공간,061-659-3142,여수시청,2021-07-01
"여수죽림양우내안애아파트 1단지 지하1주차장",공공용,"전라남도 여수시 소라면 도원로 80(죽림리, 내안내아파트)",전라남도 여수시 소라면 죽림리 1247,34.7605116661,127.6403235013,6817,7574,Y,아파트 지하공간,061-659-3142,여수시청,2021-07-01
"여수죽림양우내안애아파트 1단지 지하2주차장",공공용,"전라남도 여수시 소라면 도원로 80(죽림리, 내안내아파트)",전라남도 여수시 소라면 죽림리 1247,34.7605116661,127.6403235013,22900,25444,Y,아파트 지하공간,061-659-3142,여수시청,2021-07-01
"여수죽림사랑으로부영2차 지하주차장",공공용,"전라남도 여수시 소라면 덕양로 112(죽림리, 부영아파트)",전라남도 여수시 소라면 죽림리 1111,34.7691127192,127.6380058743,2739,3043,Y,아파트 지하공간,061-659-3142,여수시청,2021-07-01
"대림사택 21동",공공용,"전라남도 여수시 망마로 82-10 (신기동, 대림산업제2사택)",전라남도 여수시 신기동 138,34.7573583739,127.6700787711,142,172,Y,아파트 지하공간,061-659-3142,여수시청,2021-07-01
"대림사택 26동",공공용,"전라남도 여수시 망마로 82-10 (신기동, 대림산업제2사택)",전라남도 여수시 신기동 138,34.7573583739,127.6700787711,102,124,Y,아파트 지하공간,061-659-3142,여수시청,2021-07-01
"대림사택 27동",공공용,"전라남도 여수시 망마로 82-10 (신기동, 대림산업제2사택)",전라남도 여수시 신기동 138,34.7573583739,127.6700787711,152,184,Y,아파트 지하공간,061-659-3142,여수시청,2021-07-01
"부영아파트 301동",공공용,"전라남도 여수시 선소로 72-13 (신기동, 신기부영3단지)",전라남도 여수시 신기동 137,34.7581831480,127.6699321986,277,336,Y,아파트 지하공간,061-659-3142,여수시청,2021-07-01
"부영아파트 302동",공공용,"전라남도 여수시 선소로 72-13 (신기동, 신기부영3단지)",전라남도 여수시 신기동 137,34.7581831480,127.6699321986,135,164,Y,아파트 지하공간,061-659-3142,여수시청,2021-07-01
"부영아파트 303동",공공용,"전라남도 여수시 선소로 72-13 (신기동, 신기부영3단지)",전라남도 여수시 신기동 137,34.7581831480,127.6699321986,205,248,Y,아파트 지하공간,061-659-3142,여수시청,2021-07-01
"부영아파트 304동",공공용,"전라남도 여수시 선소로 72-13 (신기동, 신기부영3단지)",전라남도 여수시 신기동 137,34.7581831480,127.6699321986,254,308,Y,아파트 지하공간,061-659-3142,여수시청,2021-07-01
"부영아파트 305동",공공용,"전라남도 여수시 선소로 72-13 (신기동, 신기부영3단지)",전라남도 여수시 신기동 137,34.7581831480,127.6699321986,205,248,Y,아파트 지하공간,061-659-3142,여수시청,2021-07-01
"부영아파트 306동",공공용,"전라남도 여수시 선소로 72-13 (신기동, 신기부영3단지)",전라남도 여수시 신기동 137,34.7581831480,127.6699321986,505,612,Y,아파트 지하공간,061-659-3142,여수시청,2021-07-01
"부영아파트 307동",공공용,"전라남도 여수시 선소로 72-13 (신기동, 신기부영3단지)",전라남도 여수시 신기동 137,34.7581831480,127.6699321986,135,164,Y,아파트 지하공간,061-659-3142,여수시청,2021-07-01
"부영아파트 308동",공공용,"전라남도 여수시 선소로 72-13 (신기동, 신기부영3단지)",전라남도 여수시 신기동 137,34.7581831480,127.6699321986,182,221,Y,아파트 지하공간,061-659-3142,여수시청,2021-07-01
"부영아파트 309동",공공용,"전라남도 여수시 선소로 72-13 (신기동, 신기부영3단지)",전라남도 여수시 신기동 137,34.7581831480,127.6699321986,182,221,Y,아파트 지하공간,061-659-3142,여수시청,2021-07-01
"부영아파트 310동",공공용,"전라남도 여수시 선소로 72-14 (신기동, 신기부영3단지)",전라남도 여수시 신기동 139,34.7569637884,127.6671975630,376,456,Y,아파트 지하공간,061-659-3142,여수시청,2021-07-01
"부영아파트 311동",공공용,"전라남도 여수시 선소로 72-14 (신기동, 신기부영3단지)",전라남도 여수시 신기동 139,34.7569637884,127.6671975630,158,192,Y,아파트 지하공간,061-659-3142,여수시청,2021-07-01
"부영아파트 312동",공공용,"전라남도 여수시 선소로 72-14 (신기동, 신기부영3단지)",전라남도 여수시 신기동 139,34.7569637884,127.6671975630,224,272,Y,아파트 지하공간,061-659-3142,여수시청,2021-07-01
"신기주공3단지 301동",공공용,"전라남도 여수시 신기북7길 60 (신기동, 신기주공3단지)",전라남도 여수시 신기동 6,34.7627619652,127.6808059587,217,263,Y,아파트 지하공간,061-659-3142,여수시청,2021-07-01
"신기주공3단지 302동",공공용,"전라남도 여수시 신기북7길 60 (신기동, 신기주공3단지)",전라남도 여수시 신기동 6,34.7627619652,127.6808059587,217,263,Y,아파트 지하공간,061-659-3142,여수시청,2021-07-01
"신기주공3단지 303동",공공용,"전라남도 여수시 신기북7길 60 (신기동, 신기주공3단지)",전라남도 여수시 신기동 6,34.7627619652,127.6808059587,219,265,Y,아파트 지하공간,061-659-3142,여수시청,2021-07-01
"신기주공3단지 304동",공공용,전라남도 여수시 신기북7길 60 (신기동),전라남도 여수시 신기동 6,34.7627619652,127.6808059587,217,263,Y,아파트 지하공간,061-659-3142,여수시청,2021-07-01
"신기주공3단지 305동",공공용,전라남도 여수시 신기북7길 60 (신기동),전라남도 여수시 신기동 6,34.7627619652,127.6808059587,219,265,Y,아파트 지하공간,061-659-3142,여수시청,2021-07-01
"신화아파트 1동",공공용,"전라남도 여수시 선소로 72-28 (신기동, 신화아파트)",전라남도 여수시 신기동 140,34.7567591436,127.6681560555,168,204,Y,아파트 지하공간,061-659-3142,여수시청,2021-07-01
"신화아파트 2동",공공용,"전라남도 여수시 선소로 72-28 (신기동, 신화아파트)",전라남도 여수시 신기동 140,34.7567591436,127.6681560555,168,204,Y,아파트 지하공간,061-659-3142,여수시청,2021-07-01
"신화아파트 3동",공공용,전라남도 여수시 선소로 72-28 (학동),전라남도 여수시 학동 140,34.7567591436,127.6681560555,558,676,Y,아파트 지하공간,061-659-3142,여수시청,2021-07-01
"신화아파트 4동",공공용,"전라남도 여수시 선소로 72-28 (신기동, 신화아파트)",전라남도 여수시 신기동 140,34.7567591436,127.6681560555,389,471,Y,아파트 지하공간,061-659-3142,여수시청,2021-07-01
"신화아파트 5동",공공용,"전라남도 여수시 선소로 72-28 (신기동, 신화아파트)",전라남도 여수시 신기동 140,34.7567591436,127.6681560555,512,620,Y,아파트 지하공간,061-659-3142,여수시청,2021-07-01
"우림필유 101동",공공용,"전라남도 여수시 여천체육공원길 52 (신기동, 신기동 우림필유아파트)",전라남도 여수시 신기동 75,34.7591928422,127.6760735810,717,869,Y,아파트 지하공간,061-659-3142,여수시청,2021-07-01
"우림필유 105동",공공용,"전라남도 여수시 여천체육공원길 52 (신기동, 신기동 우림필유아파트)",전라남도 여수시 신기동 75,34.7591928422,127.6760735810,717,869,Y,아파트 지하공간,061-659-3142,여수시청,2021-07-01
"우미타운 101동",공공용,"전라남도 여수시 여천체육공원길 23 (시전동, 우미타운)",전라남도 여수시 시전동 243,34.7622940554,127.6773463291,727,882,Y,아파트 지하공간,061-659-3142,여수시청,2021-07-01
"우미타운 102동 지하1층",공공용,"전라남도 여수시 여천체육공원길 23 (시전동, 우미타운)",전라남도 여수시 시전동 243,34.7622940554,127.6773463291,771,934,Y,아파트 지하공간,061-659-3142,여수시청,2021-07-01
"우미타운 103동",공공용,"전라남도 여수시 여천체육공원길 23 (시전동, 우미타운)",전라남도 여수시 시전동 243,34.7622940554,127.6773463291,602,729,Y,아파트 지하공간,061-659-3142,여수시청,2021-07-01
"우미타운 104동",공공용,"전라남도 여수시 여천체육공원길 23 (시전동, 우미타운)",전라남도 여수시 시전동 243,34.7622940554,127.6773463291,847,1026,Y,아파트 지하공간,061-659-3142,여수시청,2021-07-01
"웅천부영1차 102동",공공용,"전라남도 여수시 웅천로 189, 102동 (웅천동, 여수웅천부영1차)",전라남도 여수시 웅천동 1851,34.7412485703,127.6839116959,1490,1806,Y,아파트 지하주차장,061-659-3142,여수시청,2021-07-01
"웅천부영1차 104동",공공용,"전라남도 여수시 웅천로 189 (웅천동, 여수웅천부영1차)",전라남도 여수시 웅천동 1851,34.7412485703,127.6839116959,679,823,Y,아파트 지하주차장,061-659-3142,여수시청,2021-07-01
"웅천부영1차 108동",공공용,"전라남도 여수시 웅천로 189 (웅천동, 여수웅천부영1차)",전라남도 여수시 웅천동 1851,34.7412485703,127.6839116959,1788,2167,Y,아파트 지하주차장,061-659-3142,여수시청,2021-07-01
"웅천부영1차 109동",공공용,"전라남도 여수시 웅천로 189 (웅천동, 여수웅천부영1차)",전라남도 여수시 웅천동 1851,34.7412485703,127.6839116959,346,419,Y,아파트 지하주차장,061-659-3142,여수시청,2021-07-01
"웅천부영2차 206동",공공용,"전라남도 여수시 웅천로 261 (웅천동, 여수웅천부영2차)",전라남도 여수시 웅천동 1846,34.7448842265,127.6869309715,1182,1433,Y,아파트 지하주차장,061-659-3142,여수시청,2021-07-01
"웅천부영2차 207동",공공용,"전라남도 여수시 웅천로 261 (웅천동, 여수웅천부영2차)",전라남도 여수시 웅천동 1846,34.7448842265,127.6869309715,1941,2353,Y,아파트 지하주차장,061-659-3142,여수시청,2021-07-01
"웅천부영2차 210동",공공용,"전라남도 여수시 웅천로 261 (웅천동, 여수웅천부영2차)",전라남도 여수시 웅천동 1846,34.7448842265,127.6869309715,455,552,Y,아파트 지하주차장,061-659-3142,여수시청,2021-07-01
"웅천부영2차 211동",공공용,"전라남도 여수시 웅천로 261 (웅천동, 여수웅천부영2차)",전라남도 여수시 웅천동 1846,34.7448842265,127.6869309715,3400,4121,Y,아파트 지하주차장,061-659-3142,여수시청,2021-07-01
"웅천부영2차 213동",공공용,"전라남도 여수시 웅천로 261 (웅천동, 여수웅천부영2차)",전라남도 여수시 웅천동 1846,34.7448842265,127.6869309715,692,839,Y,아파트 지하주차장,061-659-3142,여수시청,2021-07-01
"웅천부영2차 214동",공공용,"전라남도 여수시 웅천로 261 (웅천동, 여수웅천부영2차)",전라남도 여수시 웅천동 1846,34.7448842265,127.6869309715,528,640,Y,아파트 지하주차장,061-659-3142,여수시청,2021-07-01
"웅천부영2차 217동",공공용,"전라남도 여수시 웅천로 261, 217동동 (웅천동, 여수웅천부영2차)",전라남도 여수시 웅천동 1846,34.7448842265,127.6869309715,592,718,Y,아파트 지하주차장,061-659-3142,여수시청,2021-07-01
"웅천부영2차 218동",공공용,"전라남도 여수시 웅천로 261, 218동동 (웅천동, 여수웅천부영2차)",전라남도 여수시 웅천동 1846,34.7448842265,127.6869309715,592,718,Y,아파트 지하주차장,061-659-3142,여수시청,2021-07-01
"웅천부영2차 221동",공공용,"전라남도 여수시 웅천로 261, 221동동 (웅천동, 여수웅천부영2차)",전라남도 여수시 웅천동 1846,34.7448842265,127.6869309715,592,718,Y,아파트 지하주차장,061-659-3142,여수시청,2021-07-01
"웅천부영2차 222동",공공용,"전라남도 여수시 웅천로 261, 222동동 (웅천동, 여수웅천부영2차)",전라남도 여수시 웅천동 1846,34.7448842265,127.6869309715,592,718,Y,아파트 지하주차장,061-659-3142,여수시청,2021-07-01
"웅천부영3차",공공용,"전라남도 여수시 웅천로 291 (웅천동, 여수웅천부영3차)",전라남도 여수시 웅천동 1831,34.7465664180,127.6850262785,4858,5888,Y,아파트 지하주차장,061-659-3142,여수시청,2021-07-01
"웅천지웰 101동",공공용,"전라남도 여수시 예울마루로 30 (웅천동, 웅천지웰)",전라남도 여수시 웅천동 1683,34.7487247372,127.6717064512,1860,2255,Y,아파트 지하주차장,061-659-3142,여수시청,2021-07-01
"웅천지웰 111동",공공용,전라남도 여수시 예울마루로 30 (웅천동),전라남도 여수시 웅천동 1683,34.7487247372,127.6717064512,1860,2255,Y,아파트 지하주차장,061-659-3142,여수시청,2021-07-01
"웅천지웰 2차아파트 지하주차장",공공용,"전라남도 여수시 웅천중앙로 33 (웅천동, 웅천지웰2차)",전라남도 여수시 웅천동 1642,34.7495310579,127.6695258539,2107,2554,Y,아파트 지하주차장,061-659-3142,여수시청,2021-07-01
"웅천지웰 3차아파트",공공용,"전라남도 여수시 웅천중앙로 47 (웅천동, 신영웅천지웰3차)",전라남도 여수시 웅천동 1643,34.7496007322,127.6717526402,2306,2796,Y,아파트 지하주차장,061-659-3142,여수시청,2021-07-01
"제일모직사택 6동",공공용,"전라남도 여수시 새터로 6 (신기동, 롯데첨단소재(주))",전라남도 여수시 신기동 90,34.7581469830,127.6756131026,139,168,Y,아파트 지하공간,061-659-3142,여수시청,2021-07-01
"제일모직사택 10동",공공용,"전라남도 여수시 새터로 6 (신기동, 롯데첨단소재(주))",전라남도 여수시 신기동 90,34.7581469830,127.6756131026,149,181,Y,아파트 지하공간,061-659-3142,여수시청,2021-07-01
"여수웅천포레나1단지 지하주차장",공공용,"전라남도 여수시 웅천남8로 24(웅천동, 꿈에그린1단지)",전라남도 여수시 웅천동 1888-1,34.7386225240,127.6803385090,6845,7606,Y,아파트 지하공간,061-659-3142,여수시청,2021-07-01
"여수웅천포레나2단지 지하주차장",공공용,"전라남도 여수시 웅천남8로 23(웅천동, 꿈에그린2단지)",전라남도 여수시 웅천동 1889-1,34.7400271811,127.6783982494,6421,7134,Y,아파트 지하공간,061-659-3142,여수시청,2021-07-01
"여수웅천포레나 212동 지하주차장",공공용,"전라남도 여수시 웅천남8로 23(웅천동, 꿈에그린2단지)",전라남도 여수시 웅천동 1889-1,34.7400271811,127.6783982494,6218,6909,Y,아파트 지하공간,061-659-3142,여수시청,2021-07-01
"포레나여수웅천더테라스 1단지 지하주차장",공공용,"전라남도 여수시 웅천남1로 100(웅천동, 웅천더테라스 1단지)",전라남도 여수시 웅천동 1867-1,34.7413759341,127.6788855964,8907,9897,Y,아파트 지하공간,061-659-3142,여수시청,2021-07-01
"포레나여수웅천더테라스 2단지 지하주차장",공공용,"전라남도 여수시 웅천남1로 99(웅천동, 웅천더테라스 2단지)",전라남도 여수시 웅천동 1866-1,34.7420924661,127.6789808919,19696,21884,Y,아파트 지하공간,061-659-3142,여수시청,2021-07-01
"여수웅천사랑으로부영5차 지하주차장",공공용,"전라남도 여수시 웅천로 190(웅천동, 웅천사랑으로 부영5차)",전라남도 여수시 웅천동 1853,34.7398117512,127.6832993872,5742,6380,Y,아파트 지하공간,061-659-3142,여수시청,2021-07-01
GS칼텍스사택,공공용,"전라남도 여수시 소호로 449 (소호동, 지에스칼텍스쌍봉사택)",전라남도 여수시 소호동 295,34.7424241926,127.6479534656,182,221,Y,아파트 지하공간,061-659-3142,여수시청,2021-07-01
LG안산사택,공공용,전라남도 여수시 소호로 619 (안산동),전라남도 여수시 안산동 28,34.7569690182,127.6532993056,169,205,Y,아파트 지하공간,061-659-3142,여수시청,2021-07-01
"부영2차아파트",공공용,"전라남도 여수시 소호로 659 (안산동, 부영맨션)",전라남도 여수시 안산동 441-1,34.7606595454,127.6556599735,3966,4807,Y,아파트 지하공간,061-659-3142,여수시청,2021-07-01
"부영여자고등학교",공공용,"전라남도 여수시 안산1길 172-9 (안산동, 부영여자고등학교)",전라남도 여수시 안산동 657-1,34.7586043072,127.6507121824,3744,4538,Y,교육시설,061-659-3142,여수시청,2021-07-01
"소호동 금호아파트",공공용,"전라남도 여수시 소호5길 22 (소호동, 금호아파트)",전라남도 여수시 소호동 353,34.7455950615,127.6509771805,3906,4735,Y,아파트 지하공간,061-659-3142,여수시청,2021-07-01
"소호초등학교",공공용,"전라남도 여수시 소호로 499 (소호동, 소호초등학교)",전라남도 여수시 소호동 153,34.7472445141,127.6543449287,1763,2137,Y,교육시설,061-659-3142,여수시청,2021-07-01
"쌍봉동 모아미래도 102동",공공용,"전라남도 여수시 안산1길 136 (안산동, 모아미래도아파트)",전라남도 여수시 안산동 658,34.7562570196,127.6522705449,1472,1784,Y,아파트 지하주차장,061-659-3142,여수시청,2021-07-01
"쌍봉동 모아미래도 103동",공공용,"전라남도 여수시 안산1길 136 (안산동, 모아미래도아파트)",전라남도 여수시 안산동 658,34.7562570196,127.6522705449,1472,1784,Y,아파트 지하주차장,061-659-3142,여수시청,2021-07-01
"쌍봉동 부영아파트 502동",공공용,전라남도 여수시 도원로 204 (안산동),전라남도 여수시 안산동 440,34.7594448720,127.6533194634,859,1041,Y,아파트 지하주차장,061-659-3142,여수시청,2021-07-01
"쌍봉동 부영아파트 503동",공공용,전라남도 여수시 도원로 204 (안산동),전라남도 여수시 안산동 440,34.7594448720,127.6533194634,859,1041,Y,아파트 지하주차장,061-659-3142,여수시청,2021-07-01
"쌍봉동 부영아파트 504동",공공용,"전라남도 여수시 도원로 204 (안산동, 부영아파트)",전라남도 여수시 안산동 440,34.7594448720,127.6533194634,859,1041,Y,아파트 지하주차장,061-659-3142,여수시청,2021-07-01
"쌍봉동 신동아파밀리에 101동",공공용,"전라남도 여수시 무선로 50 (학동, 신동아파밀리에아파트)",전라남도 여수시 학동 54,34.7662980609,127.6565963207,752,912,Y,아파트 지하주차장,061-659-3142,여수시청,2021-07-01
"쌍봉동 신동아파밀리에 102동",공공용,"전라남도 여수시 무선로 50 (학동, 신동아파밀리에아파트)",전라남도 여수시 학동 54,34.7662980609,127.6565963207,752,912,Y,아파트 지하주차장,061-659-3142,여수시청,2021-07-01
"쌍봉동 신동아파밀리에 103동",공공용,"전라남도 여수시 무선로 50 (학동, 신동아파밀리에아파트)",전라남도 여수시 학동 54,34.7662980609,127.6565963207,752,912,Y,아파트 지하주차장,061-659-3142,여수시청,2021-07-01
"쌍봉동 신동아파밀리에 107동",공공용,"전라남도 여수시 무선로 50 (학동, 신동아파밀리에아파트)",전라남도 여수시 학동 54,34.7662980609,127.6565963207,752,912,Y,아파트 지하주차장,061-659-3142,여수시청,2021-07-01
"쌍봉동 신동아파밀리에 108동",공공용,"전라남도 여수시 무선로 50 (학동, 신동아파밀리에아파트)",전라남도 여수시 학동 54,34.7662980609,127.6565963207,752,912,Y,아파트 지하주차장,061-659-3142,여수시청,2021-07-01
"쌍봉동 신동아파밀리에 112동",공공용,"전라남도 여수시 무선로 50 (학동, 신동아파밀리에아파트)",전라남도 여수시 학동 54,34.7662980609,127.6565963207,752,912,Y,아파트 지하주차장,061-659-3142,여수시청,2021-07-01
"쌍봉동 신동아파밀리에 116동",공공용,"전라남도 여수시 무선로 50 (학동, 신동아파밀리에아파트)",전라남도 여수시 학동 54,34.7662980609,127.6565963207,752,912,Y,아파트 지하주차장,061-659-3142,여수시청,2021-07-01
"쌍봉동 신동아파밀리에 120동",공공용,"전라남도 여수시 무선로 50 (학동, 신동아파밀리에아파트)",전라남도 여수시 학동 54,34.7662980609,127.6565963207,752,912,Y,아파트 지하주차장,061-659-3142,여수시청,2021-07-01
"쌍봉동 우미오션빌 101동",공공용,"전라남도 여수시 소호7길 28 (소호동, 우미오션빌)",전라남도 여수시 소호동 427,34.7412194680,127.6470721129,3906,4735,Y,아파트 지하주차장,061-659-3142,여수시청,2021-07-01
"쌍봉동 우미오션빌 102동",공공용,전라남도 여수시 소호7길 28 (소호동),전라남도 여수시 소호동 427,34.7412194680,127.6470721129,666,807,Y,아파트 지하주차장,061-659-3142,여수시청,2021-07-01
"쌍봉동 우미오션빌 103동",공공용,전라남도 여수시 소호7길 28 (소호동),전라남도 여수시 소호동 427,34.7412194680,127.6470721129,250,303,Y,아파트 지하주차장,061-659-3142,여수시청,2021-07-01
"쌍봉초등학교",공공용,"전라남도 여수시 흥국로 47 (학동, 쌍봉초등학교)",전라남도 여수시 학동 238,34.7641364890,127.6682968706,1166,1413,Y,교육시설,061-659-3142,여수시청,2021-07-01
"여수문화홀",공공용,"전라남도 여수시 시청로 1 (학동, 여수시청본청사)",전라남도 여수시 학동 100,34.7601484061,127.6615679502,2073,2513,Y,관공서,061-659-3142,여수시청,2021-07-01
"여수시청",공공용,"전라남도 여수시 시청로 1 (학동, 여수시청본청사)",전라남도 여수시 학동 100,34.7601484061,127.6615679502,594,720,Y,관공서,061-659-3142,여수시청,2021-07-01
"우미린아파트",공공용,"전라남도 여수시 장성1길 37 (안산동, 여수장성우미린아파트)",전라남도 여수시 안산동 727,34.7540016097,127.6523245637,1064,1290,Y,아파트 지하공간,061-659-3142,여수시청,2021-07-01
"한전사택",공공용,"전라남도 여수시 안산1길 186-32 (안산동, 한국전력여수사택아파트)",전라남도 여수시 안산동 437,34.7598076608,127.6523320008,198,240,Y,아파트 지하공간,061-659-3142,여수시청,2021-07-01
"한화석유사택",공공용,"전라남도 여수시 소호로 513 (소호동, 한화케미칼사택)",전라남도 여수시 소호동 126,34.7495950061,127.6532533564,1166,1413,Y,아파트 지하공간,061-659-3142,여수시청,2021-07-01
"여서동 경남아파트 101동",공공용,"전라남도 여수시 여서로 304 (여서동, 경남1차아파트)",전라남도 여수시 여서동 43-12,34.7523912750,127.7116337333,245,297,Y,아파트 지하공간,061-659-3142,여수시청,2021-07-01
"여서동 경남아파트 102동",공공용,"전라남도 여수시 여서로 304 (여서동, 경남아파트)",전라남도 여수시 여서동 43-12,34.7523912750,127.7116337333,245,297,Y,아파트 지하공간,061-659-3142,여수시청,2021-07-01
"여서동 경남아파트 103동",공공용,"전라남도 여수시 여서로 304 (여서동, 경남1차아파트)",전라남도 여수시 여서동 43-12,34.7523912750,127.7116337333,245,297,Y,아파트 지하공간,061-659-3142,여수시청,2021-07-01
"여서동 경남아파트 105동",공공용,"전라남도 여수시 여서로 304 (여서동, 경남1차아파트)",전라남도 여수시 여서동 43-12,34.7523912750,127.7116337333,245,297,Y,아파트 지하공간,061-659-3142,여수시청,2021-07-01
"여서동 경남아파트 106동",공공용,"전라남도 여수시 여서로 304 (여서동, 경남1차아파트)",전라남도 여수시 여서동 43-12,34.7523912750,127.7116337333,245,297,Y,아파트 지하공간,061-659-3142,여수시청,2021-07-01
"여서동 경남아파트 107동",공공용,"전라남도 여수시 여서로 304 (여서동, 경남1차아파트)",전라남도 여수시 여서동 43-12,34.7523912750,127.7116337333,245,297,Y,아파트 지하공간,061-659-3142,여수시청,2021-07-01
"여서동 경남아파트 108동",공공용,"전라남도 여수시 장군산길 10 (여서동, 경남2차아파트)",전라남도 여수시 여서동 43-3,34.7538866278,127.7103321682,398,482,Y,아파트 지하공간,061-659-3142,여수시청,2021-07-01
"여서동 경남아파트 109동",공공용,"전라남도 여수시 장군산길 10 (여서동, 경남2차아파트)",전라남도 여수시 여서동 43-3,34.7538866278,127.7103321682,398,482,Y,아파트 지하공간,061-659-3142,여수시청,2021-07-01
"여서동 경남아파트 110동",공공용,"전라남도 여수시 장군산길 10 (여서동, 경남2차아파트)",전라남도 여수시 여서동 43-3,34.7538866278,127.7103321682,398,482,Y,아파트 지하공간,061-659-3142,여수시청,2021-07-01
"여서동 경남아파트 111동",공공용,"전라남도 여수시 장군산길 10 (여서동, 경남2차아파트)",전라남도 여수시 여서동 43-3,34.7538866278,127.7103321682,555,673,Y,아파트 지하공간,061-659-3142,여수시청,2021-07-01
"여서동 경남아파트 112동",공공용,"전라남도 여수시 장군산길 10 (여서동, 경남2차아파트)",전라남도 여수시 여서동 43-3,34.7538866278,127.7103321682,398,482,Y,아파트 지하공간,061-659-3142,여수시청,2021-07-01
"여서동 금호아파트 1동",공공용,"전라남도 여수시 여서2로 20 (여서동, 금호아파트)",전라남도 여수시 여서동 373,34.7498682643,127.7054061819,261,316,Y,아파트 지하공간,061-659-3142,여수시청,2021-07-01
"여서동 금호아파트 2동",공공용,"전라남도 여수시 여서2로 20 (여서동, 금호아파트)",전라남도 여수시 여서동 373,34.7498682643,127.7054061819,261,316,Y,아파트 지하공간,061-659-3142,여수시청,2021-07-01
"여서동 금호아파트 3동",공공용,"전라남도 여수시 여서2로 20 (여서동, 금호아파트)",전라남도 여수시 여서동 373,34.7498682643,127.7054061819,261,316,Y,아파트 지하공간,061-659-3142,여수시청,2021-07-01
"여서동 금호아파트 5동",공공용,"전라남도 여수시 여서2로 20 (여서동, 금호아파트)",전라남도 여수시 여서동 373,34.7498682643,127.7054061819,261,316,Y,아파트 지하공간,061-659-3142,여수시청,2021-07-01
"여서동 금호아파트 6동",공공용,"전라남도 여수시 여서2로 20 (여서동, 금호아파트)",전라남도 여수시 여서동 373,34.7498682643,127.7054061819,261,316,Y,아파트 지하공간,061-659-3142,여수시청,2021-07-01
"여서동 부영아파트 501동",공공용,"전라남도 여수시 여서2로 55 (여서동, 부영5차아파트)",전라남도 여수시 여서동 243,34.7532587758,127.7079535840,159,193,Y,아파트 지하공간,061-659-3142,여수시청,2021-07-01
"여서동 부영아파트 502동",공공용,"전라남도 여수시 여서2로 55 (여서동, 부영5차아파트)",전라남도 여수시 여서동 243,34.7532587758,127.7079535840,159,193,Y,아파트 지하공간,061-659-3142,여수시청,2021-07-01
"여서동 부영아파트 503동",공공용,"전라남도 여수시 여서2로 55 (여서동, 부영5차아파트)",전라남도 여수시 여서동 243,34.7532587758,127.7079535840,159,193,Y,아파트 지하공간,061-659-3142,여수시청,2021-07-01
"여서동 부영아파트 504동",공공용,"전라남도 여수시 여서2로 55 (여서동, 부영5차아파트)",전라남도 여수시 여서동 243,34.7532587758,127.7079535840,159,193,Y,아파트 지하공간,061-659-3142,여수시청,2021-07-01
"여서동 부영아파트 505동",공공용,"전라남도 여수시 여서2로 55 (여서동, 부영5차아파트)",전라남도 여수시 여서동 243,34.7532587758,127.7079535840,159,193,Y,아파트 지하공간,061-659-3142,여수시청,2021-07-01
"여서동 부영아파트 601동",공공용,"전라남도 여수시 여서로 181 (여서동, 부영아파트6차)",전라남도 여수시 여서동 479,34.7498178737,127.7025687235,512,621,Y,아파트 지하공간,061-659-3142,여수시청,2021-07-01
"여서동 부영아파트 602동",공공용,"전라남도 여수시 여서로 181 (여서동, 부영아파트6차)",전라남도 여수시 여서동 479,34.7498178737,127.7025687235,512,621,Y,아파트 지하공간,061-659-3142,여수시청,2021-07-01
"여서동 부영아파트 603동",공공용,"전라남도 여수시 여서로 181 (여서동, 부영아파트6차)",전라남도 여수시 여서동 479,34.7498178737,127.7025687235,512,621,Y,아파트 지하공간,061-659-3142,여수시청,2021-07-01
"여서동 부영아파트 604동",공공용,"전라남도 여수시 여서로 181 (여서동, 부영아파트6차)",전라남도 여수시 여서동 479,34.7498178737,127.7025687235,512,621,Y,아파트 지하공간,061-659-3142,여수시청,2021-07-01
"여서동 부영아파트 605동",공공용,"전라남도 여수시 여서로 181 (여서동, 부영아파트6차)",전라남도 여수시 여서동 479,34.7498178737,127.7025687235,512,621,Y,아파트 지하공간,061-659-3142,여수시청,2021-07-01
"여서동 부영아파트 701동",공공용,"전라남도 여수시 여서로 188 (여서동, 부영7차아파트)",전라남도 여수시 여서동 496-1,34.7485691658,127.7039896387,482,584,Y,아파트 지하공간,061-659-3142,여수시청,2021-07-01
"여서동 부영아파트 702동",공공용,"전라남도 여수시 여서로 188 (여서동, 부영7차아파트)",전라남도 여수시 여서동 496-1,34.7485691658,127.7039896387,482,584,Y,아파트 지하공간,061-659-3142,여수시청,2021-07-01
"여서동 부영아파트 703동",공공용,"전라남도 여수시 여서로 188 (여서동, 부영7차아파트)",전라남도 여수시 여서동 496-1,34.7485691658,127.7039896387,482,584,Y,아파트 지하공간,061-659-3142,여수시청,2021-07-01
"여서동 부영아파트 704동",공공용,"전라남도 여수시 여서로 188 (여서동, 부영7차아파트)",전라남도 여수시 여서동 496-1,34.7485691658,127.7039896387,482,584,Y,아파트 지하공간,061-659-3142,여수시청,2021-07-01
"여서동 부영아파트 705동",공공용,"전라남도 여수시 여서로 188 (여서동, 부영7차아파트)",전라남도 여수시 여서동 496-1,34.7485691658,127.7039896387,482,584,Y,아파트 지하공간,061-659-3142,여수시청,2021-07-01
"여서동 주공아파트 101동",공공용,"전라남도 여수시 여서2로 39 (여서동, 여서주공1단지아파트)",전라남도 여수시 여서동 241,34.7518992706,127.7062027861,111,135,Y,아파트 지하공간,061-659-3142,여수시청,2021-07-01
"여서동 주공아파트 102동",공공용,"전라남도 여수시 여서2로 39 (여서동, 여서주공1단지아파트)",전라남도 여수시 여서동 241,34.7518992706,127.7062027861,111,135,Y,아파트 지하공간,061-659-3142,여수시청,2021-07-01
"여서동 주공아파트 103동",공공용,"전라남도 여수시 여서2로 39 (여서동, 여서주공1단지아파트)",전라남도 여수시 여서동 241,34.7518992706,127.7062027861,111,135,Y,아파트 지하공간,061-659-3142,여수시청,2021-07-01
"여서동 주공아파트 104동",공공용,"전라남도 여수시 여서2로 39 (여서동, 여서주공1단지아파트)",전라남도 여수시 여서동 241,34.7518992706,127.7062027861,111,135,Y,아파트 지하공간,061-659-3142,여수시청,2021-07-01
"여서동 주공아파트 105동",공공용,"전라남도 여수시 여서2로 39 (여서동, 여서주공1단지아파트)",전라남도 여수시 여서동 241,34.7518992706,127.7062027861,111,135,Y,아파트 지하공간,061-659-3142,여수시청,2021-07-01
"여서동 주공아파트 106동",공공용,"전라남도 여수시 여서2로 39 (여서동, 여서주공1단지아파트)",전라남도 여수시 여서동 241,34.7518992706,127.7062027861,111,135,Y,아파트 지하공간,061-659-3142,여수시청,2021-07-01
"여서동 주공아파트 107동",공공용,"전라남도 여수시 여서2로 39 (여서동, 여서주공1단지아파트)",전라남도 여수시 여서동 241,34.7518992706,127.7062027861,111,135,Y,아파트 지하공간,061-659-3142,여수시청,2021-07-01
"여서동 주공아파트 108동",공공용,"전라남도 여수시 여서2로 39 (여서동, 여서주공1단지아파트)",전라남도 여수시 여서동 241,34.7518992706,127.7062027861,111,135,Y,아파트 지하공간,061-659-3142,여수시청,2021-07-01
"여서동 주공아파트 109동",공공용,"전라남도 여수시 여서2로 39 (여서동, 여서주공1단지아파트)",전라남도 여수시 여서동 241,34.7518992706,127.7062027861,111,135,Y,아파트 지하공간,061-659-3142,여수시청,2021-07-01
"여서동 주공아파트 110동",공공용,"전라남도 여수시 여서2로 39 (여서동, 여서주공1단지아파트)",전라남도 여수시 여서동 241,34.7518992706,127.7062027861,111,135,Y,아파트 지하공간,061-659-3142,여수시청,2021-07-01
"여서동 주공아파트 201동",공공용,"전라남도 여수시 여서2로 40 (여서동, 여서주공2단지아파트)",전라남도 여수시 여서동 370,34.7509554502,127.7067256236,111,135,Y,아파트 지하공간,061-659-3142,여수시청,2021-07-01
"여서동 주공아파트 202동",공공용,"전라남도 여수시 여서2로 40 (여서동, 여서주공2단지아파트)",전라남도 여수시 여서동 370,34.7509554502,127.7067256236,111,135,Y,아파트 지하공간,061-659-3142,여수시청,2021-07-01
"여서동 주공아파트 203동",공공용,"전라남도 여수시 여서2로 40 (여서동, 여서주공2단지아파트)",전라남도 여수시 여서동 370,34.7509554502,127.7067256236,111,135,Y,아파트 지하공간,061-659-3142,여수시청,2021-07-01
"여서동 주공아파트 204동",공공용,"전라남도 여수시 여서2로 40 (여서동, 여서주공2단지아파트)",전라남도 여수시 여서동 370,34.7509554502,127.7067256236,111,135,Y,아파트 지하공간,061-659-3142,여수시청,2021-07-01
"여서동 주공아파트 205동",공공용,"전라남도 여수시 여서2로 40 (여서동, 여서주공2단지아파트)",전라남도 여수시 여서동 370,34.7509554502,127.7067256236,111,135,Y,아파트 지하공간,061-659-3142,여수시청,2021-07-01
"여서동 주공아파트 206동",공공용,"전라남도 여수시 여서2로 40 (여서동, 여서주공2단지아파트)",전라남도 여수시 여서동 370,34.7509554502,127.7067256236,111,135,Y,아파트 지하공간,061-659-3142,여수시청,2021-07-01
"여서동 주공아파트 207동",공공용,"전라남도 여수시 여서2로 40 (여서동, 여서주공2단지아파트)",전라남도 여수시 여서동 370,34.7509554502,127.7067256236,111,135,Y,아파트 지하공간,061-659-3142,여수시청,2021-07-01
"여서동 주공아파트 208동",공공용,"전라남도 여수시 여서2로 40 (여서동, 여서주공2단지아파트)",전라남도 여수시 여서동 370,34.7509554502,127.7067256236,111,135,Y,아파트 지하공간,061-659-3142,여수시청,2021-07-01
"여서동 주공아파트 209동",공공용,"전라남도 여수시 여서2로 40 (여서동, 여서주공2단지아파트)",전라남도 여수시 여서동 370,34.7509554502,127.7067256236,111,135,Y,아파트 지하공간,061-659-3142,여수시청,2021-07-01
"여서동 주공아파트 210동",공공용,"전라남도 여수시 여서2로 40 (여서동, 여서주공2단지아파트)",전라남도 여수시 여서동 370,34.7509554502,127.7067256236,111,135,Y,아파트 지하공간,061-659-3142,여수시청,2021-07-01
"여서동 현대건설아파트 101동",공공용,"전라남도 여수시 여서로 134 (여서동, 현대건설아파트)",전라남도 여수시 여서동 489-1,34.7480301166,127.6970658427,1107,1342,Y,아파트 지하공간,061-659-3142,여수시청,2021-07-01
"여서동 현대건설아파트 103동",공공용,"전라남도 여수시 여서로 134 (여서동, 현대건설아파트)",전라남도 여수시 여서동 489-1,34.7480301166,127.6970658427,1107,1342,Y,아파트 지하공간,061-659-3142,여수시청,2021-07-01
"여서동 현대걸설아파트 107동",공공용,"전라남도 여수시 여서로 134 (여서동, 현대건설아파트)",전라남도 여수시 여서동 489-1,34.7480301166,127.6970658427,1107,1342,Y,아파트 지하공간,061-659-3142,여수시청,2021-07-01
"여서동 현대산업아파트 301동",공공용,"전라남도 여수시 여문2로 197 (여서동, 현대산업3차아파트)",전라남도 여수시 여서동 484,34.7492753211,127.7045661344,726,880,Y,아파트 지하공간,061-659-3142,여수시청,2021-07-01
"여서동 현대아파트 101동",공공용,"전라남도 여수시 여문2로 191 (여서동, 현대산업아파트)",전라남도 여수시 여서동 483,34.7504590573,127.7034552581,384,465,Y,아파트 지하공간,061-659-3142,여수시청,2021-07-01
"여서동 현대아파트 102동",공공용,"전라남도 여수시 여문2로 191 (여서동, 현대산업아파트)",전라남도 여수시 여서동 483,34.7504590573,127.7034552581,384,465,Y,아파트 지하공간,061-659-3142,여수시청,2021-07-01
"여서동 현대아파트 201동",공공용,"전라남도 여수시 여문2로 191 (여서동, 현대산업아파트)",전라남도 여수시 여서동 483,34.7504590573,127.7034552581,384,465,Y,아파트 지하공간,061-659-3142,여수시청,2021-07-01
"여서동 현대아파트 301동",공공용,"전라남도 여수시 여문2로 197 (여서동, 현대산업3차아파트)",전라남도 여수시 여서동 484,34.7492753211,127.7045661344,726,880,Y,아파트 지하공간,061-659-3142,여수시청,2021-07-01
"여수지방항만청",공공용,"전라남도 여수시 여서1로 107 (여서동, 여수지방해양수산청)",전라남도 여수시 여서동 222,34.7542146891,127.7093041001,707,857,Y,관공서,061-659-3142,여수시청,2021-07-01
"도원초등학교",공공용,"전라남도 여수시 선원4길 38 (선원동, 도원초등학교)",전라남도 여수시 선원동 1325-1,34.7648250232,127.6504955700,1230,1491,Y,교육시설,061-659-3142,여수시청,2021-07-01
"무선중학교",공공용,"전라남도 여수시 대통1길 29 (화장동, 무선중학교)",전라남도 여수시 화장동 848,34.7771634782,127.6411765319,777,942,Y,아파트 지하주차장,061-659-3142,여수시청,2021-07-01
"무선초등학교",공공용,"전라남도 여수시 화산2길 31 (화장동, 무선초등학교)",전라남도 여수시 화장동 776,34.7723243708,127.6460959319,1319,1599,Y,교육시설,061-659-3142,여수시청,2021-07-01
"민방위 상설 교욱장",공공용,"전라남도 여수시 무선로 71 (선원동, 여선중학교)",전라남도 여수시 선원동 136,34.7682290592,127.6542641835,797,966,Y,교육시설,061-659-3142,여수시청,2021-07-01
"여수석유화학고등학교",공공용,"전라남도 여수시 대통1길 45 (화장동, 여수석유화학고등학교)",전라남도 여수시 화장동 834,34.7787279288,127.6431612086,1174,1422,Y,교육시설,061-659-3142,여수시청,2021-07-01
"여천고등학교",공공용,"전라남도 여수시 가곡길 63 (선원동, 여천고등학교)",전라남도 여수시 선원동 54,34.7714232141,127.6624054307,1570,1903,Y,교육시설,061-659-3142,여수시청,2021-07-01
"여천동 금호아파트 1동",공공용,"전라남도 여수시 시청로 84 (선원동, 금호아파트)",전라남도 여수시 선원동 53,34.7697506023,127.6633455829,450,545,Y,아파트 지하공간,061-659-3142,여수시청,2021-07-01
"여천동 금호아파트 2동",공공용,"전라남도 여수시 시청로 84 (선원동, 금호아파트)",전라남도 여수시 선원동 53,34.7697506023,127.6633455829,529,641,Y,아파트 지하공간,061-659-3142,여수시청,2021-07-01
"여천동 금호아파트 3동",공공용,"전라남도 여수시 시청로 84 (선원동, 금호아파트)",전라남도 여수시 선원동 53,34.7697506023,127.6633455829,502,609,Y,아파트 지하공간,061-659-3142,여수시청,2021-07-01
"여천동 금호아파트 5동",공공용,"전라남도 여수시 시청로 84 (선원동, 금호아파트)",전라남도 여수시 선원동 53,34.7697506023,127.6633455829,502,609,Y,아파트 지하공간,061-659-3142,여수시청,2021-07-01
"여천동 금호아파트 6동",공공용,"전라남도 여수시 시청로 84 (선원동, 금호아파트)",전라남도 여수시 선원동 53,34.7697506023,127.6633455829,555,673,Y,아파트 지하공간,061-659-3142,여수시청,2021-07-01
"여천동 금호아파트 7동",공공용,"전라남도 여수시 시청로 84 (선원동, 금호아파트)",전라남도 여수시 선원동 53,34.7697506023,127.6633455829,575,697,Y,아파트 지하공간,061-659-3142,여수시청,2021-07-01
"여천동 금호아파트 8동",공공용,"전라남도 여수시 시청로 84 (선원동, 금호아파트)",전라남도 여수시 선원동 53,34.7697506023,127.6633455829,334,405,Y,아파트 지하공간,061-659-3142,여수시청,2021-07-01
"여천동 남양아파트 201동",공공용,"전라남도 여수시 무선2길 27 (선원동, 남양아파트)",전라남도 여수시 선원동 1256,34.7708522904,127.6514596881,519,629,Y,아파트 지하공간,061-659-3142,여수시청,2021-07-01
"여천동 남양아파트 202동",공공용,"전라남도 여수시 무선2길 27 (선원동, 남양아파트)",전라남도 여수시 선원동 1256,34.7708522904,127.6514596881,605,733,Y,아파트 지하공간,061-659-3142,여수시청,2021-07-01
"여천동 남양아파트 203동",공공용,"전라남도 여수시 무선2길 27 (선원동, 남양아파트)",전라남도 여수시 선원동 1256,34.7708522904,127.6514596881,1021,1238,Y,아파트 지하공간,061-659-3142,여수시청,2021-07-01
"여천동 남양아파트 204동",공공용,"전라남도 여수시 무선2길 27 (선원동, 남양아파트)",전라남도 여수시 선원동 1256,34.7708522904,127.6514596881,1021,1238,Y,아파트 지하공간,061-659-3142,여수시청,2021-07-01
"여천동 남양아파트 205동",공공용,"전라남도 여수시 무선2길 27 (선원동, 남양아파트)",전라남도 여수시 선원동 1256,34.7708522904,127.6514596881,337,409,Y,아파트 지하공간,061-659-3142,여수시청,2021-07-01
"여천동 대주아파트",공공용,"전라남도 여수시 무선1길 20 (선원동, 대주아파트)",전라남도 여수시 선원동 1311-2,34.7708802849,127.6541231085,800,970,Y,아파트 지하공간,061-659-3142,여수시청,2021-07-01
"여천동 부영아파트 206동",공공용,"전라남도 여수시 도원로 215 (선원동, 부영맨션)",전라남도 여수시 선원동 1116,34.7613357300,127.6555175388,833,1010,Y,아파트 지하공간,061-659-3142,여수시청,2021-07-01
"여천동 우미이노스빌아파트 202동",공공용,"전라남도 여수시 선원4길 67 (선원동, 우미이노스빌)",전라남도 여수시 선원동 1341,34.7628835339,127.6508606665,514,623,Y,아파트 지하공간,061-659-3142,여수시청,2021-07-01
"여천동 우미이노스빌아파트 201동",공공용,"전라남도 여수시 선원4길 67 (선원동, 우미이노스빌)",전라남도 여수시 선원동 1341,34.7628835339,127.6508606665,343,416,Y,아파트 지하공간,061-659-3142,여수시청,2021-07-01
"여천동 우미이노스빌아파트 203동",공공용,"전라남도 여수시 선원4길 67 (선원동, 우미이노스빌)",전라남도 여수시 선원동 1341,34.7628835339,127.6508606665,452,548,Y,아파트 지하공간,061-659-3142,여수시청,2021-07-01
"여천동 우미이노스빌아파트 204동",공공용,"전라남도 여수시 선원4길 67 (선원동, 우미이노스빌)",전라남도 여수시 선원동 1341,34.7628835339,127.6508606665,387,469,Y,아파트 지하공간,061-659-3142,여수시청,2021-07-01
"여천동 우미이노스빌아파트 205동",공공용,전라남도 여수시 선원4길 67 (선원동),전라남도 여수시 선원동 1341,34.7628835339,127.6508606665,612,742,Y,아파트 지하공간,061-659-3142,여수시청,2021-07-01
"여천동 우미이노스빌아파트 206동",공공용,"전라남도 여수시 선원4길 67 (선원동, 우미이노스빌)",전라남도 여수시 선원동 1341,34.7628835339,127.6508606665,669,811,Y,아파트 지하공간,061-659-3142,여수시청,2021-07-01
"여천동 주공아파트 101동",공공용,"전라남도 여수시 무선2길 39 (화장동, 무선주공아파트)",전라남도 여수시 화장동 740,34.7724293756,127.6494855680,374,453,Y,아파트 지하공간,061-659-3142,여수시청,2021-07-01
"여천동 주공아파트 102동",공공용,"전라남도 여수시 무선2길 39 (화장동, 무선주공아파트)",전라남도 여수시 화장동 740,34.7724293756,127.6494855680,426,517,Y,아파트 지하공간,061-659-3142,여수시청,2021-07-01
"여천동 주공아파트 201동",공공용,"전라남도 여수시 무선2길 39 (화장동, 무선주공아파트)",전라남도 여수시 화장동 740,34.7724293756,127.6494855680,582,705,Y,아파트 지하공간,061-659-3142,여수시청,2021-07-01
"여천동 주공아파트 202동",공공용,"전라남도 여수시 무선2길 39 (화장동, 무선주공아파트)",전라남도 여수시 화장동 740,34.7724293756,127.6494855680,423,513,Y,아파트 지하공간,061-659-3142,여수시청,2021-07-01
"여천동 주공아파트 203동",공공용,"전라남도 여수시 무선2길 39 (화장동, 무선주공아파트)",전라남도 여수시 화장동 740,34.7724293756,127.6494855680,423,513,Y,아파트 지하공간,061-659-3142,여수시청,2021-07-01
"여천동 주공아파트 204동",공공용,"전라남도 여수시 무선2길 39 (화장동, 무선주공아파트)",전라남도 여수시 화장동 740,34.7724293756,127.6494855680,423,513,Y,아파트 지하공간,061-659-3142,여수시청,2021-07-01
"여천동 주공아파트 205동",공공용,"전라남도 여수시 무선2길 39 (화장동, 무선주공아파트)",전라남도 여수시 화장동 740,34.7724293756,127.6494855680,423,513,Y,아파트 지하공간,061-659-3142,여수시청,2021-07-01
"여천동 주공아파트 206동",공공용,"전라남도 여수시 무선2길 39 (화장동, 무선주공아파트)",전라남도 여수시 화장동 740,34.7724293756,127.6494855680,278,337,Y,아파트 지하공간,061-659-3142,여수시청,2021-07-01
"여천동 주공아파트 207동",공공용,"전라남도 여수시 무선2길 39 (화장동, 무선주공아파트)",전라남도 여수시 화장동 740,34.7724293756,127.6494855680,423,513,Y,아파트 지하공간,061-659-3142,여수시청,2021-07-01
"여천동 주공아파트 208동",공공용,"전라남도 여수시 무선2길 39 (화장동, 무선주공아파트)",전라남도 여수시 화장동 740,34.7724293756,127.6494855680,278,337,Y,아파트 지하공간,061-659-3142,여수시청,2021-07-01
"여천동 주공아파트 209동",공공용,"전라남도 여수시 무선2길 39 (화장동, 무선주공아파트)",전라남도 여수시 화장동 740,34.7724293756,127.6494855680,278,337,Y,아파트 지하공간,061-659-3142,여수시청,2021-07-01
"여천제일교회",공공용,"전라남도 여수시 무선3길 23 (선원동, 여천제일교회)",전라남도 여수시 선원동 1311-1,34.7707290961,127.6531875032,1779,2156,Y,종교시설,061-659-3142,여수시청,2021-07-01
"여천중학교",공공용,"전라남도 여수시 선원1길 26 (선원동, 여천중학교)",전라남도 여수시 선원동 135,34.7677162165,127.6527598223,674,817,Y,교육시설,061-659-3142,여수시청,2021-07-01
"화장동주공3단지아파트 지하1주차장",공공용,"전라남도 여수시 덕양로 157 (화장동, 주공아파트)",전라남도 여수시 화장동 882,34.7747981559,127.6352208022,2296,2551,Y,아파트 지하공간,061-659-3142,여수시청,2021-07-01
"화장동주공3단지아파트 지하2주차장",공공용,"전라남도 여수시 덕양로 157 (화장동, 주공아파트)",전라남도 여수시 화장동 882,34.7747981559,127.6352208022,2657,2952,Y,아파트 지하공간,061-659-3142,여수시청,2021-07-01
"신월동 금호아파트 10동",공공용,"전라남도 여수시 신월로 561-8 (신월동, 금호아파트단지)",전라남도 여수시 신월동 60,34.7264553281,127.7079577520,613,743,Y,아파트 지하공간,061-659-3142,여수시청,2021-07-01
"신월동 금호아파트 11동",공공용,"전라남도 여수시 신월로 561-8 (신월동, 금호아파트단지)",전라남도 여수시 신월동 60,34.7264553281,127.7079577520,712,863,Y,아파트 지하공간,061-659-3142,여수시청,2021-07-01
"신월동 금호아파트 12동",공공용,"전라남도 여수시 신월로 561-8 (신월동, 금호아파트단지)",전라남도 여수시 신월동 60,34.7264553281,127.7079577520,613,743,Y,아파트 지하공간,061-659-3142,여수시청,2021-07-01
"신월동 금호아파트 13동",공공용,"전라남도 여수시 신월로 561-8 (신월동, 금호아파트단지)",전라남도 여수시 신월동 60,34.7264553281,127.7079577520,409,496,Y,아파트 지하공간,061-659-3142,여수시청,2021-07-01
"신월동 금호아파트 15동",공공용,"전라남도 여수시 신월로 561-8 (신월동, 금호아파트단지)",전라남도 여수시 신월동 60,34.7264553281,127.7079577520,613,743,Y,아파트 지하공간,061-659-3142,여수시청,2021-07-01
"신월동 금호아파트 16동",공공용,"전라남도 여수시 신월로 561-8 (신월동, 금호아파트단지)",전라남도 여수시 신월동 60,34.7264553281,127.7079577520,409,496,Y,아파트 지하공간,061-659-3142,여수시청,2021-07-01
"신월동 금호아파트 17동",공공용,"전라남도 여수시 신월로 561-8 (신월동, 금호아파트단지)",전라남도 여수시 신월동 60,34.7264553281,127.7079577520,316,383,Y,아파트 지하공간,061-659-3142,여수시청,2021-07-01
"신월동 금호아파트 1동",공공용,"전라남도 여수시 신월로 561-8 (신월동, 금호아파트단지)",전라남도 여수시 신월동 60,34.7264553281,127.7079577520,409,496,Y,아파트 지하공간,061-659-3142,여수시청,2021-07-01
"신월동 금호아파트 2동",공공용,"전라남도 여수시 신월로 561-8 (신월동, 금호아파트단지)",전라남도 여수시 신월동 60,34.7264553281,127.7079577520,534,647,Y,아파트 지하공간,061-659-3142,여수시청,2021-07-01
"신월동 금호아파트 3동",공공용,"전라남도 여수시 신월로 561-8 (신월동, 금호아파트단지)",전라남도 여수시 신월동 60,34.7264553281,127.7079577520,613,743,Y,아파트 지하공간,061-659-3142,여수시청,2021-07-01
"신월동 금호아파트 4동",공공용,"전라남도 여수시 신월로 561-8 (신월동, 금호아파트단지)",전라남도 여수시 신월동 60,34.7264553281,127.7079577520,613,743,Y,아파트 지하공간,061-659-3142,여수시청,2021-07-01
"신월동 금호아파트 5동",공공용,"전라남도 여수시 신월로 561-8 (신월동, 금호아파트단지)",전라남도 여수시 신월동 60,34.7264553281,127.7079577520,580,703,Y,아파트 지하공간,061-659-3142,여수시청,2021-07-01
"신월동 금호아파트 6동",공공용,"전라남도 여수시 신월로 561-8 (신월동, 금호아파트단지)",전라남도 여수시 신월동 60,34.7264553281,127.7079577520,613,743,Y,아파트 지하공간,061-659-3142,여수시청,2021-07-01
"신월동 금호아파트 7동",공공용,"전라남도 여수시 신월로 561-8 (신월동, 금호아파트단지)",전라남도 여수시 신월동 60,34.7264553281,127.7079577520,316,383,Y,아파트 지하공간,061-659-3142,여수시청,2021-07-01
"신월동 금호아파트 8동",공공용,"전라남도 여수시 신월로 561-8 (신월동, 금호아파트단지)",전라남도 여수시 신월동 60,34.7264553281,127.7079577520,316,383,Y,아파트 지하공간,061-659-3142,여수시청,2021-07-01
"신월동 금호아파트 9동",공공용,"전라남도 여수시 신월로 561-8 (신월동, 금호아파트단지)",전라남도 여수시 신월동 60,34.7264553281,127.7079577520,613,743,Y,아파트 지하공간,061-659-3142,여수시청,2021-07-01
"신월동 대주아파트 101동",공공용,"전라남도 여수시 신월2길 35 (신월동, 대주아파트)",전라남도 여수시 신월동 1-4,34.7282757148,127.7128094253,712,863,Y,아파트 지하공간,061-659-3142,여수시청,2021-07-01
"신월동 대주아파트 102동",공공용,"전라남도 여수시 신월2길 35 (신월동, 대주아파트)",전라남도 여수시 신월동 1-4,34.7282757148,127.7128094253,422,512,Y,아파트 지하공간,061-659-3142,여수시청,2021-07-01
"신월동 대주아파트 103동",공공용,"전라남도 여수시 신월2길 35 (신월동, 대주아파트)",전라남도 여수시 신월동 1-4,34.7282757148,127.7128094253,635,770,Y,아파트 지하공간,061-659-3142,여수시청,2021-07-01
"신월동 대주아파트 104동",공공용,"전라남도 여수시 신월2길 35 (신월동, 대주아파트)",전라남도 여수시 신월동 1-4,34.7282757148,127.7128094253,554,672,Y,아파트 지하공간,061-659-3142,여수시청,2021-07-01
"신월동 코아루아파트 103동",공공용,"전라남도 여수시 신월2길 11 (신월동, 신월코아루아파트)",전라남도 여수시 신월동 51,34.7272664601,127.7110439586,1170,1418,Y,아파트 지하공간,061-659-3142,여수시청,2021-07-01
"동양엔파트아파트 101동",공공용,전라남도 여수시 율촌면 여순로 1038 (동양엔파트),전라남도 여수시 율촌면 월산리 1501-1,34.8831699617,127.5700291328,800,970,Y,아파트 지하주차장,061-659-3142,여수시청,2021-07-01
"동양엔파트아파트 102동",공공용,전라남도 여수시 율촌면 여순로 1038 (동양엔파트),전라남도 여수시 율촌면 월산리 1501-1,34.8831699617,127.5700291328,400,485,Y,아파트 지하주차장,061-659-3142,여수시청,2021-07-01
"동양엔파트아파트 103동",공공용,전라남도 여수시 율촌면 여순로 1038 (동양엔파트),전라남도 여수시 율촌면 월산리 1501-1,34.8831699617,127.5700291328,400,485,Y,아파트 지하주차장,061-659-3142,여수시청,2021-07-01
"동양엔파트아파트 104동",공공용,전라남도 여수시 율촌면 여순로 1038 (동양엔파트),전라남도 여수시 율촌면 월산리 1501-1,34.8831699617,127.5700291328,300,364,Y,아파트 지하주차장,061-659-3142,여수시청,2021-07-01
"율촌면 주민자치센터",공공용,전라남도 여수시 율촌면 율촌로 100-1,전라남도 여수시 율촌면 조화리 65-1,34.8835472660,127.5783723534,299,362,Y,관공서,061-659-3142,여수시청,2021-07-01
"장천교회",공공용,전라남도 여수시 율촌면 동산개길 42 (장천교회),전라남도 여수시 율촌면 조화리 139,34.8799968056,127.5755982775,492,596,Y,종교시설,061-659-3142,여수시청,2021-07-01
"한려새마을금고",공공용,전라남도 여수시 율촌면 동산개길 15 (한려새마을금고),전라남도 여수시 율촌면 조화리 217-28,34.8810145350,127.5786037846,352,427,Y,상가시설,061-659-3142,여수시청,2021-07-01
"신동아 아파트 101동",공공용,"전라남도 여수시 좌수영로 682-28, 101동 (주삼동)",전라남도 여수시 주삼동 2,34.7848294427,127.6923469341,446,541,Y,아파트 지하주차장,061-659-3142,여수시청,2021-07-01
"신동아 아파트 102동",공공용,전라남도 여수시 좌수영로 682-28 (주삼동),전라남도 여수시 주삼동 2,34.7848294427,127.6923469341,726,880,Y,아파트 지하주차장,061-659-3142,여수시청,2021-07-01
"신동아 아파트 103동",공공용,전라남도 여수시 좌수영로 682-28 (주삼동),전라남도 여수시 주삼동 2,34.7848294427,127.6923469341,383,464,Y,아파트 지하주차장,061-659-3142,여수시청,2021-07-01
"아주타운 101동",공공용,"전라남도 여수시 봉계대곡길 50 (봉계동, 아주타운)",전라남도 여수시 봉계동 16,34.7846963975,127.6903948557,419,508,Y,아파트 지하주차장,061-659-3142,여수시청,2021-07-01
"아주타운 102동",공공용,"전라남도 여수시 봉계대곡길 50 (봉계동, 아주타운)",전라남도 여수시 봉계동 16,34.7846963975,127.6903948557,314,381,Y,아파트 지하주차장,061-659-3142,여수시청,2021-07-01
"아주타운 103동",공공용,"전라남도 여수시 봉계대곡길 50 (봉계동, 아주타운)",전라남도 여수시 봉계동 16,34.7846963975,127.6903948557,419,508,Y,아파트 지하주차장,061-659-3142,여수시청,2021-07-01
"아주타운 104동",공공용,"전라남도 여수시 봉계대곡길 50 (봉계동, 아주타운)",전라남도 여수시 봉계동 16,34.7846963975,127.6903948557,314,381,Y,아파트 지하주차장,061-659-3142,여수시청,2021-07-01
"아주타운 105동",공공용,"전라남도 여수시 봉계대곡길 50 (봉계동, 아주타운)",전라남도 여수시 봉계동 16,34.7846963975,127.6903948557,419,508,Y,아파트 지하주차장,061-659-3142,여수시청,2021-07-01
"아주타운 106동",공공용,"전라남도 여수시 봉계대곡길 50 (봉계동, 아주타운)",전라남도 여수시 봉계동 16,34.7846963975,127.6903948557,574,696,Y,아파트 지하주차장,061-659-3142,여수시청,2021-07-01
"아주타운 107동",공공용,"전라남도 여수시 봉계대곡길 50 (봉계동, 아주타운)",전라남도 여수시 봉계동 16,34.7846963975,127.6903948557,207,251,Y,아파트 지하주차장,061-659-3142,여수시청,2021-07-01
"여도중학교",공공용,"전라남도 여수시 상암로 7 (봉계동, 여도초등학교,여도중학교)",전라남도 여수시 봉계동 37,34.7841399019,127.6943998503,628,761,Y,교육시설,061-659-3142,여수시청,2021-07-01
"여도초등학교",공공용,"전라남도 여수시 상암로 7 (봉계동, 여도초등학교,여도중학교)",전라남도 여수시 봉계동 37,34.7841399019,127.6943998503,732,887,Y,교육시설,061-659-3142,여수시청,2021-07-01
"여수세무서",공공용,"전라남도 여수시 좌수영로 948-5 (봉계동, 여수세무서)",전라남도 여수시 봉계동 726-36,34.7839332510,127.6674014343,120,145,Y,관공서,061-659-3142,여수시청,2021-07-01
KEB하나은행 여수지점,공공용,"전라남도 여수시 통제영4길 3 (교동, 외환은행)",전라남도 여수시 교동 345-1,34.7405321044,127.7347746265,635,770,Y,상가시설,061-659-3142,여수시청,2021-07-01
"고소아파트 101동",공공용,"전라남도 여수시 고소5길 71 (고소동, 시영아파트)",전라남도 여수시 고소동 51,34.7386390402,127.7426140431,259,314,Y,아파트 지하공간,061-659-3142,여수시청,2021-07-01
"고소아파트 102동",공공용,"전라남도 여수시 고소5길 71 (고소동, 시영아파트)",전라남도 여수시 고소동 51,34.7386390402,127.7426140431,403,488,Y,아파트 지하공간,061-659-3142,여수시청,2021-07-01
"농협중앙회 여수시지부",공공용,"전라남도 여수시 중앙로 49 (교동, 농협중앙회여수시지부)",전라남도 여수시 교동 411,34.7405258590,127.7332832752,654,793,Y,상가시설,061-659-3142,여수시청,2021-07-01
"이순신광장",공공용,전라남도 여수시 선어시장길 8 (중앙동),전라남도 여수시 중앙동 384-10,34.7393662963,127.7365410158,3243,3931,Y,기타,061-659-3142,여수시청,2021-07-01
"조은저축은행 여수지점",공공용,"전라남도 여수시 중앙로 26 (교동, 상업상호저축은행)",전라남도 여수시 교동 630,34.7400630313,127.7304867199,418,507,Y,상가시설,061-659-3142,여수시청,2021-07-01
"한신아파트 102동",공공용,"전라남도 여수시 고소5길 74 (고소동, 한신아파트)",전라남도 여수시 고소동 42,34.7383312727,127.7417167762,430,521,Y,아파트 지하공간,061-659-3142,여수시청,2021-07-01
"한신아파트 103동",공공용,전라남도 여수시 고소5길 74 (고소동),전라남도 여수시 고소동 42,34.7383312727,127.7417167762,556,674,Y,아파트 지하공간,061-659-3142,여수시청,2021-07-01
"성광교회",공공용,"전라남도 여수시 좌수영로 109 (연등동, 여수성광교회)",전라남도 여수시 연등동 323,34.7502672516,127.7270569591,760,922,Y,종교시설,061-659-3142,여수시청,2021-07-01
"여수원불교당",공공용,전라남도 여수시 진남로 46 (충무동),전라남도 여수시 충무동 229,34.7424593737,127.7330552079,316,383,Y,종교시설,061-659-3142,여수시청,2021-07-01
"여수중부교회",공공용,"전라남도 여수시 연등8길 63 (연등동, 여수중부교회)",전라남도 여수시 연등동 726-12,34.7560095695,127.7265914590,132,160,Y,종교시설,061-659-3142,여수시청,2021-07-01
"천성교회",공공용,"전라남도 여수시 좌수영로 91-1 (연등동, 여수천성교회)",전라남도 여수시 연등동 304-1,34.7485368245,127.7279654681,261,317,Y,종교시설,061-659-3142,여수시청,2021-07-01
"충무맨션",공공용,"전라남도 여수시 충무로 87 (충무동, 충무맨션)",전라남도 여수시 충무동 327,34.7442061039,127.7297822587,560,678,Y,아파트 지하공간,061-659-3142,여수시청,2021-07-01
"한화생명",공공용,"전라남도 여수시 중앙로 27 (충무동, 한화생명빌딩)",전라남도 여수시 충무동 621-16,34.7405256603,127.7306766443,264,321,Y,상가시설,061-659-3142,여수시청,2021-07-01
"공화새마을금고",공공용,"전라남도 여수시 동문로 116 (공화동, 공화새마을금고)",전라남도 여수시 공화동 734-1,34.7465584077,127.7437543525,330,400,Y,상가시설,061-659-3142,여수시청,2021-07-01
"대한예수교장로회동광교회",공공용,"전라남도 여수시 공화남3길 12 (공화동, 여수동광교회)",전라남도 여수시 공화동 625-1,34.7468677634,127.7447872536,850,1030,Y,종교시설,061-659-3142,여수시청,2021-07-01
"여수수정행복주택아파트 지하주차장",공공용,"전라남도 여수시 이순신광장로 260(수정동, 행복주택아파트)",전라남도 여수시 수정동 167-1,34.7429202426,127.7492042291,1530,1700,Y,아파트 지하공간,061-659-3142,여수시청,2021-07-01
"남해수산연구서 본관동",공공용,전라남도 여수시 화양면 세포당머리길 22 (국립수산과학원남해수산연구),전라남도 여수시 화양면 안포리 347,34.6314085566,127.6266884136,184,223,Y,관공서,061-659-3142,여수시청,2021-07-01
