"민방위대피시설명",민방위대피시설구분,소재지도로명주소,소재지지번주소,위도,경도,민방위대피시설면적,대피가능인원수,개방여부,평시활용유형,관리기관전화번호,관리기관명,데이터기준일자
"전주역 지하도",공공용,"전라북도 전주시 덕진구 동부대로 680 (우아동3가, 전주역)",전라북도 전주시 덕진구 우아동3가 235-10,35.8496886398,127.1634723993,228,276,Y,보행도로,063-270-6264,전라북도 전주시청 덕진구청 건설과,2020-08-31
"송천동자이APT",공공용,"전라북도 전주시 덕진구 두간6길 10 (송천동1가, GS자이)",전라북도 전주시 덕진구 송천동1가 806,35.8661996841,127.119483,7710,9345,Y,주차장,063-270-6264,전라북도 전주시청 덕진구청 건설과,2020-08-31
"송천2동주민센터",공공용,"전라북도 전주시 덕진구 두간9길 6 (송천동1가, 송천2동주민센터)",전라북도 전주시 덕진구 송천동1가 829-1,35.8649033492,127.1155836953,204,247,Y,주차장,063-270-6264,전라북도 전주시청 덕진구청 건설과,2020-08-31
"대창아파트",공공용,"전라북도 전주시 덕진구 반월4길 15 (반월동, 대창아파트)",전라북도 전주시 덕진구 반월동 422-1,35.8749957865,127.0712822646,3596,4359,Y,주차장,063-270-6264,전라북도 전주시청 덕진구청 건설과,2020-08-31
"영무예다음아파트",공공용,"전라북도 전주시 덕진구 반월4길 16 (반월동, 영무예다음아파트)",전라북도 전주시 덕진구 반월동 217-4,35.87525796,127.0729391,2178,2640,Y,주차장,063-270-6264,전라북도 전주시청 덕진구청 건설과,2020-08-31
"삼오아파트",공공용,"전라북도 전주시 덕진구 반월5길 8 (반월동, 삼오아파트)",전라북도 전주시 덕진구 반월동 374-4,35.872756,127.0684809,2716,3292,Y,주차장,063-270-6264,전라북도 전주시청 덕진구청 건설과,2020-08-31
"건지산이지움아파트",공공용,전라북도 전주시 덕진구 백동2길 11 (인후동2가),전라북도 전주시 덕진구 인후동2가 1561-1,35.845614,127.1475256629,8000,9697,Y,주차장,063-270-6264,전라북도 전주시청 덕진구청 건설과,2020-08-31
"전북은행 본점",공공용,전라북도 전주시 덕진구 백제대로 566 (금암동),전라북도 전주시 덕진구 금암동 669-2,35.8397168286,127.1314062044,5675,6879,Y,주차장,063-270-6264,전라북도 전주시청 덕진구청 건설과,2020-08-31
"타이어뱅크(뱅크빌딩)",공공용,전라북도 전주시 덕진구 백제대로 751 (인후동2가),전라북도 전주시 덕진구 인후동2가 1573-1,35.8466521,127.150722,4770,5782,Y,주차장,063-270-6264,전라북도 전주시청 덕진구청 건설과,2020-08-31
"덕진구청",공공용,"전라북도 전주시 덕진구 벚꽃로 55 (진북동, 덕진구청)",전라북도 전주시 덕진구 진북동 416-12,35.8293594,127.1351740323,5858,7101,Y,주차장,063-270-6264,전라북도 전주시청 덕진구청 건설과,2020-08-31
"송천주공아파트",공공용,"전라북도 전주시 덕진구 붓내3길 29 (송천동2가, 주공아파트)",전라북도 전주시 덕진구 송천동2가 1268,35.8693141888,127.1244969738,8192,9929,Y,주차장,063-270-6264,전라북도 전주시청 덕진구청 건설과,2020-08-31
"전주지방검찰청",공공용,"전라북도 전주시 덕진구 사평로 25 (덕진동1가, 전주지방검찰청)",전라북도 전주시 덕진구 덕진동1가 1416-1,35.8406801725,127.1202243004,323,392,Y,주차장,063-270-6264,전라북도 전주시청 덕진구청 건설과,2020-08-31
"전주지방법원",공공용,"전라북도 전주시 덕진구 사평로 25 (덕진동1가, 전주지방법원)",전라북도 전주시 덕진구 덕진동1가 1416-1,35.8406801725,127.1202243004,484,587,Y,주차장,063-270-6264,전라북도 전주시청 덕진구청 건설과,2020-08-31
"전주시청소년자유센터",공공용,"전라북도 전주시 덕진구 서귀로 107 (팔복동3가, 전주시청소년자유센터)",전라북도 전주시 덕진구 팔복동3가 404,35.851444,127.087033,287,348,Y,주차장,063-270-6264,전라북도 전주시청 덕진구청 건설과,2020-08-31
"선변오지오아파트 101동",공공용,"전라북도 전주시 덕진구 석소2길 30 (우아동2가, 오지오아파트)",전라북도 전주시 덕진구 우아동2가 869,35.8353003504,127.1691406630,5390,6533,Y,주차장,063-270-6264,전라북도 전주시청 덕진구청 건설과,2020-08-31
"아중현대아파트",공공용,"전라북도 전주시 덕진구 석소로 55 (인후동1가, 아중현대아파트)",전라북도 전주시 덕진구 인후동1가 858-2,35.83271004,127.1653235,8527,10335,Y,주차장,063-270-6264,전라북도 전주시청 덕진구청 건설과,2020-08-31
"호성주공아파트",공공용,"전라북도 전주시 덕진구 소리로 179 (호성동1가, 주공아파트)",전라북도 전주시 덕진구 호성동1가 900,35.8580373172,127.1500757712,5743,6961,Y,주차장,063-270-6264,전라북도 전주시청 덕진구청 건설과,2020-08-31
"영창드림맨션아파트",공공용,"전라북도 전주시 덕진구 솔내6길 7 (송천동1가, 영창드림맨션아파트)",전라북도 전주시 덕진구 송천동1가 123-12,35.85876799,127.1224832,787,954,Y,주차장,063-270-6264,전라북도 전주시청 덕진구청 건설과,2020-08-31
"송천동 현대2차아파트",공공용,"전라북도 전주시 덕진구 솔내로 124 (송천동1가, 현대2차아파트)",전라북도 전주시 덕진구 송천동1가 141,35.86127163,127.1277129,4344,5265,Y,주차장,063-270-6264,전라북도 전주시청 덕진구청 건설과,2020-08-31
"제일아파트",공공용,"전라북도 전주시 덕진구 송천3길 50 (송천동1가, 제일아파트)",전라북도 전주시 덕진구 송천동1가 626-3,35.860428,127.1157899,1841,2232,Y,주차장,063-270-6264,전라북도 전주시청 덕진구청 건설과,2020-08-31
"서호1차아파트",공공용,"전라북도 전주시 덕진구 송천로 31 (송천동1가, 송천서호1차아파트)",전라북도 전주시 덕진구 송천동1가 337,35.85596759,127.1181834,2528,3064,Y,주차장,063-270-6264,전라북도 전주시청 덕진구청 건설과,2020-08-31
"송천1동주민센터",공공용,"전라북도 전주시 덕진구 송천중앙로 116 (송천동1가, 송천1동주민센터)",전라북도 전주시 덕진구 송천동1가 395-28,35.8571183763,127.1210231,424,514,Y,주차장,063-270-6264,전라북도 전주시청 덕진구청 건설과,2020-08-31
"거성 고속맨션2차 아파트",공공용,"전라북도 전주시 덕진구 숲정이5길 77 (진북동, 거성고속맨션2차)",전라북도 전주시 덕진구 진북동 1166-1,35.83346949,127.127906,424,514,Y,주차장,063-270-6264,전라북도 전주시청 덕진구청 건설과,2020-08-31
"팔복거성아파트",공공용,"전라북도 전주시 덕진구 신복5길 18 (팔복동1가, 팔복거성아파트)",전라북도 전주시 덕진구 팔복동1가 143-1,35.8548358895,127.1063095648,837,1015,Y,주차장,063-270-6264,전라북도 전주시청 덕진구청 건설과,2020-08-31
"팔복동주민센터",공공용,"전라북도 전주시 덕진구 신복5길 6 (팔복동1가, 팔복동주민센터)",전라북도 전주시 덕진구 팔복동1가 138-6,35.853681,127.106253,357,433,Y,주차장,063-270-6264,전라북도 전주시청 덕진구청 건설과,2020-08-31
"인후동에버파크아파트",공공용,"전라북도 전주시 덕진구 심방죽6길 8 (인후동2가, 에버파크아파트)",전라북도 전주시 덕진구 인후동2가 1614,35.8411499144,127.1512570924,4000,4848,Y,주차장,063-270-6264,전라북도 전주시청 덕진구청 건설과,2020-08-31
"인후동 선변아파트",공공용,"전라북도 전주시 덕진구 심방죽로 16 (인후동1가, 인후동선변아파트)",전라북도 전주시 덕진구 인후동1가 574,35.83754108,127.1514185,2723,3301,Y,주차장,063-270-6264,전라북도 전주시청 덕진구청 건설과,2020-08-31
"아중지하보도",공공용,전라북도 전주시 덕진구 아중로 152 (인후동1가),전라북도 전주시 덕진구 인후동1가 928-6,35.825842,127.166161,217,263,Y,주차장,063-270-6264,전라북도 전주시청 덕진구청 건설과,2020-08-31
"제일2차아파트",공공용,"전라북도 전주시 덕진구 아중로 170 (인후동1가, 아중제일2차아파트)",전라북도 전주시 덕진구 인후동1가 951-2,35.82622816,127.1679439,1831,2219,Y,주차장,063-270-6264,전라북도 전주시청 덕진구청 건설과,2020-08-31
"부영3차아파트",공공용,"전라북도 전주시 덕진구 아중로 180 (인후동1가, 부영3차아파트)",전라북도 전주시 덕진구 인후동1가 951-3,35.82656051,127.1700252,6586,15967,Y,주차장,063-270-6264,전라북도 전주시청 덕진구청 건설과,2020-08-31
"효성임대아파트",공공용,"전라북도 전주시 덕진구 안골5길 15 (우아동3가, 우아효성아파트)",전라북도 전주시 덕진구 우아동3가 757-14,35.8430257748,127.155914,1951,2365,Y,주차장,063-270-6264,전라북도 전주시청 덕진구청 건설과,2020-08-31
"진흥하이츠 101동",공공용,"전라북도 전주시 덕진구 안덕원1길 30 (우아동3가, 진흥하이츠)",전라북도 전주시 덕진구 우아동3가 412,35.840694,127.1650654,1269,1538,Y,주차장,063-270-6264,전라북도 전주시청 덕진구청 건설과,2020-08-31
"럭키아파트 3동",공공용,"전라북도 전주시 덕진구 안덕원3길 10 (우아동3가, 럭키아파트)",전라북도 전주시 덕진구 우아동3가 285-8,35.84341911,127.163765,800,970,Y,주차장,063-270-6264,전라북도 전주시청 덕진구청 건설과,2020-08-31
"럭키아파트 7동",공공용,"전라북도 전주시 덕진구 안덕원3길 10 (우아동3가, 럭키아파트)",전라북도 전주시 덕진구 우아동3가 285-8,35.84341911,127.163765,800,970,Y,주차장,063-270-6264,전라북도 전주시청 덕진구청 건설과,2020-08-31
"한신휴플러스 아파트",공공용,"전라북도 전주시 덕진구 안덕원로 251 (인후동1가, 한신휴플러스아파트)",전라북도 전주시 덕진구 인후동1가 1029,35.8378373,127.1537744,7450,9030,Y,주차장,063-270-6264,전라북도 전주시청 덕진구청 건설과,2020-08-31
"송정써미트아파트",공공용,"전라북도 전주시 덕진구 안덕원로 325 (인후동1가, 인후동송정써미트아파트)",전라북도 전주시 덕진구 인후동1가 541,35.8397114617,127.1623450699,1050,1273,Y,주차장,063-270-6264,전라북도 전주시청 덕진구청 건설과,2020-08-31
"교육문화회관",공공용,"전라북도 전주시 덕진구 안덕원로 71 (진북동, 전북교육문화회관)",전라북도 전주시 덕진구 진북동 301-70,35.8287114018,127.1372004720,66,80,Y,용도없음,063-270-6264,전라북도 전주시청 덕진구청 건설과,2020-08-31
"솔내동아아파트",공공용,"전라북도 전주시 덕진구 와룡2길 5 (송천동2가, 동아아파트)",전라북도 전주시 덕진구 송천동2가 561-24,35.86606623,127.113439,5352,6487,Y,주차장,063-270-6264,전라북도 전주시청 덕진구청 건설과,2020-08-31
"쌍용1차아파트",공공용,전라북도 전주시 덕진구 와룡로 40 (송천동2가),전라북도 전주시 덕진구 송천동2가 541-2,35.8628294404,127.1128703098,2342,2839,Y,주차장,063-270-6264,전라북도 전주시청 덕진구청 건설과,2020-08-31
"쌍용2차아파트",공공용,전라북도 전주시 덕진구 와룡로 50 (송천동2가),전라북도 전주시 덕진구 송천동2가 536,35.86392587,127.112336,3461,4195,Y,주차장,063-270-6264,전라북도 전주시청 덕진구청 건설과,2020-08-31
"우아1동주민센터",공공용,"전라북도 전주시 덕진구 우아2길 25 (우아동3가, 우아1동주민센터)",전라북도 전주시 덕진구 우아동3가 746-67,35.849872,127.159564,150,182,Y,주차장,063-270-6264,전라북도 전주시청 덕진구청 건설과,2020-08-31
"장동에코르아파트",공공용,전라북도 전주시 덕진구 정암길 19 (장동),전라북도 전주시 덕진구 장동 1052-2,35.8611220379,127.0604973258,9999,12120,Y,주차장,063-270-6264,전라북도 전주시청 덕진구청 건설과,2020-08-31
"아중롯데아파트 102동",공공용,"전라북도 전주시 덕진구 중상보로 10 (우아동2가, 롯데아파트)",전라북도 전주시 덕진구 우아동2가 887,35.83068599,127.1690822,3331,4038,Y,주차장,063-270-6264,전라북도 전주시청 덕진구청 건설과,2020-08-31
"아중롯데아파트 103동",공공용,"전라북도 전주시 덕진구 중상보로 10 (우아동2가, 롯데아파트)",전라북도 전주시 덕진구 우아동2가 887,35.83068599,127.169017,2129,2581,Y,주차장,063-270-6264,전라북도 전주시청 덕진구청 건설과,2020-08-31
"아중롯데아파트 105동",공공용,"전라북도 전주시 덕진구 중상보로 10 (우아동2가, 롯데아파트)",전라북도 전주시 덕진구 우아동2가 887,35.83068599,127.1690822,3329,4035,Y,주차장,063-270-6264,전라북도 전주시청 덕진구청 건설과,2020-08-31
"안고을우성아파트",공공용,"전라북도 전주시 덕진구 진버들2길 14 (인후동1가, 안고을우성아파트)",전라북도 전주시 덕진구 인후동1가 458,35.83551885,127.1596271,1931,2341,Y,주차장,063-270-6264,전라북도 전주시청 덕진구청 건설과,2020-08-31
"부영1차아파트",공공용,"전라북도 전주시 덕진구 진버들3길 10 (인후동1가, 부영1차아파트)",전라북도 전주시 덕진구 인후동1가 802-1,35.835286,127.162967,3604,4368,Y,주차장,063-270-6264,전라북도 전주시청 덕진구청 건설과,2020-08-31
"진버들대우아파트 202동",공공용,"전라북도 전주시 덕진구 진버들5길 10 (우아동2가, 진버들대우아파트)",전라북도 전주시 덕진구 우아동2가 853-1,35.83618867,127.1654857,4041,4898,Y,주차장,063-270-6264,전라북도 전주시청 덕진구청 건설과,2020-08-31
"진버들대우아파트 203동",공공용,"전라북도 전주시 덕진구 진버들5길 10 (우아동2가, 진버들대우아파트)",전라북도 전주시 덕진구 우아동2가 853-1,35.83618867,127.1654857,1439,1744,Y,주차장,063-270-6264,전라북도 전주시청 덕진구청 건설과,2020-08-31
"동국해성아파트",공공용,"전라북도 전주시 덕진구 진북로 15 (진북동, 동국해성아파트)",전라북도 전주시 덕진구 진북동 1034-1,35.825922,127.1337998512,2762,3348,Y,주차장,063-270-6264,전라북도 전주시청 덕진구청 건설과,2020-08-31
"한강아파트",공공용,"전라북도 전주시 덕진구 쪽구름로 133 (반월동, 반월동한강아파트)",전라북도 전주시 덕진구 반월동 386-7,35.87377398,127.0707939,1951,2365,Y,주차장,063-270-6264,전라북도 전주시청 덕진구청 건설과,2020-08-31
"여의동제일아파트",공공용,"전라북도 전주시 덕진구 쪽구름로 19 (여의동, 제일아파트)",전라북도 전주시 덕진구 여의동 669,35.86790473,127.0771178,6806,8250,Y,주차장,063-270-6264,전라북도 전주시청 덕진구청 건설과,2020-08-31
"동국아파트",공공용,"전라북도 전주시 덕진구 쪽구름로 53 (여의동, 동국아파트)",전라북도 전주시 덕진구 여의동 582-1,35.870403,127.0761192,8595,10418,Y,주차장,063-270-6264,전라북도 전주시청 덕진구청 건설과,2020-08-31
"송천동진흥더블파크아파트",공공용,"전라북도 전주시 덕진구 천마산로 100 (송천동1가, 진흥더블파크아파트)",전라북도 전주시 덕진구 송천동1가 12-10,35.8647750373,127.1317063047,9999,12120,Y,주차장,063-270-6264,전라북도 전주시청 덕진구청 건설과,2020-08-31
"팔복동코스타빌아파트",공공용,"전라북도 전주시 덕진구 추천1길 6 (팔복동2가, 코스타빌아파트)",전라북도 전주시 덕진구 팔복동2가 135-2,35.8486408676,127.1058685765,752,912,Y,주차장,063-270-6264,전라북도 전주시청 덕진구청 건설과,2020-08-31
"우성아파트",공공용,"전라북도 전주시 덕진구 태진로 101 (진북동, 우성아파트)",전라북도 전주시 덕진구 진북동 416,35.83042211,127.1355035,9001,10910,Y,주차장,063-270-6264,전라북도 전주시청 덕진구청 건설과,2020-08-31
"전북경제통상진흥원",공공용,"전라북도 전주시 덕진구 팔과정로 164 (팔복동1가, 전라북도경제통상진흥원)",전라북도 전주시 덕진구 팔복동1가 337-2,35.860956,127.094767,954,1156,Y,주차장,063-270-6264,전라북도 전주시청 덕진구청 건설과,2020-08-31
"팔복동 남양아파트",공공용,"전라북도 전주시 덕진구 팔복1길 6 (팔복동2가, 남양아파트)",전라북도 전주시 덕진구 팔복동2가 130-2,35.847442,127.104869,4620,5600,Y,주차장,063-270-6264,전라북도 전주시청 덕진구청 건설과,2020-08-31
"인후휴먼시아 아파트",공공용,"전라북도 전주시 덕진구 팽나무2길 7 (인후동1가, 인후휴먼시아)",전라북도 전주시 덕진구 인후동1가 1035,35.8350523492,127.1524142910,4686,5680,Y,주차장,063-270-6264,전라북도 전주시청 덕진구청 건설과,2020-08-31
"하누리홈타운",공공용,"전라북도 전주시 덕진구 팽나무4길 21 (인후동1가, 하누리홈타운)",전라북도 전주시 덕진구 인후동1가 780-2,35.8351402,127.1551793,816,989,Y,주차장,063-270-6264,전라북도 전주시청 덕진구청 건설과,2020-08-31
"거성프라자아파트",공공용,"전라북도 전주시 덕진구 팽나무4길 7 (인후동1가, 거성프라자아파트)",전라북도 전주시 덕진구 인후동1가 782,35.835861,127.1551374,174,211,Y,주차장,063-270-6264,전라북도 전주시청 덕진구청 건설과,2020-08-31
"백우동산아파트",공공용,"전라북도 전주시 덕진구 편운로 37 (동산동, 백우동산아파트)",전라북도 전주시 덕진구 동산동 647,35.8726315,127.0799343,1729,2096,Y,주차장,063-270-6264,전라북도 전주시청 덕진구청 건설과,2020-08-31
"부영5차아파트",공공용,"전라북도 전주시 덕진구 한배미로 33 (인후동1가, 부영5차아파트)",전라북도 전주시 덕진구 인후동1가 951-7,35.8245110679,127.1687282299,2704,3278,Y,주차장,063-270-6264,전라북도 전주시청 덕진구청 건설과,2020-08-31
"아남아파트",공공용,"전라북도 전주시 덕진구 한배미로 5 (인후동1가, 아중아남아파트)",전라북도 전주시 덕진구 인후동1가 951-1,35.82560602,127.1668448,1568,1901,Y,주차장,063-270-6264,전라북도 전주시청 덕진구청 건설과,2020-08-31
"센트럴파크2단지APT",공공용,"전라북도 전주시 덕진구 호반로 11 (송천동1가, 송천동센트럴파크2단지아파트)",전라북도 전주시 덕진구 송천동1가 308-1,35.8540042840,127.1167192128,9999,12120,Y,주차장,063-270-6264,전라북도 전주시청 덕진구청 건설과,2020-08-31
"다경일신아파트",공공용,"전라북도 전주시 덕진구 호성1길 8-9 (호성동1가, 다경마을일신아파트)",전라북도 전주시 덕진구 호성동1가 750-6,35.8564050526,127.1551426,1343,1628,Y,주차장,063-270-6264,전라북도 전주시청 덕진구청 건설과,2020-08-31
"진흥더블파크1단지아파트",공공용,"전라북도 전주시 덕진구 호성로 132 (호성동1가, 진흥더블파크1단지아파트)",전라북도 전주시 덕진구 호성동1가 829-4,35.86221248,127.1496319,8150,9879,Y,주차장,063-270-6264,전라북도 전주시청 덕진구청 건설과,2020-08-31
"진흥더블파크3단지아파트",공공용,"전라북도 전주시 덕진구 호성로 170 (호성동2가, 진흥더블파크3단지아파트)",전라북도 전주시 덕진구 호성동2가 634,35.86629467,127.1456226,6200,7515,Y,주차장,063-270-6264,전라북도 전주시청 덕진구청 건설과,2020-08-31
"신동아3차아파트",공공용,"전라북도 전주시 덕진구 호성로 18-12 (우아동3가, 신동아아파트)",전라북도 전주시 덕진구 우아동3가 602-63,35.854561,127.1531866011,456,553,Y,주차장,063-270-6264,전라북도 전주시청 덕진구청 건설과,2020-08-31
LG동아아파트,공공용,"전라북도 전주시 덕진구 호성로 40 (호성동1가, LG동아아파트)",전라북도 전주시 덕진구 호성동1가 718,35.85560839,127.1522588,2330,2824,Y,주차장,063-270-6264,전라북도 전주시청 덕진구청 건설과,2020-08-31
"영무예다음아파트",공공용,"전라북도 전주시 덕진구 가련산로 24 (덕진동2가, 영무예다음아파트)",전라북도 전주시 덕진구 덕진동2가 696,35.84094444,127.1117014,9999,12120,Y,주차장,063-270-6264,전라북도 전주시청 덕진구청 건설과,2020-08-31
"덕진동 휴먼빌아파트",공공용,"전라북도 전주시 덕진구 가리내로 216 (덕진동2가, 하가휴먼빌아파트)",전라북도 전주시 덕진구 덕진동2가 697,35.8389529323,127.1133412002,3000,3636,Y,주차장,063-270-6264,전라북도 전주시청 덕진구청 건설과,2020-08-31
"중앙하이츠아파트",공공용,"전라북도 전주시 덕진구 거북바우3길 15 (금암동, 중앙하이츠아파트)",전라북도 전주시 덕진구 금암동 1564,35.837275,127.1393004,9999,12120,Y,주차장,063-270-6264,전라북도 전주시청 덕진구청 건설과,2020-08-31
"광주지방노동청 전주지청",공공용,"전라북도 전주시 덕진구 건산로 251 (인후동1가, 광주지방노동청전주지청)",전라북도 전주시 덕진구 인후동1가 807-8,35.8353864159,127.1642709395,2488,3016,Y,주차장,063-270-6264,전라북도 전주시청 덕진구청 건설과,2020-08-31
"전북대학교병원",공공용,"전라북도 전주시 덕진구 건지로 20 (금암동, 전북대학교병원)",전라북도 전주시 덕진구 금암동 634-18,35.8478856372,127.1411034617,9999,12120,Y,주차장,063-270-6264,전라북도 전주시청 덕진구청 건설과,2020-08-31
"위브어울림아파트",공공용,"전라북도 전주시 덕진구 견훤로 333 (인후동1가, 위브어울림아파트)",전라북도 전주시 덕진구 인후동1가 1033,35.83994841,127.1548942,9005,10915,Y,주차장,063-270-6264,전라북도 전주시청 덕진구청 건설과,2020-08-31
"우신아파트 1동",공공용,"전라북도 전주시 덕진구 견훤로 495 (우아동3가, 우신아파트)",전라북도 전주시 덕진구 우아동3가 599,35.8550367889,127.1538385831,616,747,Y,주차장,063-270-6264,전라북도 전주시청 덕진구청 건설과,2020-08-31
"우신아파트 2동",공공용,"전라북도 전주시 덕진구 견훤로 495 (우아동3가, 우신아파트)",전라북도 전주시 덕진구 우아동3가 599,35.8550367889,127.1538385831,616,747,Y,주차장,063-270-6264,전라북도 전주시청 덕진구청 건설과,2020-08-31
"우신아파트 3동",공공용,"전라북도 전주시 덕진구 견훤로 495 (우아동3가, 우신아파트)",전라북도 전주시 덕진구 우아동3가 599,35.8550367889,127.1538385831,616,747,Y,주차장,063-270-6264,전라북도 전주시청 덕진구청 건설과,2020-08-31
"우성아파트 가동",공공용,"전라북도 전주시 덕진구 견훤로 497 (우아동3가, 우성아파트)",전라북도 전주시 덕진구 우아동3가 594-6,35.855125,127.1551452,255,309,Y,주차장,063-270-6264,전라북도 전주시청 덕진구청 건설과,2020-08-31
"우성아파트 나동",공공용,"전라북도 전주시 덕진구 견훤로 497 (우아동3가, 우성아파트)",전라북도 전주시 덕진구 우아동3가 594-6,35.855192,127.1551452,255,309,Y,주차장,063-270-6264,전라북도 전주시청 덕진구청 건설과,2020-08-31
"우성아파트 다동",공공용,"전라북도 전주시 덕진구 견훤로 497 (우아동3가, 우성아파트)",전라북도 전주시 덕진구 우아동3가 594-6,35.85517931,127.1551452,255,309,Y,주차장,063-270-6264,전라북도 전주시청 덕진구청 건설과,2020-08-31
"금암초교",공공용,"전라북도 전주시 덕진구 권삼득로 210 (금암동, 전주금암초등학교)",전라북도 전주시 덕진구 금암동 522-1,35.8380957,127.1368536,66,80,Y,용도없음,063-270-6264,전라북도 전주시청 덕진구청 건설과,2020-08-31
"전주덕진예술회관",공공용,"전라북도 전주시 덕진구 권삼득로 407 (덕진동2가, 전주덕진예술회관)",전라북도 전주시 덕진구 덕진동2가 190-1,35.8477505654,127.1193756307,234,284,Y,공연연습장,063-270-6264,전라북도 전주시청 덕진구청 건설과,2020-08-31
"교보생명",공공용,전라북도 전주시 덕진구 기린대로 389 (금암동),전라북도 전주시 덕진구 금암동 475-6,35.836953,127.132561,1220,1479,Y,주차장,063-270-6264,전라북도 전주시청 덕진구청 건설과,2020-08-31
"금암1동사무소",공공용,전라북도 전주시 덕진구 기린대로 392 (금암동),전라북도 전주시 덕진구 금암동 470-7,35.837408,127.133106,197,239,Y,주차장,063-270-6264,전라북도 전주시청 덕진구청 건설과,2020-08-31
"한화생명",공공용,"전라북도 전주시 덕진구 기린대로 405 (금암동, 한화생명빌딩)",전라북도 전주시 덕진구 금암동 472-3,35.837669,127.131453,2163,2622,Y,주차장,063-270-6264,전라북도 전주시청 덕진구청 건설과,2020-08-31
"전주종합경기장",공공용,"전라북도 전주시 덕진구 기린대로 451 (덕진동1가, 전주종합경기장)",전라북도 전주시 덕진구 덕진동1가 1220-1,35.8407560751,127.1271265374,132,160,Y,용도없음,063-270-6264,전라북도 전주시청 덕진구청 건설과,2020-08-31
"덕진지하보도",공공용,전라북도 전주시 덕진구 기린대로 472 (덕진동1가),전라북도 전주시 덕진구 덕진동1가 1266-14,35.842136,127.126344,140,170,Y,보행도로,063-270-6264,전라북도 전주시청 덕진구청 건설과,2020-08-31
"덕진동주민센터",공공용,"전라북도 전주시 덕진구 기린대로 533-7 (덕진동1가, 덕진동주민센터)",전라북도 전주시 덕진구 덕진동1가 1357-5,35.845356,127.120697,24,29,Y,주차장,063-270-6264,전라북도 전주시청 덕진구청 건설과,2020-08-31
"소상공인희망센터",공공용,"전라북도 전주시 덕진구 기린대로 945-6 (여의동, 전라북도보건환경연구원)",전라북도 전주시 덕진구 여의동 558-6,35.8641348341,127.0811487406,188,228,Y,주차장,063-270-6264,전라북도 전주시청 덕진구청 건설과,2020-08-31
"대승아파트",공공용,"전라북도 전주시 덕진구 덕용1길 52 (동산동, 대승아파트)",전라북도 전주시 덕진구 동산동 459-3,35.87090458,127.0818422,6598,7998,Y,주차장,063-270-6264,전라북도 전주시청 덕진구청 건설과,2020-08-31
"명성아파트",공공용,전라북도 전주시 덕진구 동부대로 1553 (고랑동),전라북도 전주시 덕진구 고랑동 820-21,35.8770139625,127.0780922251,829,1005,Y,주차장,063-270-6264,전라북도 전주시청 덕진구청 건설과,2020-08-31
"우정신세계아파트101동",공공용,"전라북도 전주시 덕진구 동부대로 575 (우아동3가, 우정신세계)",전라북도 전주시 덕진구 우아동3가 359,35.84058783,127.1673499,1005,1218,Y,주차장,063-270-6264,전라북도 전주시청 덕진구청 건설과,2020-08-31
"우정신세계아파트102동",공공용,"전라북도 전주시 덕진구 동부대로 575 (우아동3가, 우정신세계)",전라북도 전주시 덕진구 우아동3가 359,35.84058783,127.1673499,904,1096,Y,주차장,063-270-6264,전라북도 전주시청 덕진구청 건설과,2020-08-31
"우정신세계아파트103동",공공용,"전라북도 전주시 덕진구 동부대로 575 (우아동3가, 우정신세계)",전라북도 전주시 덕진구 우아동3가 359,35.84058783,127.1673499,483,585,Y,주차장,063-270-6264,전라북도 전주시청 덕진구청 건설과,2020-08-31
"호반베르디움더클래스아파트",공공용,"전라북도 전주시 덕진구 출판로 87 (장동, 호반베르디움더클래스)",전라북도 전주시 덕진구 장동 1086,35.8398747614,127.0624035844,5000,6061,Y,주차장,063-270-6264,전라북도 전주시청 덕진구청 건설과,2020-08-31
"우미린2차아파트",공공용,"전라북도 전주시 덕진구 틀못4길 17 (장동, 우미린2단지)",전라북도 전주시 덕진구 장동 1063,35.84396765,127.0573206,5000,6061,Y,주차장,063-270-6264,전라북도 전주시청 덕진구청 건설과,2020-08-31
"혁신우미린1차아파트",공공용,"전라북도 전주시 덕진구 오공로 70 (중동, 우미린1단지)",전라북도 전주시 덕진구 중동 798,35.8354464726,127.0623216445,5000,6061,Y,주차장,063-270-6264,전라북도 전주시청 덕진구청 건설과,2020-08-31
"에코시티데시앙5블럭아파트",공공용,"전라북도 전주시 덕진구 세병로 85 (송천동2가, 에코시티데시앙5블럭아파트)",전라북도 전주시 덕진구 송천동2가 1309,35.8720745979,127.1322081520,9999,12120,Y,주차장,063-270-6264,전라북도 전주시청 덕진구청 건설과,2020-08-31
e편한세상 우아아파트,공공용,"전라북도 전주시 덕진구 우아로 50 (우아동3가, e편한세상우아아파트)",전라북도 전주시 덕진구 우아동3가 762,35.85404664,127.1556832,9999,12120,Y,주차장,063-270-6264,전라북도 전주시청 덕진구청 건설과,2020-08-31
"풍남초등학교대피소",공공용,전라북도 전주시 완산구 견훤왕궁로 16 (남노송동),전라북도 전주시 완산구 남노송동 507-1,35.8210012718,127.1541845410,840,1016,Y,주차장,063-220-5219,전라북도 전주시청 완산구청 건설과,2020-08-31
"시립도서관내 민방위대피시설",공공용,"전라북도 전주시 완산구 곤지산4길 12 (동완산동, 전주시립도서관)",전라북도 전주시 완산구 동완산동 464-1,35.8092427511,127.1475409068,600,753,Y,주차장,063-220-5219,전라북도 전주시청 완산구청 건설과,2020-08-31
"우성아파트 주차장",공공용,전라북도 전주시 완산구 백제대로 13 (삼천동1가),전라북도 전주시 완산구 삼천동1가 705-5,35.79628055,127.1306089,4336,5256,Y,주차장,063-220-5219,전라북도 전주시청 완산구청 건설과,2020-08-31
"기린봉아파트",공공용,전라북도 전주시 완산구 견훤로 100 (중노송동),전라북도 전주시 완산구 중노송동 26-1,35.81956572,127.1629459,1831,2220,Y,주차장,063-220-5219,전라북도 전주시청 완산구청 건설과,2020-08-31
"두일하나아파트 주차장",공공용,"전라북도 전주시 완산구 장승배기로 50 (삼천동1가, 두일하나아파트)",전라북도 전주시 완산구 삼천동1가 306-8,35.79174711,127.1185086,2482,3008,Y,주차장,063-220-5219,전라북도 전주시청 완산구청 건설과,2020-08-31
"평화1동지하보도",공공용,"전라북도 전주시 완산구 장승배기로 256 (평화동1가, 평화1동주민센터)",전라북도 전주시 완산구 평화동1가 445-8,35.7980668,127.1403211,212,257,Y,주차장,063-220-5219,전라북도 전주시청 완산구청 건설과,2020-08-31
"평화1동 한성아파트 지하주차장",공공용,"전라북도 전주시 완산구 덕적골1길 33 (평화동1가, 한성아파트)",전라북도 전주시 완산구 평화동1가 467,35.79482352,127.1407131,1155,1400,Y,주차장,063-220-5219,전라북도 전주시청 완산구청 건설과,2020-08-31
"평화1동 일성아파트(지하주차장)",공공용,"전라북도 전주시 완산구 평화19길 20 (평화동1가, 일성아파트)",전라북도 전주시 완산구 평화동1가 522,35.7938420619,127.1383706228,1815,2200,Y,주차장,063-220-5219,전라북도 전주시청 완산구청 건설과,2020-08-31
"삼천하이츠 아파트",공공용,"전라북도 전주시 완산구 강변로 106 (삼천동1가, 삼천하이츠)",전라북도 전주시 완산구 삼천동1가 722-2,35.80061398,127.1126318,4580,5552,Y,주차장,063-220-5219,전라북도 전주시청 완산구청 건설과,2020-08-31
"삼천동남양아파트",공공용,전라북도 전주시 완산구 삼천천변1길 32 (삼천동1가),전라북도 전주시 완산구 삼천동1가 290-8,35.79394396,127.1133436,4870,5904,Y,주차장,063-220-5219,전라북도 전주시청 완산구청 건설과,2020-08-31
"금호청솔아파트 주차장(모든 동의 지하)",공공용,"전라북도 전주시 완산구 안행5길 11 (삼천동1가, 금호청솔아파트)",전라북도 전주시 완산구 삼천동1가 740-1,35.8018571,127.1310429,1320,1600,Y,주차장,063-220-5219,전라북도 전주시청 완산구청 건설과,2020-08-31
"안행현대아파트 주차장(모든 동의 지하)",공공용,"전라북도 전주시 완산구 안행2길 14 (삼천동1가, 안행현대아파트)",전라북도 전주시 완산구 삼천동1가 740-3,35.8011330399,127.1305283789,1356,1644,Y,주차장,063-220-5219,전라북도 전주시청 완산구청 건설과,2020-08-31
"진흥하이츠아파트(지하주차장)",공공용,전라북도 전주시 완산구 학봉2길 11 (동서학동),전라북도 전주시 완산구 동서학동 279-4,35.80610108,127.1546116,1643,1988,Y,주차장,063-220-5219,전라북도 전주시청 완산구청 건설과,2020-08-31
"신세계블루타운",공공용,"전라북도 전주시 완산구 흑석로 64 (서서학동, 신세계블루타운아파트)",전라북도 전주시 완산구 서서학동 983-2,35.7988628,127.1499289154,2867,3476,Y,주차장,063-220-5219,전라북도 전주시청 완산구청 건설과,2020-08-31
"대승푸른맨션",공공용,"전라북도 전주시 완산구 흑석로 53 (서서학동, 푸른맨션아파트)",전라북도 전주시 완산구 서서학동 977-1,35.7992164083,127.1510637,435,528,Y,주차장,063-220-5219,전라북도 전주시청 완산구청 건설과,2020-08-31
"광진산업아파트",공공용,"전라북도 전주시 완산구 덕적골3길 15 (서서학동, 광진산업아파트)",전라북도 전주시 완산구 서서학동 318-10,35.79861428,127.145229,4953,6004,Y,주차장,063-220-5219,전라북도 전주시청 완산구청 건설과,2020-08-31
"효성흑석마을아파트",공공용,"전라북도 전주시 완산구 흑석1길 85 (서서학동, 흑석마을아파트)",전라북도 전주시 완산구 서서학동 985-1,35.79804357,127.1490823,3201,3880,Y,주차장,063-220-5219,전라북도 전주시청 완산구청 건설과,2020-08-31
"흥건삼천2차아파트",공공용,"전라북도 전주시 완산구 삼천천변1길 45 (삼천동1가, 흥건2차아파트)",전라북도 전주시 완산구 삼천동1가 289-5,35.79572665,127.1152533,4476,10852,Y,주차장,063-220-5219,전라북도 전주시청 완산구청 건설과,2020-08-31
"영동고덕아파트 A동(지하주차장)",공공용,"전라북도 전주시 완산구 고덕산2길 9, A동 (대성동, 영동고덕아파트)",전라북도 전주시 완산구 대성동 19-3,35.79872386,127.1789312,1406,1701,Y,주차장,063-220-5219,전라북도 전주시청 완산구청 건설과,2020-08-31
"성원아파트",공공용,"전라북도 전주시 완산구 서신천변11길 20 (서신동, 성원아파트)",전라북도 전주시 완산구 서신동 762-2,35.8303454,127.1119699,1320,1600,Y,주차장,063-220-5219,전라북도 전주시청 완산구청 건설과,2020-08-31
"현대아파트(서신동)",공공용,"전라북도 전주시 완산구 서신로 90 (서신동, 현대아파트)",전라북도 전주시 완산구 서신동 765-1,35.83241337,127.1171391,5940,7200,Y,주차장,063-220-5219,전라북도 전주시청 완산구청 건설과,2020-08-31
"중흥아파트",공공용,"전라북도 전주시 완산구 새터로 74 (서신동, 중흥아파트)",전라북도 전주시 완산구 서신동 962-2,35.83521363,127.1142789,3300,4000,Y,주차장,063-220-5219,전라북도 전주시청 완산구청 건설과,2020-08-31
"남양황실아파트",공공용,"전라북도 전주시 완산구 따박골로 8 (효자동1가, 남양황실아파트)",전라북도 전주시 완산구 효자동1가 640,35.8090676368,127.1238231052,1683,2040,Y,주차장,063-220-5219,전라북도 전주시청 완산구청 건설과,2020-08-31
"거성소라아파트",공공용,"전라북도 전주시 완산구 백제대로 160 (효자동1가, 거성소라아파트)",전라북도 전주시 완산구 효자동1가 639,35.8068865498,127.1238551245,1353,1640,Y,주차장,063-220-5219,전라북도 전주시청 완산구청 건설과,2020-08-31
"영동고덕아파트 B동(지하주차장)",공공용,"전라북도 전주시 완산구 고덕산2길 9 (대성동, 영동고덕아파트)",전라북도 전주시 완산구 대성동 19,35.79872386,127.1789312,1097,1327,Y,주차장,063-220-5219,전라북도 전주시청 완산구청 건설과,2020-08-31
"호반리젠시빌아파트",공공용,전라북도 전주시 완산구 삼천천변3길 20 (삼천동1가),전라북도 전주시 완산구 삼천동1가 286-10,35.79673545,127.1120953,5016,12160,Y,주차장,063-220-5219,전라북도 전주시청 완산구청 건설과,2020-08-31
"다가대피소",공공용,전라북도 전주시 완산구 전주천동로 220 (다가동3가),전라북도 전주시 완산구 다가동3가 121,35.8163055203,127.1402825059,1296,1568,Y,주차장,063-220-5219,전라북도 전주시청 완산구청 건설과,2020-08-31
"하나대투증권",공공용,전라북도 전주시 완산구 팔달로 229 (고사동),전라북도 전주시 완산구 고사동 2-1,35.8227168,127.1450166,1250,1500,Y,주차장,063-220-5219,전라북도 전주시청 완산구청 건설과,2020-08-31
"성원오피스텔",공공용,전라북도 전주시 완산구 풍남문4길 25-26 (중앙동4가),전라북도 전주시 완산구 중앙동4가 31-18,35.8148687,127.1445785,1566,1879,Y,주차장,063-220-5219,전라북도 전주시청 완산구청 건설과,2020-08-31
"엔씨웨이브(구 엔떼피아)",공공용,전라북도 전주시 완산구 전주객사5길 35 (고사동),전라북도 전주시 완산구 고사동 96-1,35.81962109,127.1450592,5700,6840,Y,주차장,063-220-5219,전라북도 전주시청 완산구청 건설과,2020-08-31
"삼천2동주민센터",공공용,전라북도 전주시 완산구 거마중앙로 49 (삼천동1가),전라북도 전주시 완산구 삼천동1가 633,35.7963173,127.1223579,412,500,Y,주차장,063-220-5219,전라북도 전주시청 완산구청 건설과,2020-08-31
"서도프라자(지하주차장)",공공용,"전라북도 전주시 완산구 용머리로 36 (효자동1가, 서도프라자)",전라북도 전주시 완산구 효자동1가 454-1,35.8055151174,127.1144854,6996,8480,Y,주차장,063-220-5219,전라북도 전주시청 완산구청 건설과,2020-08-31
"대우빌딩",공공용,"전라북도 전주시 완산구 기린대로 213 (서노송동, 대우빌딩)",전라북도 전주시 완산구 서노송동 568-95,35.8257097,127.1463646,9999,20840,Y,주차장,063-220-5219,전라북도 전주시청 완산구청 건설과,2020-08-31
"남양황제아파트",공공용,"전라북도 전주시 완산구 백제대로 159 (효자동1가, 남양황제아파트)",전라북도 전주시 완산구 효자동1가 637,35.80689538,127.1222708,838,1016,Y,주차장,063-220-5219,전라북도 전주시청 완산구청 건설과,2020-08-31
"제일아파트",공공용,"전라북도 전주시 완산구 신봉로 52 (효자동1가, 제일아파트)",전라북도 전주시 완산구 효자동1가 636,35.80889775,127.120716,825,1000,Y,주차장,063-220-5219,전라북도 전주시청 완산구청 건설과,2020-08-31
"신일아파트",공공용,"전라북도 전주시 완산구 신봉로 51 (효자동1가, 신일아파트)",전라북도 전주시 완산구 효자동1가 635-2,35.80982312,127.1218371,1686,2044,Y,주차장,063-220-5219,전라북도 전주시청 완산구청 건설과,2020-08-31
"한양운남아파트",공공용,"전라북도 전주시 완산구 신봉로 71 (효자동1가, 한양운남아파트)",전라북도 전주시 완산구 효자동1가 635-1,35.80947987,127.1225934,1267,1536,Y,주차장,063-220-5219,전라북도 전주시청 완산구청 건설과,2020-08-31
"비사벌아파트(효자2동)",공공용,"전라북도 전주시 완산구 서원로 258 (효자동1가, 비사벌아파트)",전라북도 전주시 완산구 효자동1가 635,35.81129359,127.1222199762,1471,1784,Y,주차장,063-220-5219,전라북도 전주시청 완산구청 건설과,2020-08-31
"성원골드아파트",공공용,"전라북도 전주시 완산구 신봉로 72 (효자동1가, 성원골드맨션아파트 상가)",전라북도 전주시 완산구 효자동1가 636-2,35.80921319,127.1225089,557,676,Y,주차장,063-220-5219,전라북도 전주시청 완산구청 건설과,2020-08-31
"남양송정아파트",공공용,"전라북도 전주시 완산구 용머리로 78 (효자동1가, 남양송정아파트)",전라북도 전주시 완산구 효자동1가 280-2,35.8053849822,127.1185554402,1006,1220,Y,주차장,063-220-5219,전라북도 전주시청 완산구청 건설과,2020-08-31
"남양효자아파트",공공용,"전라북도 전주시 완산구 용머리로 68 (효자동1가, 남양효자맨션아파트)",전라북도 전주시 완산구 효자동1가 282-20,35.8056058114,127.1176345,858,1040,Y,주차장,063-220-5219,전라북도 전주시청 완산구청 건설과,2020-08-31
"대우청솔아파트",공공용,"전라북도 전주시 완산구 오두정길 10 (효자동1가, 대우청솔아파트)",전라북도 전주시 완산구 효자동1가 296-154,35.8076303,127.1202183940,1270,1540,Y,주차장,063-220-5219,전라북도 전주시청 완산구청 건설과,2020-08-31
"전주시청대피소",공공용,전라북도 전주시 완산구 노송광장로 10 (서노송동),전라북도 전주시 완산구 서노송동 568-1,35.8241093266,127.1480420569,1372,1660,Y,주차장,063-220-5219,전라북도 전주시청 완산구청 건설과,2020-08-31
"효자성원아파트",공공용,"전라북도 전주시 완산구 거마평로 189-27 (효자동1가, 효자성원맨션 상가)",전라북도 전주시 완산구 효자동1가 415-2,35.8081325,127.1143507,1461,1772,Y,주차장,063-220-5219,전라북도 전주시청 완산구청 건설과,2020-08-31
"대풍한마을아파트",공공용,"전라북도 전주시 완산구 따박골7길 22 (서완산동2가, 대풍한마을아파트)",전라북도 전주시 완산구 서완산동2가 341-1,35.8090197,127.1306873749,350,480,Y,주차장,063-220-5219,전라북도 전주시청 완산구청 건설과,2020-08-31
"한강아파트(효자3동)",공공용,"전라북도 전주시 완산구 강변로 120 (효자동1가, 한강아파트)",전라북도 전주시 완산구 효자동1가 660-1,35.80156188,127.1128809,6316,7656,Y,주차장,063-220-5219,전라북도 전주시청 완산구청 건설과,2020-08-31
"전통문화관",공공용,전라북도 전주시 완산구 전주천동로 20 (교동),전라북도 전주시 완산구 교동 7-1,35.8122455221,127.1590316808,2340.7,2340,Y,주차장,063-220-5219,전라북도 전주시청 완산구청 건설과,2020-08-31
"전북도청 비상대피시설",공공용,전라북도 전주시 완산구 효자로 225 (효자동3가),전라북도 전주시 완산구 효자동3가 1,35.81944885,127.106373,2126,2572,Y,주차장,063-220-5219,전라북도 전주시청 완산구청 건설과,2020-08-31
"효자남양i좋은집",공공용,"전라북도 전주시 완산구 강변로 242 (효자동1가, 남양아이좋은집아파트)",전라북도 전주시 완산구 효자동1가 363-1,35.8113094119,127.1134346810,2795,3388,Y,주차장,063-220-5219,전라북도 전주시청 완산구청 건설과,2020-08-31
"우성해오름아파트",공공용,"전라북도 전주시 완산구 인봉남로 56 (중노송동, 우성해오름아파트)",전라북도 전주시 완산구 중노송동 303,35.8259376428,127.1588952044,4062,4924,Y,주차장,063-220-5219,전라북도 전주시청 완산구청 건설과,2020-08-31
"동신2단지아파트(115동앞)",공공용,"전라북도 전주시 완산구 양지2길 52-7, 115동 (평화동2가)",전라북도 전주시 완산구 평화동2가 606-1,35.79083334,127.1202108,3570,4328,Y,주차장,063-220-5219,전라북도 전주시청 완산구청 건설과,2020-08-31
"현대아파트(평화2동)",공공용,전라북도 전주시 완산구 소대배기로 33 (평화동2가),전라북도 전주시 완산구 평화동2가 336-6,35.78782282,127.1341303,3227,3912,Y,주차장,063-220-5219,전라북도 전주시청 완산구청 건설과,2020-08-31
"코오롱아파트 12동앞",공공용,전라북도 전주시 완산구 평화로 181 (평화동1가),전라북도 전주시 완산구 평화동1가 696,35.79264448,127.1358243,4260,5164,Y,주차장,063-220-5219,전라북도 전주시청 완산구청 건설과,2020-08-31
"코오롱아파트7동앞",공공용,전라북도 전주시 완산구 평화로 181 (평화동1가),전라북도 전주시 완산구 평화동1가 696,35.79264448,127.1358243,1310,1588,Y,주차장,063-220-5219,전라북도 전주시청 완산구청 건설과,2020-08-31
"우미아파트",공공용,전라북도 전주시 완산구 모악로 4685 (평화동2가),전라북도 전주시 완산구 평화동2가 312-6,35.78798652,127.1294981,1471,1784,Y,주차장,063-220-5219,전라북도 전주시청 완산구청 건설과,2020-08-31
"송정써미트아파트",공공용,전라북도 전주시 완산구 평화7길 40 (평화동2가),전라북도 전주시 완산구 평화동2가 943,35.7851097345,127.1391297568,6421,7784,Y,주차장,063-220-5219,전라북도 전주시청 완산구청 건설과,2020-08-31
"전라북도 교육청",공공용,"전라북도 전주시 완산구 홍산로 111 (효자동2가, 전라북도교육청)",전라북도 전주시 완산구 효자동2가 1325,35.8043180173,127.1027460898,4618,5597,Y,주차장,063-220-5219,전라북도 전주시청 완산구청 건설과,2020-08-31
"서부신시가지 아이파크아파트",공공용,"전라북도 전주시 완산구 홍산로 390 (효자동3가, 서부신시가지아이파크아파트)",전라북도 전주시 완산구 효자동3가 1524-1,35.82727877,127.1066225,9999,29585,Y,주차장,063-220-5219,전라북도 전주시청 완산구청 건설과,2020-08-31
"세창짜임아파트(모든 동의 지하)",공공용,"전라북도 전주시 완산구 용리로 179 (삼천동1가, 세창짜임아파트)",전라북도 전주시 완산구 삼천동1가 585-10,35.79996102,127.1275217,5872,7117,Y,주차장,063-220-5219,전라북도 전주시청 완산구청 건설과,2020-08-31
"서신도서관",공공용,"전라북도 전주시 완산구 서신천변14길 10 (서신동, 서신복합문화센터(도서관,서신주민센터))",전라북도 전주시 완산구 서신동 804,35.8310199942,127.1153256,1560,280,Y,주차장,063-220-5219,전라북도 전주시청 완산구청 건설과,2020-08-31
"서신지하보도(교원공제앞)",공공용,전라북도 전주시 완산구 온고을로 1 (서신동),전라북도 전주시 완산구 서신동 769-1,35.8333096587,127.1221734,237,280,Y,주차장,063-220-5219,전라북도 전주시청 완산구청 건설과,2020-08-31
"서신광장지하보도(KT전북본부앞)",공공용,전라북도 전주시 완산구 온고을로 29 (서신동),전라북도 전주시 완산구 서신동 766,35.8333409,127.1204617,192,230,Y,주차장,063-220-5219,전라북도 전주시청 완산구청 건설과,2020-08-31
"완산구청",공공용,"전라북도 전주시 완산구 서원로 232 (효자동1가, 완산구청)",전라북도 전주시 완산구 효자동1가 595,35.8121536,127.1197870875,3239,3926,Y,주차장,063-220-5219,전라북도 전주시청 완산구청 건설과,2020-08-31
"전주태평SK View",공공용,전라북도 전주시 완산구 태평2길 22 (태평동),전라북도 전주시 완산구 태평동 291,35.82473899,127.1400311,5000,6060,Y,주차장,063-220-5219,전라북도 전주시청 완산구청 건설과,2020-08-31
"호텔르윈",공공용,전라북도 전주시 완산구 기린대로 85 (풍남동3가),전라북도 전주시 완산구 풍남동3가 26-5,35.8170099,127.1540822,4670.6,5644,Y,주차장,063-220-5219,전라북도 전주시청 완산구청 건설과,2020-08-31
"오페라하우스아파트",공공용,"전라북도 전주시 완산구 안행로 150 (서완산동2가, 전주오페라하우스)",전라북도 전주시 완산구 서완산동2가 335,35.80980761,127.1330653,11000,17100,Y,주차장,063-220-5219,전라북도 전주시청 완산구청 건설과,2020-08-31
"완산교회",공공용,"전라북도 전주시 완산구 전주천서로 181 (서완산동1가, 전주완산교회)",전라북도 전주시 완산구 서완산동1가 232-2,35.811852,127.1413804938,600,758,Y,주차장,063-220-5219,전라북도 전주시청 완산구청 건설과,2020-08-31
"대아산성아파트(지하주차장)",공공용,전라북도 전주시 완산구 남고산성1길 37 (동서학동),전라북도 전주시 완산구 동서학동 839-1,35.8045309536,127.1562442945,1067,1291,Y,주차장,063-220-5219,전라북도 전주시청 완산구청 건설과,2020-08-31
"영창맨션",공공용,"전라북도 전주시 완산구 장승배기8길 13 (서서학동, 영창공원맨션)",전라북도 전주시 완산구 서서학동 369-9,35.8030688052,127.1463125054,825,1000,Y,주차장,063-220-5219,전라북도 전주시청 완산구청 건설과,2020-08-31
"우정아파트",공공용,"전라북도 전주시 완산구 흑석로 65 (서서학동, 우정아파트 상가)",전라북도 전주시 완산구 서서학동 987-1,35.79851442,127.150216,300,363,Y,주차장,063-220-5219,전라북도 전주시청 완산구청 건설과,2020-08-31
"옥성트레비앙아파트",공공용,"전라북도 전주시 완산구 서원로 348 (중화산동1가, 옥성트레비앙아파트)",전라북도 전주시 완산구 중화산동1가 327-12,35.8124007577,127.1320009,4863,5895,Y,주차장,063-220-5219,전라북도 전주시청 완산구청 건설과,2020-08-31
"현대에코르아파트",공공용,전라북도 전주시 완산구 화산천변로 50 (중화산동2가),전라북도 전주시 완산구 중화산동2가 745-1,35.8239341755,127.1172904640,9999,30032,Y,주차장,063-220-5219,전라북도 전주시청 완산구청 건설과,2020-08-31
"우성중산타운",공공용,전라북도 전주시 완산구 신촌3길 1 (중화산동2가),전라북도 전주시 완산구 중화산동2가 406-3,35.8161340905,127.1175140178,3830,4642,Y,주차장,063-220-5219,전라북도 전주시청 완산구청 건설과,2020-08-31
"효성양지임대아파트",공공용,"전라북도 전주시 완산구 장승배기3길 8 (평화동1가, 효성양지아파트)",전라북도 전주시 완산구 평화동1가 412,35.8004127549,127.1425860017,3073,3700,Y,주차장,063-220-5219,전라북도 전주시청 완산구청 건설과,2020-08-31
"지안리즈아파트",공공용,"전라북도 전주시 완산구 덕적골2길 66 (평화동1가, 평화지안리즈아파트)",전라북도 전주시 완산구 평화동1가 761,35.79334128,127.1411972,4339,10519,Y,주차장,063-220-5219,전라북도 전주시청 완산구청 건설과,2020-08-31
"동신1단지아파트(108동앞)",공공용,"전라북도 전주시 완산구 양지2길 10, 108동 (평화동2가)",전라북도 전주시 완산구 평화동2가 567,35.79100213,127.1208615,7014,8502,Y,주차장,063-220-5219,전라북도 전주시청 완산구청 건설과,2020-08-31
"동도미소드림아파트 3동",공공용,전라북도 전주시 완산구 모악로 4651 (평화동2가),전라북도 전주시 완산구 평화동2가 457-4,35.78616111,127.1272917,2000,2424,Y,주차장,063-220-5219,전라북도 전주시청 완산구청 건설과,2020-08-31
"동도미소드림아파트 6동",공공용,전라북도 전주시 완산구 모악로 4651 (평화동2가),전라북도 전주시 완산구 평화동2가 457-4,35.78616111,127.1272917,2000,2424,Y,주차장,063-220-5219,전라북도 전주시청 완산구청 건설과,2020-08-31
"동아현대아파트 101동앞",공공용,전라북도 전주시 완산구 맏내3길 22 (평화동2가),전라북도 전주시 완산구 평화동2가 843-1,35.7931386438,127.1290329805,3210,3891,Y,주차장,063-220-5219,전라북도 전주시청 완산구청 건설과,2020-08-31
"평화주공그린1차 107동앞",공공용,전라북도 전주시 완산구 구이로 2094 (평화동2가),전라북도 전주시 완산구 평화동2가 897-1,35.78322153,127.1319812,1805,2188,Y,주차장,063-220-5219,전라북도 전주시청 완산구청 건설과,2020-08-31
"평화주공그린1차 110동앞",공공용,전라북도 전주시 완산구 구이로 2094 (평화동2가),전라북도 전주시 완산구 평화동2가 897-1,35.78322153,127.1319812,1887,2188,Y,주차장,063-220-5219,전라북도 전주시청 완산구청 건설과,2020-08-31
"평화주공그린2차 201동앞",공공용,전라북도 전주시 완산구 평화로 100 (평화동2가),전라북도 전주시 완산구 평화동2가 896-1,35.7866359,127.1348893,1887,2287,Y,주차장,063-220-5219,전라북도 전주시청 완산구청 건설과,2020-08-31
"평화주공그린2차 207동앞",공공용,전라북도 전주시 완산구 평화로 100 (평화동2가),전라북도 전주시 완산구 평화동2가 896-1,35.7866359,127.1348893,1887,2287,Y,주차장,063-220-5219,전라북도 전주시청 완산구청 건설과,2020-08-31
"평화주공그린2차 209동앞",공공용,전라북도 전주시 완산구 평화로 100 (평화동2가),전라북도 전주시 완산구 평화동2가 896-1,35.7866359,127.1348893,1887,2287,Y,주차장,063-220-5219,전라북도 전주시청 완산구청 건설과,2020-08-31
"호반리젠시빌 103동앞",공공용,전라북도 전주시 완산구 평화로 95 (평화동2가),전라북도 전주시 완산구 평화동2가 889-7,35.78510203,127.1331966,2275,2758,Y,주차장,063-220-5219,전라북도 전주시청 완산구청 건설과,2020-08-31
"경복궁아파트 101동앞",공공용,전라북도 전주시 완산구 평화로 120 (평화동2가),전라북도 전주시 완산구 평화동2가 180,35.7875295919,127.1352138371,1035,1255,Y,주차장,063-220-5219,전라북도 전주시청 완산구청 건설과,2020-08-31
"미송평화하이존101동앞",공공용,전라북도 전주시 완산구 모악로 4681 (평화동2가),전라북도 전주시 완산구 평화동2가 310-1,35.78736129,127.1275768,4482,5433,Y,주차장,063-220-5219,전라북도 전주시청 완산구청 건설과,2020-08-31
"교원공제전북지부",공공용,"전라북도 전주시 완산구 온고을로 1 (서신동, 한국교직원공제회전북회관)",전라북도 전주시 완산구 서신동 769-1,35.8333096587,127.1221734,5973,7240,Y,주차장,063-220-5219,전라북도 전주시청 완산구청 건설과,2020-08-31
KT전북본부,공공용,"전라북도 전주시 완산구 온고을로 29 (서신동, KT빌딩)",전라북도 전주시 완산구 서신동 766,35.8333409,127.1204617,4084,4950,Y,주차장,063-220-5219,전라북도 전주시청 완산구청 건설과,2020-08-31
"롯데백화점전주점",공공용,"전라북도 전주시 완산구 온고을로 2 (서신동, 롯데백화점)",전라북도 전주시 완산구 서신동 971,35.8344854,127.1218393493,9999,24320,Y,주차장,063-220-5219,전라북도 전주시청 완산구청 건설과,2020-08-31
"신세계이마트전주점",공공용,"전라북도 전주시 완산구 당산로 111 (서신동, E마트)",전라북도 전주시 완산구 서신동 767,35.832564,127.1204648,9042,10960,Y,주차장,063-220-5219,전라북도 전주시청 완산구청 건설과,2020-08-31
"광진궁전아파트",공공용,전라북도 전주시 완산구 장승배기로 145 (삼천동1가),전라북도 전주시 완산구 삼천동1가 705-6,35.7954322178,127.1283242681,3890,4715,Y,주차장,063-220-5219,전라북도 전주시청 완산구청 건설과,2020-08-31
"쌍용아파트(삼천2동)",공공용,전라북도 전주시 완산구 용리로 178 (삼천동1가),전라북도 전주시 완산구 삼천동1가 705-3,35.797898,127.128399,2150,2606,Y,주차장,063-220-5219,전라북도 전주시청 완산구청 건설과,2020-08-31
"우성그린아파트",공공용,전라북도 전주시 완산구 솟대로 8 (삼천동1가),전라북도 전주시 완산구 삼천동1가 705-7,35.79468429,127.1265088,5460,6618,Y,주차장,063-220-5219,전라북도 전주시청 완산구청 건설과,2020-08-31
"한신휴플러스아파트",공공용,"전라북도 전주시 완산구 따박골4길 10 (효자동1가, 효자동 한신휴플러스)",전라북도 전주시 완산구 효자동1가 799,35.80671657,127.1278158,6232,7553,Y,주차장,063-220-5219,전라북도 전주시청 완산구청 건설과,2020-08-31
"효자뷰티빌",공공용,"전라북도 전주시 완산구 거마평로 217 (효자동1가, 뷰티빌)",전라북도 전주시 완산구 효자동1가 373,35.8108362667,127.1143678578,5045,6115,Y,주차장,063-220-5219,전라북도 전주시청 완산구청 건설과,2020-08-31
"전북지방경찰청",공공용,"전라북도 전주시 완산구 유연로 180 (효자동3가, 전북지방경찰청)",전라북도 전주시 완산구 효자동3가 1628,35.8242501,127.1050517,4766,5777,Y,주차장,063-220-5219,전라북도 전주시청 완산구청 건설과,2020-08-31
"휴먼시아1단지아파트",공공용,"전라북도 전주시 완산구 호암로 2 (효자동2가, 효자휴먼시아1단지아파트)",전라북도 전주시 완산구 효자동2가 1191-1,35.80748512,127.0961338,4766,11555,Y,주차장,063-220-5219,전라북도 전주시청 완산구청 건설과,2020-08-31
"휴먼시아 5단지",공공용,"전라북도 전주시 완산구 호암로 87 (효자동2가, 효자휴먼시아5단지아파트)",전라북도 전주시 완산구 효자동2가 1316-1,35.809231,127.1035623,4283,10383,Y,주차장,063-220-5219,전라북도 전주시청 완산구청 건설과,2020-08-31
"엘드1차아파트",공공용,"전라북도 전주시 완산구 세내로 241 (효자동2가, 효자1차엘드수목토아파트)",전라북도 전주시 완산구 효자동2가 70,35.8127333255,127.1096348298,9999,24244,Y,주차장,063-220-5219,전라북도 전주시청 완산구청 건설과,2020-08-31
"풍림아이원 아파트",공공용,"전라북도 전주시 완산구 우전1길 40 (효자동2가, 풍림아이원아파트)",전라북도 전주시 완산구 효자동2가 184,35.8060276178,127.1059701001,4853,5882,Y,주차장,063-220-5219,전라북도 전주시청 완산구청 건설과,2020-08-31
"서곡주공아파트",공공용,"전라북도 전주시 완산구 서곡로 8 (효자동3가, 서곡주공아파트)",전라북도 전주시 완산구 효자동3가 1482-1,35.8317791082,127.0966146809,3801,4607,Y,주차장,063-220-5219,전라북도 전주시청 완산구청 건설과,2020-08-31
"전주중화산풍림아이원",공공용,"전라북도 전주시 완산구 서원로 289 (중화산동2가, 중화산풍림아이원아파트)",전라북도 전주시 완산구 중화산동2가 827,35.8132566180,127.1273526735,9999,19350,Y,주차장,063-220-5219,전라북도 전주시청 완산구청 건설과,2020-08-31
"광진햇빛찬1차아파트",공공용,"전라북도 전주시 완산구 강변로 306 (중화산동2가, 광진햇빛찬아파트)",전라북도 전주시 완산구 중화산동2가 825,35.8174406194,127.1144614266,1890,2291,Y,주차장,063-220-5219,전라북도 전주시청 완산구청 건설과,2020-08-31
"동방아로채 지하주차장",공공용,"전라북도 전주시 완산구 효동3길 17-5 (효자동1가, 동방아로채2단지)",전라북도 전주시 완산구 효자동1가 802,35.80531628,127.1292518,2032,2463,Y,주차장,063-220-5219,전라북도 전주시청 완산구청 건설과,2020-08-31
"국립무형유산원 지하주차장",공공용,"전라북도 전주시 완산구 서학로 95 (동서학동, 국립무형유산원)",전라북도 전주시 완산구 동서학동 896-1,35.8098617669,127.1596509618,6448.39,7816,Y,주차장,063-220-5219,전라북도 전주시청 완산구청 건설과,2020-08-31
"효자대림아파트 제3주차장",공공용,"전라북도 전주시 완산구 안행2길 26 (효자동1가, 대림아파트)",전라북도 전주시 완산구 효자동1가 205-74,35.8036192646,127.1283507110,1466,1799,Y,주차장,063-220-5219,전라북도 전주시청 완산구청 건설과,2020-08-31
"효자대림아파트 제5주차장",공공용,"전라북도 전주시 완산구 안행2길 26 (효자동1가, 대림아파트)",전라북도 전주시 완산구 효자동1가 205-74,35.8036192646,127.1283507110,3034,3682,Y,주차장,063-220-5219,전라북도 전주시청 완산구청 건설과,2020-08-31
"이안전주삼천아파트(지하주차장)",공공용,"전라북도 전주시 완산구 용리로 165 (삼천동1가, 이안전주삼천)",전라북도 전주시 완산구 삼천동1가 772,35.79912035,127.1247458,9999,12121,Y,주차장,063-220-5219,전라북도 전주시청 완산구청 건설과,2020-08-31
"오네뜨아파트",공공용,"전라북도 전주시 완산구 덕적골1길 50 (평화동1가, 평화동오네뜨아파트)",전라북도 전주시 완산구 평화동1가 766,35.7932925596,127.1396971261,14617,17718,Y,주차장,063-220-5219,전라북도 전주시청 완산구청 건설과,2020-08-31
