"민방위대피시설명",민방위대피시설구분,소재지도로명주소,소재지지번주소,위도,경도,민방위대피시설면적,대피가능인원수,개방여부,평시활용유형,관리기관전화번호,관리기관명,데이터기준일자
"대정농협",공공용,제주특별자치도 서귀포시 대정읍 하모중앙로 70,,33.22190336,126.2518555,588.43,713,Y,주차장,064-760-4052,대정읍,2021-06-30
"성환아파트",공공용,제주특별자치도 서귀포시 대정읍 하모중앙로68번길 5,,33.22204804,126.251399,1011.99,1227,Y,주차장,064-760-4052,대정읍,2021-06-30
"캐논스빌리지1단지",공공용,제주특별자치도 서귀포시 대정읍 글로벌에듀로145번길 46,,33.29540793,126.2903056,105.38,128,Y,계절창고,064-760-4052,대정읍,2021-06-30
"청소년수련관",공공용,제주특별자치도 서귀포시 대정읍 동일하모로149번길 21-8,,33.22788674,126.2477297,988,1198,Y,체력단련실.식당 등,064-760-4052,대정읍,2021-06-30
NLCS-JEJU,공공용,제주특별자치도 서귀포시 대정읍 글로벌에듀로145번길 33,,33.29684105,126.2918094129,5468.11,6628,Y,주차장,064-760-4052,대정읍,2021-06-30
"브랭섬홀아시아",공공용,제주특별자치도 서귀포시 대정읍 글로벌에듀로 234,,33.28997008,126.2872664,12202,14790,Y,주차장.체육관,064-760-4052,대정읍,2021-06-30
"한국국제학교",공공용,제주특별자치도 서귀포시 대정읍 글로벌에듀로260번길 34,,33.28909474,126.2843063,2154,2611,Y,주차장,064-760-4052,대정읍,2021-06-30
"남원읍사무소",공공용,제주특별자치도 서귀포시 남원읍 태위로 695,,33.27989564,126.7206785,1107,1342,Y,주차장,064-760-4152,남원읍,2021-06-30
"수협남원지소",공공용,제주특별자치도 서귀포시 남원읍 태위로 698,,33.279479,126.7210792,360.33,437,Y,창고,064-760-4152,남원읍,2021-06-30
"남원농협",공공용,제주특별자치도 서귀포시 남원읍 태위로 678,,33.27889111,126.7188694,387,469,Y,창고,064-760-4152,남원읍,2021-06-30
"남원생활체육관",공공용,제주특별자치도 서귀포시 남원읍 태위로 551-27,,33.27740522,126.7033506,188,228,Y,창고,064-760-4152,남원읍,2021-06-30
"서귀포동부보건소",공공용,제주특별자치도 서귀포시 남원읍 태위로 527,,33.27562882,126.7034172,93,113,Y,창고,064-760-4152,남원읍,2021-06-30
"남원에덴아파트",공공용,제주특별자치도 서귀포시 남원읍 남원광지로 5,,33.27835435,126.7122033,1283,1555,Y,주차장,064-760-4152,남원읍,2021-06-30
"금호리조트㈜제주",공공용,제주특별자치도 서귀포시 남원읍 태위로 522-15,,33.2737253,126.7037302,1419,1720,Y,주차장,064-760-4152,남원읍,2021-06-30
"성산포수협어민복지회관",공공용,제주특별자치도 서귀포시 성산읍 동류암로 36번길 5,,33.44966851,126.9161251,170.65,207,Y,태권도장,064-760-4253,성산읍,2021-06-30
"성산포수협신산지소",공공용,제주특별자치도 서귀포시 성산읍 일주동로 5113,,33.3803898,126.8764284,154,186,Y,사무실,064-760-4253,성산읍,2021-06-30
"성산농협신산지소",공공용,제주특별자치도 서귀포시 성산읍 일주동로 5114,,33.3804736,126.8758776,252.33,306,Y,창고,064-760-4253,성산읍,2021-06-30
"동명아파트",공공용,제주특별자치도 서귀포시 성산읍 고성동서로56번길 10,,33.44985779,126.9136208,722.49,876,Y,주차장,064-760-4253,성산읍,2021-06-30
"동부소방서",공공용,제주특별자치도 서귀포시 성산읍 일주동로4120번길 7,,33.460229,126.9096477,408.9,496,Y,사무실,064-760-4253,성산읍,2021-06-30
"안덕농협",공공용,제주특별자치도 서귀포시 안덕면 화순로 104,,33.24679952,126.3351814,449,544,Y,창고,064-760-4354,안덕면,2021-06-30
"산방도서관",공공용,제주특별자치도 서귀포시 안덕면 화순서서로 44,,33.2550127,126.3306509,187.7,228,Y,창고,064-760-4354,안덕면,2021-06-30
"표선면사무소",공공용,제주특별자치도 서귀포시 표선면 표선중앙로 74,,33.32667927,126.8310104,193,234,Y,체력단력실,064-760-4455,표선면,2021-06-30
"표선리사무소(복지회관)",공공용,제주특별자치도 서귀포시 표선면 표선동서로 234,,33.3247359,126.8323521,83,101,Y,창고,064-760-4455,표선면,2021-06-30
"표선해비치호텔&리조트",공공용,제주특별자치도 서귀포시 표선면 민속해안로 537,,33.32304283,126.8441927,7923,9604,Y,주차장,064-760-4455,표선면,2021-06-30
"뉴서울호텔",공공용,제주특별자치도 서귀포시 천지연로29번길 8,,33.2413732,126.5629877,211.57,256,Y,음식점,064-760-4511,송산동,2021-06-30
"백호빌딩",공공용,제주특별자치도 서귀포시 칠십리로91번길 20,,33.2412250142,126.5634928122,409.92,496,Y,주차장,064-760-4503,송산동,2021-06-30
"장원주상복합건물",공공용,제주특별자치도 서귀포시 칠십리로 145,,33.24437791,126.5689429,1679.35,2036,Y,주차장,064-760-4511,송산동,2021-06-30
"서귀포칼호텔",공공용,제주특별자치도 서귀포시 칠십리로 242,,33.24432465,126.5807935,6558.71,7950,Y,창고,064-760-4511,송산동,2021-06-30
"명지아파트",공공용,제주특별자치도 서귀포시 동부로12번길 9,,33.24680498,126.5699483,264.46,321,Y,주차장,064-760-4536,정방동,2021-06-30
"대림빌라",공공용,제주특별자치도 서귀포시 동부로12번길 6,,33.2460301,126.5701279,885.95,1074,Y,주차장,064-760-4536,정방동,2021-06-30
"디아일랜드블루호텔",공공용,제주특별자치도 서귀포시 태평로431번길 3,,33.2458191,126.5657778,1119.8,1357,Y,주차장,064-760-4536,정방동,2021-06-30
"더퍼스트70호텔",공공용,제주특별자치도 서귀포시 명동로 46,,33.24725224,126.5668712,4534.13,5496,Y,주차장,064-760-4536,정방동,2021-06-30
"선경오피스텔",공공용,제주특별자치도 서귀포시 중정로 123,,33.2488186,126.5694834,2788.35,3380,Y,주차장,064-760-4573,중앙동,2021-06-30
"태흥장호텔",공공용,제주특별자치도 서귀포시 중정로91번길 54,,33.2516861,126.5619963,312.58,379,Y,주차장,064-760-4573,중앙동,2021-06-30
"서귀포 중앙우체국",공공용,제주특별자치도 서귀포시 중정로 57,,33.24806117,126.5622583,360,436,Y,상황실.문서고,064-760-4573,중앙동,2021-06-30
"국민은행",공공용,제주특별자치도 서귀포시 중정로 55,,33.2478785,126.5622256,421.8,511,Y,주차장,064-760-4573,중앙동,2021-06-30
KT서귀포지점,공공용,제주특별자치도 서귀포시 중앙로42번길 7,,33.2486533,126.5623162,330,400,Y,주차장,064-760-4573,중앙동,2021-06-30
"명동의류타운",공공용,제주특별자치도 서귀포시 중앙로 50,,33.2490395,126.5617904,376.89,457,Y,주차장,064-760-4573,중앙동,2021-06-30
"메트로빌딩",공공용,제주특별자치도 서귀포시 일주동로 8671,,33.2530741,126.5620451,537.92,652,Y,주차장,064-760-4573,중앙동,2021-06-30
"한국SGI한일우호연수원",공공용,제주특별자치도 서귀포시 남성로128번길 24,,33.2405862,126.5562791,2368,2870,Y,사무실,064-760-4592,천지동,2021-06-30
"서귀포농협",공공용,제주특별자치도 서귀포시 중앙로 75,,33.25114318,126.560791,462,560,Y,주차장,064-760-4592,천지동,2021-06-30
"천지동주민센터",공공용,제주특별자치도 서귀포시 중정로47번길 3,,33.2477954,126.5611789,108,131,Y,창고,064-760-4592,천지동,2021-06-30
"호텔가온제이스테이",공공용,제주특별자치도 서귀포시 서문로41번길 23,,33.24945823,126.5603377,396,480,Y,주차장,064-760-4592,천지동,2021-06-30
"서귀포평생학습센터",공공용,제주특별자치도 서귀포시 서문로29번길 10,,33.2493458,126.5585443,879,1065,Y,교육장,064-760-4592,천지동,2021-06-30
"효돈성당",공공용,제주특별자치도 서귀포시 효돈로167번길 11,,33.2648074,126.6166791680,409.89,497,Y,급식소,064-760-4633,효돈동,2021-06-30
"서귀포시교육지원청",공공용,제주특별자치도 서귀포시 토평로 43,,33.27038846,126.5890683,342,415,Y,탁구장,064-760-4653,영천동,2021-06-30
"토평초등학교",공공용,제주특별자치도 서귀포시 토평남로 86,,33.26630439,126.5897627,263,319,Y,교육장,064-760-4653,영천동,2021-06-30
"서귀포온성학교",공공용,제주특별자치도 서귀포시 516로 447-10,,33.29104917,126.5930174,270,327,Y,주차장,064-760-4653,영천동,2021-06-30
"서귀포시노인복지회관",공공용,제주특별자치도 서귀포시 태평로537번길 40-9,,33.25398814,126.5706943,331.2,401,Y,식당,064-760-4695,동홍동,2021-06-30
"세기아파트 가동",공공용,제주특별자치도 서귀포시 태평로 549,,33.2529865,126.5746486,654.24,793,Y,주차장,064-760-4695,동홍동,2021-06-30
"세기아파트 다동",공공용,제주특별자치도 서귀포시 태평로 549,,33.2529865,126.5746486,482.04,584,Y,주차장,064-760-4695,동홍동,2021-06-30
"세기아파트 마동",공공용,제주특별자치도 서귀포시 태평로 549,,33.2529865,126.5746486,270.09,327,Y,주차장,064-760-4695,동홍동,2021-06-30
"삼아아파트 101동",공공용,제주특별자치도 서귀포시 태평로536번길 6,,33.2505454,126.5753297,604.33,733,Y,주차장,064-760-4695,동홍동,2021-06-30
"삼아아파트 102동",공공용,제주특별자치도 서귀포시 태평로536번길 6,,33.2505454,126.5753297,934.53,1133,Y,창고,064-760-4695,동홍동,2021-06-30
"삼아아파트 103동",공공용,제주특별자치도 서귀포시 태평로536번길 6,,33.2505454,126.5753297,296.91,360,Y,창고,064-760-4695,동홍동,2021-06-30
"삼아아파트 105동",공공용,제주특별자치도 서귀포시 태평로536번길 6,,33.2505454,126.5753297,1099.82,1333,Y,주차장,064-760-4695,동홍동,2021-06-30
"삼아아파트 106동",공공용,제주특별자치도 서귀포시 태평로536번길 6,,33.2505454,126.5753297,407.32,494,Y,창고,064-760-4695,동홍동,2021-06-30
"삼아아파트 107동",공공용,제주특별자치도 서귀포시 태평로536번길 6,,33.2505454,126.5753297,462.68,561,Y,창고,064-760-4695,동홍동,2021-06-30
"삼아아파트 108동",공공용,제주특별자치도 서귀포시 태평로536번길 6,,33.2505454,126.5753297,216.02,262,Y,창고,064-760-4695,동홍동,2021-06-30
"삼아아파트 109동",공공용,제주특별자치도 서귀포시 태평로536번길 6,,33.2505454,126.5753297,541.48,656,Y,창고,064-760-4695,동홍동,2021-06-30
"세기2차아파트",공공용,제주특별자치도 서귀포시 태평로 558,,33.2531067,126.5763993,1028.2,1246,Y,주차장,064-760-4695,동홍동,2021-06-30
"나산빌라트",공공용,제주특별자치도 서귀포시 중앙로150번길 33,,33.26024585,126.5615821,700.83,849,Y,주차장,064-760-4695,동홍동,2021-06-30
"대오아파트",공공용,제주특별자치도 서귀포시 동홍서로 83,,33.25624458,126.5692925,2014.42,2442,Y,주차장,064-760-4695,동홍동,2021-06-30
"동홍동주민센터",공공용,제주특별자치도 서귀포시 동홍로 104,,33.2578824,126.5689267,126,153,Y,연습실,064-760-4695,동홍동,2021-06-30
"서귀포의료원  지하1층",공공용,제주특별자치도 서귀포시 장수로 47,,33.25598081,126.5629493,568.48,689,Y,주차장,064-760-4695,동홍동,2021-06-30
"일호아파트",공공용,제주특별자치도 서귀포시 문부로 27-4,,33.25235582,126.5711546,515.7,625,Y,주차장,064-760-4695,동홍동,2021-06-30
"무지개아파트 가동",공공용,제주특별자치도 서귀포시 동홍북로22번길 20,,33.25772039,126.5705145,796.76,966,Y,주차장,064-760-4695,동홍동,2021-06-30
"서귀포교회",공공용,제주특별자치도 서귀포시 동홍로 56,,33.25377708,126.5680683,1976,2395,Y,식당,064-760-4695,동홍동,2021-06-30
"동방아파트",공공용,제주특별자치도 서귀포시 일주동로 8648-6,,33.25429844,126.5645116,657.05,796,Y,주차장,064-760-4695,동홍동,2021-06-30
"서귀포의료원  지하2층",공공용,제주특별자치도 서귀포시 장수로47,,33.25598081,126.5629493,2787.35,3379,Y,주차장,064-760-4695,동홍동,2021-06-30
"코아루아파트",공공용,제주특별자치도 서귀포시 일주동로 8565,,33.25453924,126.5736363,3860.2,4679,Y,주차장,064-760-4695,동홍동,2021-06-30
"서귀포시청(1청사)",공공용,제주특별자치도 서귀포시 중앙로105,,33.25420363,126.5602182,6922,8390,Y,주차장,064-760-4749,서홍동,2021-06-30
"서홍새마을금고분소",공공용,제주특별자치도 서귀포시 중산간동로 8037,,33.26389728,126.5578957,596,722,Y,주차장,064-760-4749,서홍동,2021-06-30
"예일외국어학원",공공용,제주특별자치도 서귀포시 중앙로101번길 5,,33.2535775,126.5602999,175,212,Y,주차장,064-760-4749,서홍동,2021-06-30
"서홍동주민센터",공공용,제주특별자치도 서귀포시 중앙로125,,33.25607801,126.5599846,240,291,Y,체력단련실,064-760-4749,서홍동,2021-06-30
"세림피스",공공용,제주특별자치도 서귀포시 일주동로 8734,,33.2525066,126.5552359,433.13,525,Y,주차장,064-760-4749,서홍동,2021-06-30
"서귀포시청(2청사)",공공용,제주특별자치도 서귀포시 신중로 55,,33.25557995,126.510526,2677,3245,Y,주차장,064-760-4762,대륜동,2021-06-30
KT신서귀포점,공공용,제주특별자치도 서귀포시 신중로 50,,33.2544242,126.5105237,545,661,Y,주차장,064-760-4762,대륜동,2021-06-30
"기영빌라",공공용,제주특별자치도 서귀포시 이어도로 943,,33.2392758,126.5141623,793,961,Y,주차장,064-760-4762,대륜동,2021-06-30
"신세계연립주택",공공용,제주특별자치도 서귀포시 이어도로 950,,33.23930434,126.5151986,462,560,Y,주차장,064-760-4762,대륜동,2021-06-30
"민우연립주택",공공용,제주특별자치도 서귀포시 신서귀로 11,,33.25108768,126.5090616,522.08,633,Y,주차장,064-760-4762,대륜동,2021-06-30
LH 1단지아파트(101동),공공용,제주특별자치도 서귀포시 서호남로 92-15,,33.24958642,126.5236552,513.74,623,Y,주차장,064-760-4762,대륜동,2021-06-30
LH 1단지아파트(102동),공공용,제주특별자치도 서귀포시 서호남로 92-15,,33.24958642,126.5236552,501.14,607,Y,주차장,064-760-4762,대륜동,2021-06-30
LH 1단지아파트(103동),공공용,제주특별자치도 서귀포시 서호남로 92-15,,33.24958642,126.5236552,502.89,610,Y,주차장,064-760-4762,대륜동,2021-06-30
LH 1단지아파트(106동),공공용,제주특별자치도 서귀포시 서호남로 92-15,,33.24958642,126.5236552,1957.98,2373,Y,주차장,064-760-4762,대륜동,2021-06-30
LH 1단지아파트(107동),공공용,제주특별자치도 서귀포시 서호남로 92-15,,33.24958642,126.5236552,959.34,1163,Y,주차장,064-760-4762,대륜동,2021-06-30
"성산빌라",공공용,제주특별자치도 서귀포시 신서귀로97번길 84,,33.25149359,126.5050459,231.41,280,Y,주차장,064-760-4794,대천동,2021-06-30
"대림한숲빌라",공공용,제주특별자치도 서귀포시 신서귀로97번길 87,,33.25121689,126.5061721,1976.87,2396,Y,주차장,064-760-4794,대천동,2021-06-30
"한빛테크놀즈아파트 101동",공공용,제주특별자치도 서귀포시 김정문화로27번길 13-3,,33.2529847,126.5075444,234.22,284,Y,주차장,064-760-4794,대천동,2021-06-30
"진양빌라",공공용,제주특별자치도 서귀포시 일주서로 313,,33.2522189,126.4750719,326.11,395,Y,주차장,064-760-4794,대천동,2021-06-30
"한빛테크놀즈아파트 103동",공공용,제주특별자치도 서귀포시 김정문화로27번길 23-5,,33.2539876,126.5077106,198.35,240,Y,주차장,064-760-4794,대천동,2021-06-30
"한빛테크놀즈아파트 105동",공공용,제주특별자치도 서귀포시 김정문화로27번길 23-6,,33.2542191,126.5077864,198.35,240,Y,주차장,064-760-4794,대천동,2021-06-30
"켄싱턴리조트(풍림산업㈜)",공공용,제주특별자치도 서귀포시 이어도로 684,,33.23367775,126.4890087,2744.7,3327,Y,연회장,064-760-4794,대천동,2021-06-30
"빠레브호텔",공공용,제주특별자치도 서귀포시 김정문화로 15,,33.2523353,126.5066913,718.89,871,Y,주차장,064-760-4794,대천동,2021-06-30
"백구연립빌라",공공용,제주특별자치도 서귀포시 중문로41번길 9,,33.255362,126.4236374,760.43,922,Y,주차장,064-760-4824,중문동,2021-06-30
"중문동 주민센터",공공용,제주특별자치도 서귀포시 1100로 30,,33.2533313767,126.4336390687,695.5,843,Y,주차장,064-760-4762,중문동,2021-06-30
"국민체육센터",공공용,제주특별자치도 서귀포시 중문관광로 346,,33.25090559,126.432152,4304.28,5217,Y,체육센터,064-760-4824,중문동,2021-06-30
"민우아파트",공공용,제주특별자치도 서귀포시 천제연로213번길 14-3,,33.25278613,126.4279983,1123.2,1361,Y,주차장,064-760-4824,중문동,2021-06-30
"제주신라호텔",공공용,제주특별자치도 서귀포시 중문관광로72번길 75,,33.24802204,126.4086786,1604,1944,Y,직원식당,064-760-4853,예래동,2021-06-30
"서귀포호텔",공공용,제주특별자치도 서귀포시 상예로 319,,33.273191,126.3946519,1623,1967,Y,직원식당,064-760-4853,예래동,2021-06-30
"롯데호텔제주",공공용,제주특별자치도 서귀포시 중문관광로72번길 35,,33.2485349,126.4103936,8167,9899,Y,주차장,064-760-4853,예래동,2021-06-30
"중문빌리지",공공용,제주특별자치도 서귀포시 예래로 270,,33.24272507,126.3851318,467.45,567,Y,주차장,064-760-4853,예래동,2021-06-30
"코업하버뷰호텔",공공용,제주특별자치도 서귀포시 남원읍 태위로 108,,33.27448704,126.6589984,600,727,Y,주차장,064-760-4152,남원읍,2021-06-30
"더베스트제주성산",공공용,제주특별자치도 서귀포시 성산읍 동류암로 26,,33.44968705,126.9171596,2500,3030,Y,편의시설,064-760-4253,성산읍,2021-06-30
"리치유클래시아아파트",공공용,제주특별자치도 서귀포시 성산읍 성산등용로17번길 55,,33.46029764,126.9294454,8948,10846,Y,주차장,064-760-4253,성산읍,2021-06-30
"아쿠아비치호텔",공공용,제주특별자치도 서귀포시 성산읍 일주동로 4258,,33.44837632,126.9119989,187,226,Y,편의시설,064-760-4253,성산읍,2021-06-30
"윈스토리호텔",공공용,제주특별자치도 서귀포시 중정로 11,,33.24776049,126.5575565,1328,1609,Y,주차장,064-760-4592,천지동,2021-06-30
"중흥S클래스아파트",공공용,제주특별자치도 서귀포시 대청로 12,,33.25232588,126.5004784,22707,27523,Y,주차장,064-760-4794,대천동,2021-06-30
"효돈생활체육관",공공용,제주특별자치도 서귀포시 하신상로 25,,33.26309153,126.6170753,336,407,Y,교육시설,064-760-4633,효돈동,2021-06-30
