facility,cate,addr_load,addr_num,lat,long,area,capacity,openOrnot,normal_use,manage_phone,management,date,region,region2
신사지하철역,공공용,"서울특별시 강남구 도산대로 지하 102 (신사동, 신사역)",서울특별시 강남구 신사동 667,37.51643147,127.0203289,3730.0,4521.0,Y,지하철승강장,,서울특별시 강남구청,2021-08-09,서울특별시,강남구
현대백화점,공공용,서울특별시 강남구 압구정로 165 (현대백화점본점),서울특별시 강남구 압구정동 429,37.5273268,127.0274265,8844.0,10720.0,Y,주차장,,서울특별시 강남구청,2021-08-09,서울특별시,강남구
신사동주민센터,공공용,"서울특별시 강남구 압구정로 128 (신사동, 신사동주민센터)",서울특별시 강남구 신사동 548-1,37.52397421,127.0227971,66.0,80.0,Y,기계실,,서울특별시 강남구청,2021-08-09,서울특별시,강남구
신구초등학교 복합화시설,공공용,"서울특별시 강남구 압구정로18길 28 (신사동, 신구초등학교)",서울특별시 강남구 신사동 550-11,37.5233613,127.0239915,4964.0,6017.0,Y,주차장,,서울특별시 강남구청,2021-08-09,서울특별시,강남구
광림교회 사회봉사관,공공용,"서울특별시 강남구 논현로163길 33 (신사동, 교회)",서울특별시 강남구 신사동 568-2,37.52389436,127.0255797523,12027.0,14578.0,Y,주차장,,서울특별시 강남구청,2021-08-09,서울특별시,강남구
래미안 신사,공공용,"서울특별시 강남구 압구정로2길 20 (신사동, 래미안 신사)",서울특별시 강남구 신사동 506-9,37.52010408,127.0196195,2814.0,3410.0,Y,주차장,,서울특별시 강남구청,2021-08-09,서울특별시,강남구
디아이빌딩,공공용,"서울특별시 강남구 논현로 703 (논현동, DI빌딩)",서울특별시 강남구 논현동 58-6,37.5143895,127.0301238,627.0,760.0,Y,주차장,,서울특별시 강남구청,2021-08-09,서울특별시,강남구
삼주빌딩,공공용,"서울특별시 강남구 강남대로 606 (논현동, 삼주빌딩)",서울특별시 강남구 논현동 1,37.51586927,127.0201568,1617.0,1960.0,Y,주차장,,서울특별시 강남구청,2021-08-09,서울특별시,강남구
논현빌딩,공공용,"서울특별시 강남구 강남대로 556 (논현동, 논현빌딩)",서울특별시 강남구 논현동 50-1,37.51156583,127.0215537,1287.0,1560.0,Y,주차장,,서울특별시 강남구청,2021-08-09,서울특별시,강남구
법무사회관,공공용,"서울특별시 강남구 논현로 651 (논현동, 법무사회관)",서울특별시 강남구 논현동 151-25,37.5117835,127.031281,726.0,880.0,Y,주차장,,서울특별시 강남구청,2021-08-09,서울특별시,강남구
삼익악기빌딩,공공용,"서울특별시 강남구 학동로 171 (논현동, 삼익악기 빌딩)",서울특별시 강남구 논현동 58-3,37.51404727,127.0295491,5452.0,6608.0,Y,주차장,,서울특별시 강남구청,2021-08-09,서울특별시,강남구
건우빌딩,공공용,"서울특별시 강남구 강남대로 548 (논현동, 건우빌딩)",서울특별시 강남구 논현동 120,37.51103598,127.0218883,825.0,1000.0,Y,주차장,,서울특별시 강남구청,2021-08-09,서울특별시,강남구
유현빌딩,공공용,"서울특별시 강남구 논현로 627 (논현동, 유현빌딩)",서울특별시 강남구 논현동 175-10,37.50955953,127.0323568,660.0,800.0,Y,주차장,,서울특별시 강남구청,2021-08-09,서울특별시,강남구
거평타운,공공용,"서울특별시 강남구 봉은사로 129 (논현동, 거평타운)",서울특별시 강남구 논현동 203-1,37.5059169,127.0283154,1815.0,2200.0,Y,"주차장,복도,기타",,서울특별시 강남구청,2021-08-09,서울특별시,강남구
신사역,공공용,"서울특별시 강남구 도산대로 지하 102 (신사동, 신사역)",서울특별시 강남구 신사동 667,37.51643147,127.0203289,3729.0,4520.0,Y,지하철승강장,,서울특별시 강남구청,2021-08-09,서울특별시,강남구
논현1동주민센터,공공용,"서울특별시 강남구 학동로20길 25 (논현동, 논현1동주민센터)",서울특별시 강남구 논현동 133-13,37.51150308,127.0285346,1535.0,1861.0,Y,주차장,,서울특별시 강남구청,2021-08-09,서울특별시,강남구
논현역,공공용,"서울특별시 강남구 학동로 지하 102 (논현동, 논현역)",서울특별시 강남구 논현동 279-67,37.5111982,127.0216576,5997.0,7269.0,Y,지하철승강장,,서울특별시 강남구청,2021-08-09,서울특별시,강남구
호텔더 디자이너스리즈 강남프리미어,공공용,"서울특별시 강남구 봉은사로 113 (논현동, 호텔더디자이너스리즈강남프리미어)",서울특별시 강남구 논현동 201-4,37.50526513,127.0258767,921.0,1116.0,Y,"주차장, 기타",,서울특별시 강남구청,2021-08-09,서울특별시,강남구
서울세관,공공용,"서울특별시 강남구 언주로 721 (논현동, 서울세관)",서울특별시 강남구 논현동 71,37.5183005811,127.0337768,5240.0,6352.0,Y,"대피소,식당",,서울특별시 강남구청,2021-08-09,서울특별시,강남구
건설회관,공공용,"서울특별시 강남구 언주로 711 (논현동, 건설회관)",서울특별시 강남구 논현동 71-2,37.5170773891,127.0334263882,4062.0,4924.0,Y,주차장,,서울특별시 강남구청,2021-08-09,서울특별시,강남구
송암빌딩,공공용,"서울특별시 강남구 언주로 709 (논현동, 송암빌딩)",서울특별시 강남구 논현동 84,37.51679206,127.0349299,4010.0,4861.0,Y,주차장,,서울특별시 강남구청,2021-08-09,서울특별시,강남구
LGU+,공공용,"서울특별시 강남구 언주로 616 (논현동, KIDC 논현센터)",서울특별시 강남구 논현동 261-1,37.51104663,127.0369858,8837.0,10712.0,Y,주차장,,서울특별시 강남구청,2021-08-09,서울특별시,강남구
두산빌딩,공공용,"서울특별시 강남구 언주로 726 (논현동, 두산빌딩)",서울특별시 강남구 논현동 105-7,37.51938326,127.0351981,10349.0,12544.0,Y,"주차장, 식당",,서울특별시 강남구청,2021-08-09,서울특별시,강남구
논현2문화센터,공공용,"서울특별시 강남구 학동로43길 17 (논현동, 논현2동주민센터)",서울특별시 강남구 논현동 114-24,37.51727791,127.0372042048,2706.0,3280.0,Y,주차장,,서울특별시 강남구청,2021-08-09,서울특별시,강남구
학동역,공공용,"서울특별시 강남구 학동로 지하 180 (논현동, 학동역)",서울특별시 강남구 논현동 279-67,37.51420535,127.031463,9293.0,11264.0,Y,지하철승강장,,서울특별시 강남구청,2021-08-09,서울특별시,강남구
언주역,공공용,"서울특별시 강남구 봉은사로 지하 201 (논현동, 언주역)",서울특별시 강남구 논현동 279-165,37.50744703,127.0342831,11569.0,14023.0,Y,지하철승강장,,서울특별시 강남구청,2021-08-09,서울특별시,강남구
압구정역,공공용,"서울특별시 강남구 압구정로 지하 172 (신사동, 압구정역)",서울특별시 강남구 신사동 668,37.52643091,127.0284815,8550.0,10364.0,Y,주차장,,서울특별시 강남구청,2021-08-09,서울특별시,강남구
갤러리아백화점 서관,공공용,"서울특별시 강남구 압구정로 343 (압구정동, 갤러리아백화점)",서울특별시 강남구 압구정동 494,37.52847463,127.0400535,1544.0,1872.0,Y,주차장,,서울특별시 강남구청,2021-08-09,서울특별시,강남구
갤러리아백화점 동관,공공용,"서울특별시 강남구 압구정로 407 (압구정동, 갤러리아백화점)",서울특별시 강남구 압구정동 515,37.527919,127.0418316,1954.0,2368.0,Y,주차장,,서울특별시 강남구청,2021-08-09,서울특별시,강남구
기아자동차,공공용,"서울특별시 강남구 압구정로 417 (압구정동, 기아빌딩)",서울특별시 강남구 압구정동 518,37.52755822,127.0428858,8630.0,10461.0,Y,주차장,,서울특별시 강남구청,2021-08-09,서울특별시,강남구
배강빌딩,공공용,서울특별시 강남구 선릉로 801 (신사동),서울특별시 강남구 신사동 666-11,37.5235229,127.0388014,9629.0,11672.0,Y,주차장,,서울특별시 강남구청,2021-08-09,서울특별시,강남구
호림아트센터 2빌딩,공공용,"서울특별시 강남구 도산대로45길 6 (신사동, 호림아트센터 2빌딩)",서울특별시 강남구 신사동 651-16,37.52287517,127.0364576,6547.0,7936.0,Y,주차장,,서울특별시 강남구청,2021-08-09,서울특별시,강남구
압구정하이츠파크,공공용,"서울특별시 강남구 압구정로42길 78 (신사동, 압구정하이츠파크)",서울특별시 강남구 신사동 632,37.52408696,127.0336321068,7933.0,9616.0,Y,주차장,,서울특별시 강남구청,2021-08-09,서울특별시,강남구
금광아크존,공공용,"서울특별시 강남구 압구정로42길 36 (신사동, 금광아크존1)",서울특별시 강남구 신사동 635-14,37.52656986,127.0345317,1897.0,2299.0,Y,주차장,,서울특별시 강남구청,2021-08-09,서울특별시,강남구
태성빌딩,공공용,,서울특별시 강남구 청담동 91-8,37.52397227,127.0427887,479.0,581.0,Y,주차장,,서울특별시 강남구청,2021-08-09,서울특별시,강남구
현대아파트 201동,공공용,,서울특별시 강남구 청담동 23,37.5218392,127.0413576,828.0,1004.0,Y,주차장,,서울특별시 강남구청,2021-08-09,서울특별시,강남구
경원오피스텔,공공용,,서울특별시 강남구 청담동 5,37.523593,127.0450646,4679.0,5672.0,Y,주차장,,서울특별시 강남구청,2021-08-09,서울특별시,강남구
인성빌딩,공공용,,서울특별시 강남구 청담동 88-37,37.52437294,127.0410287,574.0,696.0,Y,주차장,,서울특별시 강남구청,2021-08-09,서울특별시,강남구
M빌딩,공공용,,서울특별시 강남구 청담동 97,37.52433553,127.044789,1198.0,1452.0,Y,주차장,,서울특별시 강남구청,2021-08-09,서울특별시,강남구
금하빌딩,공공용,,서울특별시 강남구 청담동 41-2,37.51764042,127.041672,14203.0,17216.0,Y,주차장,,서울특별시 강남구청,2021-08-09,서울특별시,강남구
청담1문화센터,공공용,,서울특별시 강남구 청담동 124-1,37.52509058,127.0492919,264.0,320.0,Y,주차장,,서울특별시 강남구청,2021-08-09,서울특별시,강남구
화천회관,공공용,,서울특별시 강남구 청담동 133-3,37.5204809,127.0575783,3452.0,4184.0,Y,주차장,,서울특별시 강남구청,2021-08-09,서울특별시,강남구
호텔리베라,공공용,,서울특별시 강남구 청담동 53-7,37.52382701,127.0542414,2376.0,2880.0,Y,주차장,,서울특별시 강남구청,2021-08-09,서울특별시,강남구
프리마호텔,공공용,,서울특별시 강남구 청담동 52-3,37.52433245,127.0522825,3323.0,4028.0,Y,주차장,,서울특별시 강남구청,2021-08-09,서울특별시,강남구
청담평생학습관,공공용,,서울특별시 강남구 청담동 35-10,37.51909826,127.0464419,4049.0,4908.0,Y,주차장,,서울특별시 강남구청,2021-08-09,서울특별시,강남구
우리들병원,공공용,,서울특별시 강남구 청담동 47-4,37.51909337,127.0496092,11850.0,14364.0,Y,주차장,,서울특별시 강남구청,2021-08-09,서울특별시,강남구
언북초등학교 공영주차장,공공용,,서울특별시 강남구 청담동 27,37.52012607,127.0447141,3361.0,4074.0,Y,주차장,,서울특별시 강남구청,2021-08-09,서울특별시,강남구
청담역,공공용,,서울특별시 강남구 청담동 77-76,37.51914278,127.052039,11901.0,14425.0,Y,지하철승강장,,서울특별시 강남구청,2021-08-09,서울특별시,강남구
삼성역,공공용,"서울특별시 강남구 테헤란로 지하 538 (삼성동, 삼성역)",서울특별시 강남구 삼성동 172-66,37.50886236,127.0630753,6447.0,7815.0,Y,지하철승강장,,서울특별시 강남구청,2021-08-09,서울특별시,강남구
한국도심공항터미널,공공용,"서울특별시 강남구 테헤란로87길 22 (삼성동, 한국도심공항터미널)",서울특별시 강남구 삼성동 159-6,37.5096319,127.059443,21120.0,25600.0,Y,주차장,,서울특별시 강남구청,2021-08-09,서울특별시,강남구
COEX,공공용,"서울특별시 강남구 영동대로 513 (삼성동, 코엑스)",서울특별시 강남구 삼성동 159,37.51182328,127.0591597,27783.0,33676.0,Y,주차장,,서울특별시 강남구청,2021-08-09,서울특별시,강남구
호텔인터컨티넨탈,공공용,"서울특별시 강남구 테헤란로 521 (삼성동, 그랜드인터콘티넨탈호텔)",서울특별시 강남구 삼성동 159-8,37.50919151,127.060809,28875.0,35000.0,Y,주차장,,서울특별시 강남구청,2021-08-09,서울특별시,강남구
현대백화점,공공용,"서울특별시 강남구 테헤란로 517 (삼성동, 현대백화점)",서울특별시 강남구 삼성동 159-7,37.5086154,127.0597634,22770.0,27600.0,Y,주차장,,서울특별시 강남구청,2021-08-09,서울특별시,강남구
삼성1동주민센터,공공용,"서울특별시 강남구 봉은사로 616 (삼성동, 삼성1동 주민센터)",서울특별시 강남구 삼성동 161-2,37.51435513,127.0626094,3301.0,4001.0,Y,주차장,,서울특별시 강남구청,2021-08-09,서울특별시,강남구
봉은사역,공공용,"서울특별시 강남구 봉은사로 지하 601 (삼성동, 봉은사역)",서울특별시 강남구 삼성동 172,37.51435963,127.0608901,9841.0,11928.0,Y,지하철승강장,,서울특별시 강남구청,2021-08-09,서울특별시,강남구
강남구립국제교육원,공공용,"서울특별시 강남구 선릉로 668 (삼성동, 강남구보건소,강남구립국제교육원)",서울특별시 강남구 삼성동 8,37.5163196785,127.0423147933,812.0,984.0,Y,주차장,,서울특별시 강남구청,2021-08-09,서울특별시,강남구
강남구청,공공용,"서울특별시 강남구 학동로 426 (삼성동, 강남구청)",서울특별시 강남구 삼성동 16-1,37.51796636,127.0470611,1422.0,1724.0,Y,식당 및 종합상황실,,서울특별시 강남구청,2021-08-09,서울특별시,강남구
선릉역,공공용,"서울특별시 강남구 테헤란로 지하 340 (삼성동, 선릉역)",서울특별시 강남구 삼성동 172-66,37.50450099,127.0489436,5970.0,7236.0,Y,지하철승강장,,서울특별시 강남구청,2021-08-09,서울특별시,강남구
라마다서울호텔,공공용,"서울특별시 강남구 봉은사로 410 (삼성동, 라마다서울호텔)",서울특별시 강남구 삼성동 112-5,37.51034817,127.0452783,10233.0,12404.0,Y,주차장,,서울특별시 강남구청,2021-08-09,서울특별시,강남구
성담빌딩,공공용,"서울특별시 강남구 테헤란로 411 (삼성동, 성담빌딩)",서울특별시 강남구 삼성동 142-35,37.50549488,127.0508624,4643.0,5628.0,Y,주차장,,서울특별시 강남구청,2021-08-09,서울특별시,강남구
삼성2문화센터,공공용,"서울특별시 강남구 봉은사로 419 (삼성동, 삼성2동주민센터)",서울특별시 강남구 삼성동 38-34,37.51120565,127.0459755,531.0,644.0,Y,주차장,,서울특별시 강남구청,2021-08-09,서울특별시,강남구
중앙하이츠빌리지,공공용,"서울특별시 강남구 학동로68길 30 (삼성동, 삼성동중앙하이츠빌리지)",서울특별시 강남구 삼성동 14-1,37.51657903,127.0465082,19203.0,1512.0,Y,주차장,,서울특별시 강남구청,2021-08-09,서울특별시,강남구
래미안삼성2차아파트,공공용,"서울특별시 강남구 선릉로130길 20 (삼성동, 래미안삼성2차아파트)",서울특별시 강남구 삼성동 7-3,37.51566482,127.043345,22532.0,1368.0,Y,주차장,,서울특별시 강남구청,2021-08-09,서울특별시,강남구
한솔아파트,공공용,"서울특별시 강남구 학동로64길 7 (삼성동, 한솔아파트)",서울특별시 강남구 삼성동 4-6,37.51753808,127.0455405,12111.0,1325.0,Y,주차장,,서울특별시 강남구청,2021-08-09,서울특별시,강남구
강남구청역,공공용,"서울특별시 강남구 학동로 지하 346 (삼성동, 강남구청역)",서울특별시 강남구 삼성동 111-44,37.51719005,127.0413008,10352.0,12548.0,Y,지하철승강장,,서울특별시 강남구청,2021-08-09,서울특별시,강남구
삼성중앙역,공공용,"서울특별시 강남구 봉은사로 지하 501 (삼성동, 삼성중앙역)",서울특별시 강남구 삼성동 111-147,37.51288231,127.0527043,6016.0,7292.0,Y,지하철승강장,,서울특별시 강남구청,2021-08-09,서울특별시,강남구
선정릉역,공공용,"서울특별시 강남구 선릉로 지하 580 (삼성동, 선정릉역)",서울특별시 강남구 삼성동 111-114,37.51085335,127.0436408,9192.0,11142.0,Y,지하철승강장,,서울특별시 강남구청,2021-08-09,서울특별시,강남구
동하빌딩,공공용,"서울특별시 강남구 남부순환로 2913 (대치동, 동하빌딩)",서울특별시 강남구 대치동 629,37.49275111,127.0585295,2515.0,3048.0,Y,식당 및 사무실,,서울특별시 강남구청,2021-08-09,서울특별시,강남구
강원빌딩,공공용,"서울특별시 강남구 도곡로 418 (대치동, 강원빌딩)",서울특별시 강남구 대치동 1024-4,37.49695812,127.0562485,1719.0,2084.0,Y,상업용시설,,서울특별시 강남구청,2021-08-09,서울특별시,강남구
대치역,공공용,"서울특별시 강남구 남부순환로 지하 2952 (대치동, 대치역)",서울특별시 강남구 대치동 317-3,37.4945614,127.0634296,8138.0,9864.0,Y,지하철승강장,,서울특별시 강남구청,2021-08-09,서울특별시,강남구
대치1문화센터,공공용,"서울특별시 강남구 남부순환로391길 19 (대치동, 대치1문화센터)",서울특별시 강남구 대치동 646-2,37.49324572,127.0567749,1508.0,1828.0,Y,도서관 및 체육시설,,서울특별시 강남구청,2021-08-09,서울특별시,강남구
한티역,공공용,"서울특별시 강남구 선릉로 지하 228 (대치동, 한티역)",서울특별시 강남구 대치동 1011-28,37.49624247,127.0528826,13055.0,15824.0,Y,지하철승강장,,서울특별시 강남구청,2021-08-09,서울특별시,강남구
메디다스벤쳐타운,공공용,"서울특별시 강남구 영동대로 229 (대치동, 메디다스벤처타운)",서울특별시 강남구 대치동 994-3,37.49953635,127.0674191,1320.0,1600.0,Y,주차장,,서울특별시 강남구청,2021-08-09,서울특별시,강남구
대치역,공공용,"서울특별시 강남구 남부순환로 지하 2952 (대치동, 대치역)",서울특별시 강남구 대치동 317-3,37.4945614,127.0634296,5171.0,6268.0,Y,지하철승강장,,서울특별시 강남구청,2021-08-09,서울특별시,강남구
강남구민회관,공공용,"서울특별시 강남구 삼성로 154 (대치동, 강남구의회, 강남구민회관)",서울특별시 강남구 대치동 509-2,37.493887,127.0642704,5419.0,6568.0,Y,주차장,,서울특별시 강남구청,2021-08-09,서울특별시,강남구
대치평생학습관,공공용,"서울특별시 강남구 영동대로57길 7 (대치동, 대치평생학습관)",서울특별시 강남구 대치동 994-17,37.49995467,127.0669762,825.0,1000.0,Y,주차장,,서울특별시 강남구청,2021-08-09,서울특별시,강남구
대치2주민센터,공공용,"서울특별시 강남구 영동대로65길 24 (대치동, 대치2동주민센터)",서울특별시 강남구 대치동 980-9,37.50230604,127.0641871,5425.0,6576.0,Y,주차장,,서울특별시 강남구청,2021-08-09,서울특별시,강남구
학여울역,공공용,"서울특별시 강남구 남부순환로 지하 3104 (대치동, 학여울역)",서울특별시 강남구 대치동 514-3,37.49671547,127.0717183,4884.0,5920.0,Y,지하철승강장,,서울특별시 강남구청,2021-08-09,서울특별시,강남구
우성1차아파트,공공용,"서울특별시 강남구 영동대로 230 (대치동, 우성1차아파트)",서울특별시 강남구 대치동 63,37.50095934,127.0684699,495.0,600.0,Y,주차장,,서울특별시 강남구청,2021-08-09,서울특별시,강남구
래미안대치하이스 모든 동 지하,공공용,"서울특별시 강남구 도곡로93길 12 (대치동, 래미안 대치 하이스턴)",서울특별시 강남구 대치동 985,37.50151245,127.0654757,1030.0,1248.0,Y,주차장,,서울특별시 강남구청,2021-08-09,서울특별시,강남구
쌍용1차아파트 모든 동,공공용,"서울특별시 강남구 영동대로 210 (대치동, 쌍용아파트)",서울특별시 강남구 대치동 66,37.49885648,127.0713675,1294.0,1568.0,Y,주차장,,서울특별시 강남구청,2021-08-09,서울특별시,강남구
쌍용2차아파트 모든 동,공공용,"서울특별시 강남구 영동대로 220 (대치동, 쌍용아파트)",서울특별시 강남구 대치동 65,37.49992371,127.0706267,1214.0,1472.0,Y,주차장,,서울특별시 강남구청,2021-08-09,서울특별시,강남구
동원빌딩,공공용,"서울특별시 강남구 영동대로 333 (대치동, 동원빌딩)",서울특별시 강남구 대치동 968-4,37.50415093,127.0648718,1957.0,2372.0,Y,주차장,,서울특별시 강남구청,2021-08-09,서울특별시,강남구
글라스타워,공공용,"서울특별시 강남구 테헤란로 534 (대치동, 글라스타워빌딩)",서울특별시 강남구 대치동 946-1,37.50803719,127.0627941,17540.0,21261.0,Y,주차장,,서울특별시 강남구청,2021-08-09,서울특별시,강남구
노벨빌딩,공공용,"서울특별시 강남구 테헤란로78길 16 (대치동, 노벨빌딩)",서울특별시 강남구 대치동 891-44,37.50506039,127.0553362,2914.0,3532.0,Y,주차장,,서울특별시 강남구청,2021-08-09,서울특별시,강남구
롯데백화점,공공용,"서울특별시 강남구 도곡로 401 (대치동, 롯데백화점)",서울특별시 강남구 대치동 937,37.49697752,127.053254,6716.0,8141.0,Y,주차장,,서울특별시 강남구청,2021-08-09,서울특별시,강남구
대치4동주민센터,공공용,"서울특별시 강남구 도곡로77길 23 (대치동, 대치4동주민센터)",서울특별시 강남구 대치동 928-22,37.49972884,127.0578474,1399.0,1696.0,Y,주차장,,서울특별시 강남구청,2021-08-09,서울특별시,강남구
삼성생명대치타워,공공용,"서울특별시 강남구 테헤란로 424 (대치동, 삼성생명 대치타워)",서울특별시 강남구 대치동 891,37.50549373,127.0534682,12180.0,14764.0,Y,주차장,,서울특별시 강남구청,2021-08-09,서울특별시,강남구
포스코센타,공공용,"서울특별시 강남구 테헤란로 440 (대치동, 포스코센터)",서울특별시 강남구 대치동 892,37.50581326,127.056133,44890.0,54412.0,Y,주차장,,서울특별시 강남구청,2021-08-09,서울특별시,강남구
동부금융센터,공공용,"서울특별시 강남구 테헤란로 432 (대치동, 동부금융센터)",서울특별시 강남구 대치동 891-10,37.50577425,127.0547622,1382.0,1037.0,Y,주차장,,서울특별시 강남구청,2021-08-09,서울특별시,강남구
역삼역,공공용,"서울특별시 강남구 테헤란로 지하 156 (역삼동, 역삼역)",서울특별시 강남구 역삼동 804,37.50071762,127.0366188,9029.0,10944.0,Y,지하철승강장,,서울특별시 강남구청,2021-08-09,서울특별시,강남구
강남역,공공용,"서울특별시 강남구 강남대로 지하 396 (역삼동, 강남역)",서울특별시 강남구 역삼동 858,37.49816465,127.0283079,9679.0,11732.0,Y,지하철승강장,,서울특별시 강남구청,2021-08-09,서울특별시,강남구
삼정빌딩 앞 역삼지하보도,공공용,서울특별시 강남구 테헤란로 301 (삼정빌딩),서울특별시 강남구 역삼동 701-2,37.50312654,127.0430503,498.0,604.0,Y,지하보도,,서울특별시 강남구청,2021-08-09,서울특별시,강남구
공무원연금공단,공공용,"서울특별시 강남구 언주로 508 (역삼동, 공무원연금공단)",서울특별시 강남구 역삼동 701,37.50396633,127.0429085,11289.0,13684.0,Y,주차장,,서울특별시 강남구청,2021-08-09,서울특별시,강남구
한독약품,공공용,"서울특별시 강남구 테헤란로 132 (역삼동, 한독약품빌딩)",서울특별시 강남구 역삼동 735,37.49932027,127.0332073,2624.0,3181.0,Y,주차장,,서울특별시 강남구청,2021-08-09,서울특별시,강남구
유니온센터,공공용,"서울특별시 강남구 강남대로 310 (역삼동, 유니온센터오피스텔)",서울특별시 강남구 역삼동 837-11,37.49098462,127.0314849,12002.0,14956.0,Y,주차장,,서울특별시 강남구청,2021-08-09,서울특별시,강남구
우덕빌딩,공공용,"서울특별시 강남구 강남대로 330 (역삼동, 우덕빌딩)",서울특별시 강남구 역삼동 832-2,37.49267874,127.0306307,5260.0,6376.0,Y,주차장,,서울특별시 강남구청,2021-08-09,서울특별시,강남구
한국타이어,공공용,"서울특별시 강남구 테헤란로 133 (역삼동, 한국타이어빌딩)",서울특별시 강남구 역삼동 647-14,37.50014912,127.0334565,5831.0,9977.0,Y,주차장,,서울특별시 강남구청,2021-08-09,서울특별시,강남구
성지하이츠,공공용,"서울특별시 강남구 논현로 507 (역삼동, 성지하이츠3차빌딩)",서울특별시 강남구 역삼동 642-6,37.50157912,127.0361578,7405.0,8976.0,Y,주차장,,서울특별시 강남구청,2021-08-09,서울특별시,강남구
삼원타워,공공용,"서울특별시 강남구 테헤란로 124, 삼원타워 (역삼동)",서울특별시 강남구 역삼동 823,37.4987464,127.0317053,8088.0,9804.0,Y,주차장,,서울특별시 강남구청,2021-08-09,서울특별시,강남구
역삼1문화센터,공공용,"서울특별시 강남구 역삼로7길 16 (역삼동, 역삼1문화센터)",서울특별시 강남구 역삼동 829-20,37.49537384,127.0332825,5243.0,6355.0,Y,주차장,,서울특별시 강남구청,2021-08-09,서울특별시,강남구
엔지니어링공제빌딩,공공용,"서울특별시 강남구 테헤란로 335, 엔지니어링공제빌딩 (역삼동)",서울특별시 강남구 역삼동 705-19,37.504716,127.0482288,3656.0,4432.0,Y,주차장,,서울특별시 강남구청,2021-08-09,서울특별시,강남구
역삼2문화센터,공공용,"서울특별시 강남구 도곡로43길 25 (역삼동, 역삼2문화센터)",서울특별시 강남구 역삼동 761-26,37.49597473,127.0468166,396.0,480.0,Y,식당,,서울특별시 강남구청,2021-08-09,서울특별시,강남구
PCA라이프타워 앞 역삼지하보도,공공용,"서울특별시 강남구 테헤란로 302 (역삼동, PCA Life Tower)",서울특별시 강남구 역삼동 706,37.50243081,127.0434731,399.0,484.0,Y,지하보도,,서울특별시 강남구청,2021-08-09,서울특별시,강남구
두꺼비빌딩,공공용,"서울특별시 강남구 테헤란로 310 (역삼동, 두꺼비빌딩)",서울특별시 강남구 역삼동 707-1,37.50285201,127.044749,3168.0,3840.0,Y,주차장,,서울특별시 강남구청,2021-08-09,서울특별시,강남구
동영문화센터,공공용,"서울특별시 강남구 언주로 337 (역삼동, 동영문화센터)",서울특별시 강남구 역삼동 772,37.49792545,127.044357,11154.0,13520.0,Y,주차장,,서울특별시 강남구청,2021-08-09,서울특별시,강남구
테헤란로오피스빌딩,공공용,"서울특별시 강남구 테헤란로52길 6 (역삼동, 테헤란로오피스빌딩)",서울특별시 강남구 역삼동 707-38,37.50321149,127.0471152,8606.0,10432.0,Y,주차장,,서울특별시 강남구청,2021-08-09,서울특별시,강남구
원경빌딩,공공용,서울특별시 강남구 도곡로 205 (역삼동),서울특별시 강남구 역삼동 788-10,37.49292055,127.0413643,7088.0,8592.0,Y,주차장,,서울특별시 강남구청,2021-08-09,서울특별시,강남구
아세아타워,공공용,"서울특별시 강남구 논현로 430 (역삼동, 아세아타워빌딩)",서울특별시 강남구 역삼동 726,37.49900155,127.038355,48150.0,58364.0,Y,주차장,,서울특별시 강남구청,2021-08-09,서울특별시,강남구
동우빌딩,공공용,"서울특별시 강남구 테헤란로 328 (역삼동, 동우빌딩)",서울특별시 강남구 역삼동 708,37.50370862,127.0476809,4709.0,5708.0,Y,주차장,,서울특별시 강남구청,2021-08-09,서울특별시,강남구
도곡정보문화도서관,공공용,"서울특별시 강남구 도곡로18길 57 (도곡동, 도곡정보문화도서관)",서울특별시 강남구 도곡동 892-6,37.48831184,127.0388787,99.0,120.0,Y,주차장,,서울특별시 강남구청,2021-08-09,서울특별시,강남구
KT양재지점 양재전화국,공공용,"서울특별시 강남구 남부순환로 2653 (도곡동, KT양재지점)",서울특별시 강남구 도곡동 907-41,37.48586782,127.0403292,403.0,488.0,Y,주차장,,서울특별시 강남구청,2021-08-09,서울특별시,강남구
역삼럭키아파트 101동 지하,공공용,"서울특별시 강남구 논현로 213 (도곡동, 역삼럭키아파트)",서울특별시 강남구 도곡동 963,37.49141419,127.0409971,2432.0,2948.0,Y,주차장,,서울특별시 강남구청,2021-08-09,서울특별시,강남구
역삼럭키아파트 103동지하,공공용,"서울특별시 강남구 논현로 213 (도곡동, 역삼럭키아파트)",서울특별시 강남구 도곡동 963,37.49141419,127.0409971,875.0,1061.0,Y,주차장,,서울특별시 강남구청,2021-08-09,서울특별시,강남구
역삼럭키아파트 104동지하,공공용,"서울특별시 강남구 논현로 213 (도곡동, 역삼럭키아파트)",서울특별시 강남구 도곡동 963,37.49141419,127.0409971,1554.0,1884.0,Y,주차장,,서울특별시 강남구청,2021-08-09,서울특별시,강남구
역삼럭키아파트 108동지하,공공용,"서울특별시 강남구 논현로 213 (도곡동, 역삼럭키아파트)",서울특별시 강남구 도곡동 963,37.49141419,127.0409971,1191.0,1444.0,Y,주차장,,서울특별시 강남구청,2021-08-09,서울특별시,강남구
역삼럭키아파트 109동지하,공공용,"서울특별시 강남구 논현로 213 (도곡동, 역삼럭키아파트)",서울특별시 강남구 도곡동 963,37.49141419,127.0409971,1030.0,1248.0,Y,주차장,,서울특별시 강남구청,2021-08-09,서울특별시,강남구
역삼럭키아파트 110동지하,공공용,"서울특별시 강남구 논현로 213 (도곡동, 역삼럭키아파트)",서울특별시 강남구 도곡동 963,37.49141419,127.0409971,776.0,941.0,Y,주차장,,서울특별시 강남구청,2021-08-09,서울특별시,강남구
에스케이리더스뷰아파트,공공용,"서울특별시 강남구 언주로 201 (도곡동, 에스케이리더스뷰)",서울특별시 강남구 도곡동 168,37.4884271,127.0487793,18219.0,701.0,Y,주차장,,서울특별시 강남구청,2021-08-09,서울특별시,강남구
포스코트아파트,공공용,"서울특별시 강남구 남부순환로381길 15 (도곡동, 포스코트아파트)",서울특별시 강남구 도곡동 164-6,37.4879363206,127.0476656003,6458.0,7828.0,Y,주차장,,서울특별시 강남구청,2021-08-09,서울특별시,강남구
경남아파트,공공용,"서울특별시 강남구 논현로 209 (도곡동, 경남아파트)",서울특별시 강남구 도곡동 967,37.48917603,127.0411722,10847.0,1795.0,Y,주차장,,서울특별시 강남구청,2021-08-09,서울특별시,강남구
매봉삼성아파트,공공용,"서울특별시 강남구 언주로 203 (도곡동, 매봉삼성아파트)",서울특별시 강남구 도곡동 966,37.48916951,127.0488296,5084.0,6162.0,Y,주차장,,서울특별시 강남구청,2021-08-09,서울특별시,강남구
숙명여고,공공용,"서울특별시 강남구 남부순환로 2807 (도곡동, 숙명여자고등학교)",서울특별시 강남구 도곡동 91,37.49147446,127.0526124,924.0,1120.0,Y,체육관,,서울특별시 강남구청,2021-08-09,서울특별시,강남구
도곡2동주민센터,공공용,"서울특별시 강남구 남부순환로378길 34-9 (도곡동, 도곡2동주민센터)",서울특별시 강남구 도곡동 459,37.4837230766,127.0464155,2570.0,3109.0,Y,"주차장, 골프장",,서울특별시 강남구청,2021-08-09,서울특별시,강남구
매봉역,공공용,"서울특별시 강남구 남부순환로 지하 2744 (도곡동, 매봉역)",서울특별시 강남구 도곡동 179-2,37.48696113,127.0466165,7306.0,8856.0,Y,지하철승강장,,서울특별시 강남구청,2021-08-09,서울특별시,강남구
도곡역,공공용,"서울특별시 강남구 남부순환로 지하 2814 (도곡동, 도곡역)",서울특별시 강남구 도곡동 339-2,37.49086414,127.0553257,15454.0,18732.0,Y,지하철승강장,,서울특별시 강남구청,2021-08-09,서울특별시,강남구
우성캐릭터199,공공용,"서울특별시 강남구 언주로 118 (도곡동, 우성캐릭터199)",서울특별시 강남구 도곡동 467-24,37.48690128,127.0518629,2742.0,3324.0,Y,주차장,,서울특별시 강남구청,2021-08-09,서울특별시,강남구
도곡현대비젼21,공공용,"서울특별시 강남구 언주로30길 10 (도곡동, 현대비전21)",서울특별시 강남구 도곡동 467-19,37.4873375,127.0515647,2237.0,2712.0,Y,주차장,,서울특별시 강남구청,2021-08-09,서울특별시,강남구
대림아크로텔,공공용,"서울특별시 강남구 언주로30길 13 (대림아크로빌,대림아크로텔)",서울특별시 강남구 도곡동 467-6,37.48814158,127.0506742,16830.0,2491.0,Y,주차장,,서울특별시 강남구청,2021-08-09,서울특별시,강남구
아카데미스위트,공공용,"서울특별시 강남구 언주로30길 21 (도곡동, 아카데미스위트)",서울특별시 강남구 도곡동 467-7,37.48886541,127.0520135,9900.0,12000.0,Y,주차장,,서울특별시 강남구청,2021-08-09,서울특별시,강남구
우성리빙텔아파트,공공용,"서울특별시 강남구 언주로30길 27 (도곡동, 우성리빙텔)",서울특별시 강남구 도곡동 467-10,37.48842186,127.0525876,6389.0,7744.0,Y,주차장,,서울특별시 강남구청,2021-08-09,서울특별시,강남구
삼성래미안아파트,공공용,"서울특별시 강남구 남부순환로 2803 (도곡동, 삼성래미안아파트)",서울특별시 강남구 91-5,37.48960446,127.0515029,30083.0,3706.0,Y,주차장,,서울특별시 강남구청,2021-08-09,서울특별시,강남구
도곡렉슬아파트,공공용,"서울특별시 강남구 선릉로 221 (도곡동, 도곡렉슬아파트)",서울특별시 강남구 도곡동 527,37.49420756,127.049733,168300.0,15298.0,Y,주차장,,서울특별시 강남구청,2021-08-09,서울특별시,강남구
래미안 도곡 카운티,공공용,"서울특별시 강남구 도곡로 320 (도곡동, 래미안도곡카운티)",서울특별시 강남구 도곡동 538,37.4956390045,127.0520027065,18208.0,1949.0,Y,주차장,,서울특별시 강남구청,2021-08-09,서울특별시,강남구
경남아파트 관리소,공공용,"서울특별시 강남구 언주로 110 (개포동, 경남아파트)",서울특별시 강남구 개포동 649,37.48541153,127.0547066,264.0,320.0,Y,창고,,서울특별시 강남구청,2021-08-09,서울특별시,강남구
경남아파트 경남2차상가,공공용,"서울특별시 강남구 언주로 110 (개포동, 경남아파트)",서울특별시 강남구 개포동 649,37.48541153,127.0547066,495.0,600.0,Y,슈퍼,,서울특별시 강남구청,2021-08-09,서울특별시,강남구
현대1차아파트 현대상가지하,공공용,"서울특별시 강남구 개포로 303 (개포동, 현대1차아파트)",서울특별시 강남구 개포동 653,37.48328169,127.054393,396.0,480.0,Y,상가,,서울특별시 강남구청,2021-08-09,서울특별시,강남구
경남아파트 경남상가 지하,공공용,"서울특별시 강남구 언주로 110 (개포동, 경남아파트)",서울특별시 강남구 개포동 649,37.48541153,127.0547066,792.0,960.0,Y,상가,,서울특별시 강남구청,2021-08-09,서울특별시,강남구
우성3차아파트 우성3차상가,공공용,서울특별시 강남구 개포로 307 (개포동),서울특별시 강남구 개포동 652,37.48463241,127.0560920381,495.0,600.0,Y,상가,,서울특별시 강남구청,2021-08-09,서울특별시,강남구
개포공무원아파트 9단지 908동 앞,공공용,서울특별시 강남구 영동대로4길 10 (개포공무원아파트9단지),서울특별시 강남구 일원동 688,37.48901125,127.0756006,126.0,153.0,Y,지하보도,,서울특별시 강남구청,2021-08-09,서울특별시,강남구
개포2동주민센터,공공용,"서울특별시 강남구 개포로 511 (개포동, 개포2동주민센터)",서울특별시 강남구 개포동 182,37.4897829,127.0690748,1470.0,1782.0,Y,지하주차장,,서울특별시 강남구청,2021-08-09,서울특별시,강남구
구룡역,공공용,"서울특별시 강남구 개포로 지하 403 (개포동, 구룡역)",서울특별시 강남구 개포동 175-3,37.48708881,127.0592669,12203.0,14792.0,Y,지하철승강장,,서울특별시 강남구청,2021-08-09,서울특별시,강남구
개포동역,공공용,"서울특별시 강남구 개포로 지하 420 (개포동, 개포동역)",서울특별시 강남구 개포동 195,37.48924739,127.0664736,11184.0,13556.0,Y,지하철승강장,,서울특별시 강남구청,2021-08-09,서울특별시,강남구
현대2차아파트208동,공공용,"서울특별시 강남구 언주로 107 (개포동, 현대2차아파트)",서울특별시 강남구 개포동 654,37.48359635,127.0519284,3897.0,4724.0,Y,창고,,서울특별시 강남구청,2021-08-09,서울특별시,강남구
현대2차아파트210동,공공용,"서울특별시 강남구 언주로 107 (개포동, 현대2차아파트)",서울특별시 강남구 개포동 654,37.48359635,127.0519284,700.0,848.0,Y,창고,,서울특별시 강남구청,2021-08-09,서울특별시,강남구
개포4동주민센터지하,공공용,"서울특별시 강남구 개포로38길 12 (개포동, 개포4동주민센터)",서울특별시 강남구 개포동 1211-4,37.47882112,127.0516583,198.0,240.0,Y,구내식당 및 창고,,서울특별시 강남구청,2021-08-09,서울특별시,강남구
쌍용개포아파트,공공용,"서울특별시 강남구 언주로 101 (개포동, 쌍용개포아파트)",서울특별시 강남구 개포동 655-3,37.48107653,127.0532789,832.0,1008.0,Y,주차장,,서울특별시 강남구청,2021-08-09,서울특별시,강남구
포이초등학교 공영주차장,공공용,"서울특별시 강남구 개포로22길 87 (개포동, 포이초등학교)",서울특별시 강남구 개포동 1273,37.4759156202,127.0525105521,3469.0,4205.0,Y,공영주차장,,서울특별시 강남구청,2021-08-09,서울특별시,강남구
데님관광호텔,공공용,"서울특별시 강남구 논현로 66 (개포동, 데님관광호텔)",서울특별시 강남구 개포동 1229-14,37.47619586,127.046655,2289.0,2775.0,Y,주차장,,서울특별시 강남구청,2021-08-09,서울특별시,강남구
원불교서울교구,공공용,서울특별시 강남구 논현로 10 (개포동),서울특별시 강남구 개포동 1163-4,37.4723485,127.0505098,263.0,316.0,Y,주차장,,서울특별시 강남구청,2021-08-09,서울특별시,강남구
현대2차아파트204동,공공용,"서울특별시 강남구 언주로 107 (개포동, 현대2차아파트)",서울특별시 강남구 개포동 654,37.48359635,127.0519284,3897.0,4724.0,Y,창고,,서울특별시 강남구청,2021-08-09,서울특별시,강남구
상록수마을아파트,공공용,"서울특별시 강남구 광평로10길 15 (일원동, 상록수아파트)",서울특별시 강남구 일원동 734,37.4828993841,127.0834456,2970.0,3600.0,Y,주차장,,서울특별시 강남구청,2021-08-09,서울특별시,강남구
가람아파트,공공용,"서울특별시 강남구 일원로 127 (일원동, 가람아파트)",서울특별시 강남구 일원동 735,37.48315884,127.0853816,2310.0,2800.0,Y,주차장,,서울특별시 강남구청,2021-08-09,서울특별시,강남구
일원역,공공용,"서울특별시 강남구 일원로 지하 121 (일원동, 일원역)",서울특별시 강남구 일원동 717,37.48407494,127.084451,1188.0,1440.0,Y,지하철승강장,,서울특별시 강남구청,2021-08-09,서울특별시,강남구
까치마을아파트,공공용,"서울특별시 강남구 광평로19길 10 (일원동, 목련타운아파트)",서울특별시 강남구 일원동 746,37.48548616,127.0866008,3135.0,3800.0,Y,주차장,,서울특별시 강남구청,2021-08-09,서울특별시,강남구
목련타운아파트,공공용,"서울특별시 강남구 광평로19길 15 (일원동, 목련타운아파트)",서울특별시 강남구 일원동 716,37.48553072,127.0847963,3640.0,4412.0,Y,주차장,,서울특별시 강남구청,2021-08-09,서울특별시,강남구
샘터마을아파트,공공용,"서울특별시 강남구 일원로 120 (일원동, 샘터마을아파트)",서울특별시 강남구 일원동 718,37.48520065,127.0826748,2640.0,3200.0,Y,주차장,,서울특별시 강남구청,2021-08-09,서울특별시,강남구
한솔마을아파트,공공용,"서울특별시 강남구 광평로10길 6 (일원동, 한솔마을아파트)",서울특별시 강남구 일원동 731,37.48262791,127.0765213,1650.0,2000.0,Y,주차장,,서울특별시 강남구청,2021-08-09,서울특별시,강남구
푸른마을아파트,공공용,"서울특별시 강남구 일원로14길 25 (일원동, 푸른마을아파트)",서울특별시 강남구 일원동 719,37.48479809,127.0811005,2970.0,3600.0,Y,주차장,,서울특별시 강남구청,2021-08-09,서울특별시,강남구
일원본동주민센터,공공용,"서울특별시 강남구 광평로 126 (일원동, 일원본동주민센터)",서울특별시 강남구 일원동 735-3,37.48337789,127.0864808,330.0,400.0,Y,"식당, 창고",,서울특별시 강남구청,2021-08-09,서울특별시,강남구
강남데시앙포레아파트,공공용,"서울특별시 강남구 광평로34길 55 (수서동, 강남데시앙포레아파트)",서울특별시 강남구 수서동 559,37.48085061,127.0923661,35911.0,4128.0,Y,주차장,,서울특별시 강남구청,2021-08-09,서울특별시,강남구
일원1동주민센터,공공용,"서울특별시 강남구 양재대로55길 14 (일원동, 일원1동주민센터)",서울특별시 강남구 일원동 712-3,37.49185343,127.0880284,366.0,444.0,Y,주차장,,서울특별시 강남구청,2021-08-09,서울특별시,강남구
수서1단지아파트 상가 앞 지하보도,공공용,"서울특별시 강남구 양재대로55길 6 (일원동, 수서1단지아파트 상가)",서울특별시 강남구 일원동 711-1,37.49131982,127.0883128,241.0,291.0,Y,지하보도,,서울특별시 강남구청,2021-08-09,서울특별시,강남구
중동고등학교,공공용,"서울특별시 강남구 일원로 7 (일원동, 중동고등학교)",서울특별시 강남구 일원동 618,37.49371459,127.0809111,191.0,191.0,Y,주차장,,서울특별시 강남구청,2021-08-09,서울특별시,강남구
수서1단지에스에이치빌 101동,공공용,"서울특별시 강남구 양재대로55길 10 (일원동, 수서1단지 에스에이치빌)",서울특별시 강남구 일원동 711,37.49315584,127.0909926,2350.0,2848.0,Y,주차장,,서울특별시 강남구청,2021-08-09,서울특별시,강남구
수서1단지에스에이치빌 102동,공공용,"서울특별시 강남구 양재대로55길 10 (일원동, 수서1단지 에스에이치빌)",서울특별시 강남구 일원동 711,37.49315584,127.0909926,2336.0,2832.0,Y,주차장,,서울특별시 강남구청,2021-08-09,서울특별시,강남구
대청역,공공용,"서울특별시 강남구 일원로 지하 2 (일원동, 대청역)",서울특별시 강남구 일원동 700-9,37.49372276,127.0794953,7003.0,8488.0,Y,지하철승강장,,서울특별시 강남구청,2021-08-09,서울특별시,강남구
영희초등학교 영희문화관,공공용,서울특별시 강남구 일원로 21 (일원동),서울특별시 강남구 일원동 617,37.49230166,127.0811312,2099.0,2544.0,Y,주차장,,서울특별시 강남구청,2021-08-09,서울특별시,강남구
중동중학교,공공용,"서울특별시 강남구 일원로8길 37 (일원동, 중동중학교)",서울특별시 강남구 일원동 692,37.48851553,127.0786124,799.0,968.0,Y,식당,,서울특별시 강남구청,2021-08-09,서울특별시,강남구
석탑프라자,공공용,"서울특별시 강남구 개포로 615 (개포동, 석탑프라자)",서울특별시 강남구 개포동 12-4,37.49265853,127.0755862,6999.0,8484.0,Y,주차장,,서울특별시 강남구청,2021-08-09,서울특별시,강남구
서울주택도시공사,공공용,"서울특별시 강남구 개포로 621 (개포동, SH공사)",서울특별시 강남구 개포동 14-5,37.49413049,127.0787811,10230.0,12400.0,Y,주차장,,서울특별시 강남구청,2021-08-09,서울특별시,강남구
대모산입구역,공공용,"서울특별시 강남구 개포로 지하 522 (일원동, 대모산입구역)",서울특별시 강남구 일원동 700-1,37.49154641,127.0731698,13478.0,16337.0,Y,지하철승강장,,서울특별시 강남구청,2021-08-09,서울특별시,강남구
일원2동주민센터,공공용,"서울특별시 강남구 개포로 607 (개포동, 일원2동주민센터)",서울특별시 강남구 개포동 12-6,37.49215157,127.073677,380.0,461.0,Y,생활체육교실,,서울특별시 강남구청,2021-08-09,서울특별시,강남구
신동아아파트지하주차장,공공용,"서울특별시 강남구 광평로47길 17 (수서동, 신동아아파트)",서울특별시 강남구 수서동 736,37.48790982,127.0981867,1650.0,2000.0,Y,주차장,,서울특별시 강남구청,2021-08-09,서울특별시,강남구
한아름아파트지하주차장,공공용,"서울특별시 강남구 광평로51길 22 (수서동, 한아름아파트)",서울특별시 강남구 수서동 712,37.49021867,127.1039565,8451.0,10244.0,Y,주차장,,서울특별시 강남구청,2021-08-09,서울특별시,강남구
수서역,공공용,"서울특별시 강남구 광평로 지하 270 (수서동, 수서역)",서울특별시 강남구 수서동 728,37.48738773,127.1018585,3505.0,4248.0,Y,지하철승강장,,서울특별시 강남구청,2021-08-09,서울특별시,강남구
세종고등학교 지하실,공공용,"서울특별시 강남구 광평로51길 36 (수서동, 세종고등학교)",서울특별시 강남구 수서동 711,37.49038907,127.1027988,2940.0,3564.0,Y,교실,,서울특별시 강남구청,2021-08-09,서울특별시,강남구
동익아파트지하주차장,공공용,"서울특별시 강남구 광평로39길 3 (수서동, 동익아파트)",서울특별시 강남구 수서동 738,37.48576619,127.0972612,4102.0,4972.0,Y,주차장,,서울특별시 강남구청,2021-08-09,서울특별시,강남구
수서동주민센터,공공용,"서울특별시 강남구 광평로 301-4 (수서동, 수서동주민센터)",서울특별시 강남구 수서동 718-2,37.48890229,127.1049904,327.0,396.0,Y,"주차장,식당,창고",,서울특별시 강남구청,2021-08-09,서울특별시,강남구
강남더샵포레스트아파트,공공용,"서울특별시 강남구 광평로34길 35 (수서동, 강남더샵포레스트아파트)",서울특별시 강남구 수서동 537,37.48211007,127.0948369,29905.0,1910.0,Y,주차장,,서울특별시 강남구청,2021-08-09,서울특별시,강남구
하니움아파트,공공용,"서울특별시 강남구 광평로60길 32 (수서동, 하니움)",서울특별시 강남구 수서동 721-1,37.48660093,127.1072034,1220.0,1479.0,Y,주차장,,서울특별시 강남구청,2021-08-09,서울특별시,강남구
SRT수서역사,공공용,"서울특별시 강남구 밤고개로 99 (수서동, 수서역사)",서울특별시 강남구 수서동 214-2,37.48541757,127.1045604,9465.0,11473.0,Y,승강장,,서울특별시 강남구청,2021-08-09,서울특별시,강남구
세곡문화센터,공공용,"서울특별시 강남구 밤고개로 286 (세곡동, 기상관측소)",서울특별시 강남구 세곡동 278-1,37.46904954,127.1069115,399.0,484.0,Y,주차장,,서울특별시 강남구청,2021-08-09,서울특별시,강남구
강남제일교회,공공용,서울특별시 강남구 헌릉로637길 12 (세곡동),서울특별시 강남구 세곡동 102-30,37.46595172,127.1090413,1000.0,1212.0,Y,예배당,,서울특별시 강남구청,2021-08-09,서울특별시,강남구
강남한양수자인아파트,공공용,"서울특별시 강남구 자곡로 260 (자곡동, 강남한양수자인아파트)",서울특별시 강남구 자곡동 77,37.4765488,127.1116072,61656.0,6461.0,Y,주차장,,서울특별시 강남구청,2021-08-09,서울특별시,강남구
엘에이치강남3단지,공공용,"서울특별시 강남구 자곡로3길 22 (자곡동, 엘에이치강남3단지)",서울특별시 강남구 자곡동 621,37.46997106,127.0910188,8565.0,10382.0,Y,주차장,,서울특별시 강남구청,2021-08-09,서울특별시,강남구
엘에이치강남힐스테이트아파트,공공용,"서울특별시 강남구 자곡로3길 21 (자곡동, LH강남힐스테이트)",서울특별시 강남구 자곡동 619,37.47176808,127.0881179,4787.0,5802.0,Y,주차장,,서울특별시 강남구청,2021-08-09,서울특별시,강남구
세곡푸르지오아파트,공공용,"서울특별시 강남구 자곡로 21 (세곡동, 세곡푸르지오)",서울특별시 강남구 세곡동 533,37.46734557,127.0932629,34060.0,4757.0,Y,주차장,,서울특별시 강남구청,2021-08-09,서울특별시,강남구
세곡리엔파크 4단지,공공용,"서울특별시 강남구 헌릉로590길 88 (세곡동, 세곡리엔파크4단지)",서울특별시 강남구 세곡동 522,37.46287702,127.1014455,17198.0,1982.0,Y,주차장,,서울특별시 강남구청,2021-08-09,서울특별시,강남구
래미안포레아파트,공공용,서울특별시 강남구 밤고개로21길 25 (율현동),서울특별시 강남구 율현동 361,37.47504599,127.1076436,40804.0,5141.0,Y,주차장,,서울특별시 강남구청,2021-08-09,서울특별시,강남구
상일여자고등학교,공공용,"서울특별시 강동구 천호대로219길 61 (상일동, 상일여자고등학교)",,37.54858748,127.1708235,2381.0,2886.0,Y,공공시설,02-3425-5160,강동구청,2021-08-06,서울특별시,강동구
강동구청 본관 및 제2청사 지하,공공용,서울특별시 강동구 성내로 25 (성내동),서울특별시 강동구 성내동 540번지,37.53015629,127.1237902,2196.0,2662.0,Y,공공시설,02-3425-5160,강동구청,2021-08-06,서울특별시,강동구
강동경찰서,공공용,"서울특별시 강동구 성내로 57 (성내동, 강동경찰서)",서울특별시 강동구 성내동 541번지 1호,37.52867635,127.1268944,8261.9,10014.0,Y,공공시설,02-3425-5160,강동구청,2021-08-06,서울특별시,강동구
강동고등학교,공공용,서울특별시 강동구 구천면로 572-0 (상일동),서울특별시 강동구 상일동 267번지,37.5499136,127.1606685,614.0,744.0,Y,공공시설,02-3425-5160,강동구청,2021-08-06,서울특별시,강동구
강동우체국,공공용,"서울특별시 강동구 양재대로112길 57 (길동, 서울강동우체국)",서울특별시 강동구 길동 403번지,37.53637163,127.1432023,119.0,144.0,Y,공공시설,02-3425-5160,강동구청,2021-08-06,서울특별시,강동구
주공9단지아파트(전동지하),공공용,서울특별시 강동구 구천면로 476 (명일동),서울특별시 강동구 명일동 257번지,37.54896231,127.1511049,1858.0,2252.0,Y,공공시설,02-3425-5160,강동구청,2021-08-06,서울특별시,강동구
현대1차아파트(전동지하),공공용,"서울특별시 강동구 동남로49길 57 (둔촌동, 현대아파트)",서울특별시 강동구 둔촌동 30번지 4호,37.53118513,127.146192,1995.0,2418.0,Y,공공시설,02-3425-5160,강동구청,2021-08-06,서울특별시,강동구
둔촌천주교회,공공용,서울특별시 강동구 풍성로 241 (둔촌동),서울특별시 강동구 둔촌동 518번지,37.5286881,127.1385835,614.0,744.0,Y,공공시설,02-3425-5160,강동구청,2021-08-06,서울특별시,강동구
보훈병원,공공용,서울특별시 강동구 진황도로61길 53 (둔촌동),서울특별시 강동구 둔촌동 6번지 2호,37.52846375,127.1479256,3002.0,3638.0,Y,공공시설,02-3425-5160,강동구청,2021-08-06,서울특별시,강동구
프라자아파트(전동지하),공공용,서울특별시 강동구 천호대로 1240 (둔촌동),서울특별시 강동구 둔촌동 603번지,37.53590156,127.1479827,1153.0,1397.0,Y,공공시설,02-3425-5160,강동구청,2021-08-06,서울특별시,강동구
삼익2차아파트(전동지하),공공용,서울특별시 강동구 고덕로 210 (명일동),서울특별시 강동구 명일동 15번지,37.55380796,127.1470662,10195.0,12357.0,Y,공공시설,02-3425-5160,강동구청,2021-08-06,서울특별시,강동구
삼익가든아파트(전동지하),공공용,서울특별시 강동구 상암로 214 (명일동),서울특별시 강동구 명일동 270번지,37.5463232,127.1462347,6090.0,7381.0,Y,공공시설,02-3425-5160,강동구청,2021-08-06,서울특별시,강동구
한영고등학교,공공용,서울특별시 강동구 동남로 832 (상일동),서울특별시 강동구 상일동 166번지,37.54914227,127.157773,4838.0,5864.0,Y,공공시설,02-3425-5160,강동구청,2021-08-06,서울특별시,강동구
강동소방서,공공용,서울특별시 강동구 성내로 39 (성내동),서울특별시 강동구 성내동 541번지,37.52945616,127.1253711,324.0,393.0,Y,공공시설,02-3425-5160,강동구청,2021-08-06,서울특별시,강동구
이마트 천호점,공공용,서울특별시 강동구 천호대로 1017 (천호동),서울특별시 강동구 천호동 454번지 1호,37.53872639,127.1251498,5925.0,7181.0,Y,공공시설,02-3425-5160,강동구청,2021-08-06,서울특별시,강동구
세우빌딩,공공용,서울특별시 강동구 천호대로 1037 (천호동),서울특별시 강동구 천호동 453번지 14호,37.53784146,127.1273327,1285.0,1557.0,Y,공공시설,02-3425-5160,강동구청,2021-08-06,서울특별시,강동구
강동성심병원,공공용,"서울특별시 강동구 성안로 150 (길동, 강동성심병원)",서울특별시 강동구 길동 445번지,37.53614338,127.1353636,7840.0,9503.0,Y,공공시설,02-3425-5160,강동구청,2021-08-06,서울특별시,강동구
현대종합상가 지하,공공용,서울특별시 강동구 상암로 210 (명일동),서울특별시 강동구 명일동 347번지 3호,37.54629971,127.1457936,1129.0,1368.0,Y,공공시설,02-3425-5160,강동구청,2021-08-06,서울특별시,강동구
기아자동차 강동지점,공공용,서울특별시 강동구 양재대로 1395 (성내동),서울특별시 강동구 성내동 397번지 3호,37.5307837,127.136817,1440.0,1745.0,Y,공공시설,02-3425-5160,강동구청,2021-08-06,서울특별시,강동구
경창빌딩 지하주차장,공공용,서울특별시 강동구 양재대로 1349 (성내동),서울특별시 강동구 성내동 428번지 6호,37.52671829,127.1353591,277.0,335.0,Y,공공시설,02-3425-5160,강동구청,2021-08-06,서울특별시,강동구
명덕유치원 지하,공공용,서울특별시 강동구 동남로83길 66 (고덕동),서울특별시 강동구 고덕동 639번지 2호,37.55987092,127.1531772,346.0,419.0,Y,공공시설,02-3425-5160,강동구청,2021-08-06,서울특별시,강동구
강동보건소 지하,공공용,서울특별시 강동구 성내로 45 (성내동),서울특별시 강동구 성내동 541번지 2호,37.52953883,127.1255851,578.0,701.0,Y,공공시설,02-3425-5160,강동구청,2021-08-06,서울특별시,강동구
현대3차아파트 (전동지하),공공용,서울특별시 강동구 진황도로 211 (둔촌동),서울특별시 강동구 둔촌동 135번지 1호,37.52734386,127.1448791,1594.0,1932.0,Y,공공시설,02-3425-5160,강동구청,2021-08-06,서울특별시,강동구
현대2차아파트(전동지하),공공용,서울특별시 강동구 풍성로65길 34 (둔촌동),서울특별시 강동구 둔촌동 70번지 5호,37.52946784,127.1404866,1323.0,1603.0,Y,공공시설,02-3425-5160,강동구청,2021-08-06,서울특별시,강동구
강동구민회관 지하,공공용,서울특별시 강동구 상암로 168 (천호동),서울특별시 강동구 천호동 41번지,37.54576425,127.1412165,1046.0,1267.0,Y,공공시설,02-3425-5160,강동구청,2021-08-06,서울특별시,강동구
코오롱상가 지하주차장,공공용,서울특별시 강동구 진황도로 12 (천호동),서울특별시 강동구 천호동 410번지 100호,37.5391815,127.128211,4699.0,5695.0,Y,공공시설,02-3425-5160,강동구청,2021-08-06,서울특별시,강동구
명성교회 지하주차장,공공용,서울특별시 강동구 구천면로 452 (명일동),서울특별시 강동구 명일동 331번지 1호,37.54896402,127.1475853,3220.0,3903.0,Y,공공시설,02-3425-5160,강동구청,2021-08-06,서울특별시,강동구
명일엘지아파트(전동지하),공공용,서울특별시 강동구 상암로51길 61 (명일동),서울특별시 강동구 명일동 332번지,37.54865988,127.1461524,42893.0,51991.0,Y,공공시설,02-3425-5160,강동구청,2021-08-06,서울특별시,강동구
대신증권 지하주차장,공공용,서울특별시 강동구 양재대로 1596 (명일동),서울특별시 강동구 명일동 335번지 3호,37.54808063,127.1437928,1671.0,2025.0,Y,공공시설,02-3425-5160,강동구청,2021-08-06,서울특별시,강동구
신한오피스텔 지하주차장,공공용,서울특별시 강동구 천호옛길 34 (성내동),서울특별시 강동구 성내동 120번지 89호,37.53224727,127.1226457,657.0,796.0,Y,공공시설,02-3425-5160,강동구청,2021-08-06,서울특별시,강동구
농협중앙회 서울지역본부,공공용,"서울특별시 강동구 올림픽로 528 (성내동, 농협서울지역본부)",서울특별시 강동구 성내동 451번지,37.52940131,127.1203999,2620.0,3176.0,Y,공공시설,02-3425-5160,강동구청,2021-08-06,서울특별시,강동구
심포니타워,공공용,서울특별시 강동구 양재대로 1365 (성내동),서울특별시 강동구 성내동 416번지 6호,37.52806464,127.1358753,644.0,780.0,Y,공공시설,02-3425-5160,강동구청,2021-08-06,서울특별시,강동구
KT강동지사,공공용,서울특별시 강동구 천호대로175길 39 (길동),서울특별시 강동구 길동 415번지 9호,37.53701113,127.1369716,1993.0,2415.0,Y,공공시설,02-3425-5160,강동구청,2021-08-06,서울특별시,강동구
4H회관,공공용,서울특별시 강동구 동남로73길 31 (명일동),서울특별시 강동구 명일동 48번지 1호,37.55267134,127.1544668,865.0,1048.0,Y,공공시설,02-3425-5160,강동구청,2021-08-06,서울특별시,강동구
현대아파트(전동지하),공공용,서울특별시 강동구 진황도로 47-2 (천호동),서울특별시 강동구 천호동 168번지 6호,37.53855872,127.1329708,1559.0,1889.0,Y,공공시설,02-3425-5160,강동구청,2021-08-06,서울특별시,강동구
현대프라자상가,공공용,서울특별시 강동구 진황도로 18 (천호동),서울특별시 강동구 천호동 410번지 105호,37.53926909,127.1291119,5598.0,6785.0,Y,공공시설,02-3425-5160,강동구청,2021-08-06,서울특별시,강동구
동화빌딩(달려라병원),공공용,서울특별시 강동구 천호대로 1165 (길동),서울특별시 강동구 길동 318번지,37.53408449,127.1409316,940.0,1139.0,Y,공공시설,02-3425-5160,강동구청,2021-08-06,서울특별시,강동구
강동수도사업소,공공용,"서울특별시 강동구 성내로 51 (성내동, 강동수도사업소)",서울특별시 강동구 성내동 541번지 4호,37.52909386,127.126337,561.0,680.0,Y,공공시설,02-3425-5160,강동구청,2021-08-06,서울특별시,강동구
국민은행 명일동지점,공공용,서울특별시 강동구 양재대로 1661 (명일동),서울특별시 강동구 명일동 306번지 1호,37.55385747,127.1439419,1387.0,1681.0,Y,공공시설,02-3425-5160,강동구청,2021-08-06,서울특별시,강동구
주양쇼핑센터,공공용,서울특별시 강동구 고덕로62길 55 (명일동),서울특별시 강동구 명일동 48번지,37.55239415,127.1534541,8587.0,10408.0,Y,공공시설,02-3425-5160,강동구청,2021-08-06,서울특별시,강동구
한일빌딩,공공용,서울특별시 강동구 천호대로 1016 (성내동),서울특별시 강동구 성내동 48번지 1호,37.53779571,127.1248008,3960.0,4800.0,Y,공공시설,02-3425-5160,강동구청,2021-08-06,서울특별시,강동구
일성하이츠오피스텔,공공용,"서울특별시 강동구 천호대로 1121 (길동, 일성하이츠오피스텔)",서울특별시 강동구 길동 454번지 1호,37.53521355,127.1363587,1840.0,2230.0,Y,공공시설,02-3425-5160,강동구청,2021-08-06,서울특별시,강동구
라이프아파트(전동지하),공공용,서울특별시 강동구 풍성로65길 29 (둔촌동),서울특별시 강동구 둔촌동 544번지,37.52957012,127.1395849,660.0,800.0,Y,공공시설,02-3425-5160,강동구청,2021-08-06,서울특별시,강동구
명일역,공공용,"서울특별시 강동구 양재대로 지하 1632 (명일동, 명일역)",서울특별시 강동구 명일동 312번지,37.55126289,127.1440055,3474.0,4210.0,Y,공공시설,02-3425-5160,강동구청,2021-08-06,서울특별시,강동구
굽은다리역,공공용,"서울특별시 강동구 양재대로 지하 1572 (명일동, 굽은다리역)",서울특별시 강동구 명일동 345번지 12호,37.54573193,127.1429709,3227.0,3911.0,Y,공공시설,02-3425-5160,강동구청,2021-08-06,서울특별시,강동구
sk네트웍스,공공용,"서울특별시 강동구 강동대로 195 (성내동, 뉴타임빌딩)",서울특별시 강동구 성내동 448번지 3호,37.52439988,127.1282698,1651.0,2001.0,Y,공공시설,02-3425-5160,강동구청,2021-08-06,서울특별시,강동구
성내1동주민센터,공공용,"서울특별시 강동구 성내로 13 (성내동, 성내1동주민센터)",서울특별시 강동구 성내동 539번지 1호,37.53047984,127.1224627,396.0,480.0,Y,공공시설,02-3425-5160,강동구청,2021-08-06,서울특별시,강동구
화영빌딩(우리홈마트),공공용,서울특별시 강동구 강동대로53길 80 (성내동),서울특별시 강동구 성내동 430번지 12호,37.52624999,127.132932,677.0,820.0,Y,공공시설,02-3425-5160,강동구청,2021-08-06,서울특별시,강동구
힐탑오피스텔,공공용,서울특별시 강동구 천호대로 1073 (천호동),서울특별시 강동구 천호동 449번지 49호,37.53656444,127.1313418,5271.0,6389.0,Y,공공시설,02-3425-5160,강동구청,2021-08-06,서울특별시,강동구
암사1동자치회관,공공용,서울특별시 강동구 고덕로24길 49 (암사동),서울특별시 강동구 암사동 474번지 6호,37.55238301,127.1357195,443.0,536.0,Y,공공시설,02-3425-5160,강동구청,2021-08-06,서울특별시,강동구
유원아파트,공공용,서울특별시 강동구 상암로12길 24 (천호동),서울특별시 강동구 천호동 287번지 9호,37.54877467,127.1278564,4987.0,6044.0,Y,공공시설,02-3425-5160,강동구청,2021-08-06,서울특별시,강동구
고덕전철역,공공용,서울특별시 강동구 고덕로 지하 253 (고덕동),서울특별시 강동구 고덕동 310번지,37.55504705,127.1539511,4418.0,5355.0,Y,공공시설,02-3425-5160,강동구청,2021-08-06,서울특별시,강동구
현대아파트(전동 지하주차장),공공용,"서울특별시 강동구 고덕로61길 37 (고덕동, 현대아파트)",서울특별시 강동구 고덕동 312번지,37.55675353,127.1519561,11780.0,14278.0,Y,공공시설,02-3425-5160,강동구청,2021-08-06,서울특별시,강동구
길동지하철역,공공용,"서울특별시 강동구 양재대로 지하 1480 (길동, 길동역)",서울특별시 강동구 길동 378번지,37.53780806,127.139995,1752.0,2123.0,Y,공공시설,02-3425-5160,강동구청,2021-08-06,서울특별시,강동구
KT&G강동지사(담배인삼공사),공공용,서울특별시 강동구 양재대로 1544 (길동),서울특별시 강동구 길동 335번지 5호,37.54341938,127.1424849,1945.0,2357.0,Y,공공시설,02-3425-5160,강동구청,2021-08-06,서울특별시,강동구
신성통상,공공용,서울특별시 강동구 풍성로63길 84 (둔촌동),서울특별시 강동구 둔촌동 444번지,37.53171923,127.1403137,8566.0,10383.0,Y,공공시설,02-3425-5160,강동구청,2021-08-06,서울특별시,강동구
하이츠아파트(전동지하),공공용,서울특별시 강동구 명일로 113 (둔촌동),서울특별시 강동구 둔촌동 545번지,37.52919593,127.1421819,736.0,892.0,Y,공공시설,02-3425-5160,강동구청,2021-08-06,서울특별시,강동구
둔촌동역,공공용,"서울특별시 강동구 양재대로 지하 1369 (둔촌동, 둔촌역)",서울특별시 강동구 둔촌동 416번지,37.52813134,127.1363723,2722.0,3299.0,Y,공공시설,02-3425-5160,강동구청,2021-08-06,서울특별시,강동구
다성빌딩,공공용,"서울특별시 강동구 강동대로 199 (성내동, 다성빌딩)",서울특별시 강동구 성내동 448번지 8호,37.52421856,127.1286968,2204.0,2672.0,Y,공공시설,02-3425-5160,강동구청,2021-08-06,서울특별시,강동구
서경빌딩,공공용,"서울특별시 강동구 성내로 19 (성내동, (주)서경산업개발)",서울특별시 강동구 성내동 539번지 3호,37.53035639,127.1228262,1488.0,1804.0,Y,공공시설,02-3425-5160,강동구청,2021-08-06,서울특별시,강동구
강동메가박스,공공용,"서울특별시 강동구 성내로 48 (성내동, 씨네월드)",서울특별시 강동구 성내동 549번지 1호,37.52844689,127.1253602,2639.0,3199.0,Y,공공시설,02-3425-5160,강동구청,2021-08-06,서울특별시,강동구
동방아파트,공공용,서울특별시 강동구 양재대로95길 74 (성내동),서울특별시 강동구 성내동 407번지 2호,37.53137807,127.1330764,991.0,1201.0,Y,공공시설,02-3425-5160,강동구청,2021-08-06,서울특별시,강동구
지하철 천호역,공공용,"서울특별시 강동구 천호대로 지하 997 (천호동, 천호역)",서울특별시 강동구 천호동 455번지,37.53858078,127.1237371,13185.0,15981.0,Y,공공시설,02-3425-5160,강동구청,2021-08-06,서울특별시,강동구
지하철 강동역,공공용,서울특별시 강동구 천호대로 지하 1097 (천호동),서울특별시 강동구 천호동 447번지,37.53552024,127.1335316,9409.0,11404.0,Y,공공시설,02-3425-5160,강동구청,2021-08-06,서울특별시,강동구
제일아파트,공공용,서울특별시 강동구 천중로12길 17 (천호동),서울특별시 강동구 천호동 361번지 1호,37.54441152,127.1275165,1349.0,1635.0,Y,공공시설,02-3425-5160,강동구청,2021-08-06,서울특별시,강동구
상일동역,공공용,서울특별시 강동구 고덕로 지하 359 (상일동),서울특별시 강동구 상일동 148번지,37.55666301,127.1658333,7701.0,9334.0,Y,공공시설,02-3425-5160,강동구청,2021-08-06,서울특별시,강동구
현대4차아파트(전동지하),공공용,서울특별시 강동구 진황도로61길 7 (둔촌동),서울특별시 강동구 둔촌동 89번지,37.52940195,127.143825,3207.0,3887.0,Y,공공시설,02-3425-5160,강동구청,2021-08-06,서울특별시,강동구
강동구의회,공공용,"서울특별시 강동구 성내로 55 (성내동, 강동구의회의사당)",서울특별시 강동구 성내동 541번지 1호,37.52863453,127.126365,1935.0,2345.0,Y,공공시설,02-3425-5160,강동구청,2021-08-06,서울특별시,강동구
삼성아파트(전동지하),공공용,서울특별시 강동구 성안로25길 6 (천호동),서울특별시 강동구 천호동 528번지,37.53830177,127.1347955,11126.0,13486.0,Y,공공시설,02-3425-5160,강동구청,2021-08-06,서울특별시,강동구
길동동아아파트(전동지하),공공용,서울특별시 강동구 동남로49길 60-5 (둔촌동),서울특별시 강동구 둔촌동 621번지,37.53305885,127.1461254,2913.0,3530.0,Y,공공시설,02-3425-5160,강동구청,2021-08-06,서울특별시,강동구
현대모터프라자,공공용,서울특별시 강동구 천호대로 1096 (성내동),서울특별시 강동구 성내동 192번지 3호,37.53519972,127.1332359,1859.0,2253.0,Y,공공시설,02-3425-5160,강동구청,2021-08-06,서울특별시,강동구
동아1차아파트,공공용,서울특별시 강동구 풍성로54길 12-11 (성내동),서울특별시 강동구 성내동 419번지 13호,37.52880061,127.1329586,3960.0,4800.0,Y,공공시설,02-3425-5160,강동구청,2021-08-06,서울특별시,강동구
현대백화점,공공용,서울특별시 강동구 천호대로 1005 (천호동),서울특별시 강동구 천호동 455번지 8호,37.53897348,127.1244454,22303.0,27033.0,Y,공공시설,02-3425-5160,강동구청,2021-08-06,서울특별시,강동구
삼익아파트(전동지하),공공용,서울특별시 강동구 상암로12길 13 (천호동),서울특별시 강동구 천호동 288번지 5호,37.54855432,127.128449,6750.0,8181.0,Y,공공시설,02-3425-5160,강동구청,2021-08-06,서울특별시,강동구
동아코아아파트(2001아웃렛),공공용,서울특별시 강동구 구천면로 189 (천호동),서울특별시 강동구 천호동 563번지,37.54159093,127.1255358,19754.0,23944.0,Y,공공시설,02-3425-5160,강동구청,2021-08-06,서울특별시,강동구
강동웨딩문화센터,공공용,서울특별시 강동구 천호대로 1102 (성내동),서울특별시 강동구 성내동 199번지,37.53477949,127.133682,6764.0,8198.0,Y,공공시설,02-3425-5160,강동구청,2021-08-06,서울특별시,강동구
둔촌역 청구아파트,공공용,서울특별시 강동구 풍성로 194 (성내동),서울특별시 강동구 성내동 419번지 1호,37.52960504,127.1333571,5608.0,6797.0,Y,공공시설,02-3425-5160,강동구청,2021-08-06,서울특별시,강동구
천호역지하환승주차장,공공용,서울특별시 강동구 천호대로 1045 (천호동),서울특별시 강동구 천호동 452번지,37.53748015,127.1284345,49493.0,59991.0,Y,공공시설,02-3425-5160,강동구청,2021-08-06,서울특별시,강동구
현대타워,공공용,서울특별시 강동구 천호대로 1095 (천호동),서울특별시 강동구 천호동 565번지,37.53594175,127.1336636,4356.0,5280.0,Y,공공시설,02-3425-5160,강동구청,2021-08-06,서울특별시,강동구
길동 신동아4차아파트,공공용,"서울특별시 강동구 명일로 260 (길동, 신동아아파트)",서울특별시 강동구 길동 92번지,37.54113318,127.1474004,2353.0,2852.0,Y,공공시설,02-3425-5160,강동구청,2021-08-06,서울특별시,강동구
강동구청역,공공용,"서울특별시 강동구 올림픽로 지하 550 (성내동, 강동구청역)",서울특별시 강동구 성내동 319번지,37.53067303,127.1205709,5601.0,6789.0,Y,공공시설,02-3425-5160,강동구청,2021-08-06,서울특별시,강동구
암사역,공공용,서울특별시 강동구 올림픽로 지하 776 (암사동),서울특별시 강동구 암사동 501번지,37.55014106,127.1275418,4878.0,5912.0,Y,공공시설,02-3425-5160,강동구청,2021-08-06,서울특별시,강동구
선사현대아파트(전동 지하주차장),공공용,서울특별시 강동구 상암로 11 (암사동),서울특별시 강동구 암사동 509번지,37.55344437,127.1256571,20657.0,25038.0,Y,공공시설,02-3425-5160,강동구청,2021-08-06,서울특별시,강동구
삼성광나루아파트(전동 지하주차장),공공용,서울특별시 강동구 상암로3길 77 (암사동),서울특별시 강동구 암사동 508번지,37.55416784,127.1272332,3375.0,4090.0,Y,공공시설,02-3425-5160,강동구청,2021-08-06,서울특별시,강동구
진로아파트(전동지하),공공용,서울특별시 강동구 동남로73길 26 (명일동),서울특별시 강동구 명일동 47번지 12호,37.5532326,127.1547801,8887.0,10772.0,Y,공공시설,02-3425-5160,강동구청,2021-08-06,서울특별시,강동구
이마트 명일점,공공용,서울특별시 강동구 동남로75길 5 (명일동),서울특별시 강동구 명일동 47번지 7호,37.55400725,127.156005,2506.0,3037.0,Y,공공시설,02-3425-5160,강동구청,2021-08-06,서울특별시,강동구
양지학원,공공용,서울특별시 강동구 동남로 885 (명일동),서울특별시 강동구 명일동 48번지 6호,37.55265545,127.1559749,932.0,1129.0,Y,공공시설,02-3425-5160,강동구청,2021-08-06,서울특별시,강동구
한스빌딩,공공용,서울특별시 강동구 암사길 51 (암사동),서울특별시 강동구 암사동 473번지 37호,37.55200848,127.1350222,383.0,464.0,Y,공공시설,02-3425-5160,강동구청,2021-08-06,서울특별시,강동구
501타워빌딩(동양덱스빌),공공용,서울특별시 강동구 상암로 41 (암사동),서울특별시 강동구 암사동 501번지 4호,37.55015642,127.1281937,520.0,630.0,Y,공공시설,02-3425-5160,강동구청,2021-08-06,서울특별시,강동구
이안강동,공공용,서울특별시 강동구 천호대로162길 34 (성내동),서울특별시 강동구 성내동 25번지 1호,37.53557687,127.1279489,12483.0,15130.0,Y,공공시설,02-3425-5160,강동구청,2021-08-06,서울특별시,강동구
씨제이나인파크,공공용,서울특별시 강동구 천호대로 1078 (성내동),서울특별시 강동구 성내동 164번지 1호,37.53582547,127.1312648,10026.0,12152.0,Y,공공시설,02-3425-5160,강동구청,2021-08-06,서울특별시,강동구
대우한강베네시티,공공용,서울특별시 강동구 올림픽로 664 (천호동),서울특별시 강동구 천호동 425번지 5호,37.54055718,127.1249773,27500.0,33333.0,Y,공공시설,02-3425-5160,강동구청,2021-08-06,서울특별시,강동구
GS강동자이아파트,공공용,"서울특별시 강동구 천호대로 1239 (길동, GS강동자이아파트)",서울특별시 강동구 길동 474번지,37.53785898,127.1482773,32994.0,39992.0,Y,공공시설,02-3425-5160,강동구청,2021-08-06,서울특별시,강동구
신성미소지움아파트(전동지하),공공용,서울특별시 강동구 진황도로 212 (둔촌동),서울특별시 강동구 둔촌동 134번지 10호,37.52720879,127.1433296,3210.0,3890.0,Y,공공시설,02-3425-5160,강동구청,2021-08-06,서울특별시,강동구
세양청마루아파트(전동지하),공공용,서울특별시 강동구 천호대로 1162 (둔촌동),서울특별시 강동구 둔촌동 426번지,37.53326213,127.1405965,5106.0,6189.0,Y,공공시설,02-3425-5160,강동구청,2021-08-06,서울특별시,강동구
광남캐스빌아파트(전동지하),공공용,서울특별시 강동구 천호대로 1156-12 (둔촌동),서울특별시 강동구 둔촌동 435번지 7호,37.53317985,127.1390894,5449.0,6604.0,Y,공공시설,02-3425-5160,강동구청,2021-08-06,서울특별시,강동구
둔촌신동아아파트(전동지하),공공용,서울특별시 강동구 양재대로96길 79 (둔촌동),서울특별시 강동구 둔촌동 555번지,37.5290426,127.1414871,12698.0,15391.0,Y,공공시설,02-3425-5160,강동구청,2021-08-06,서울특별시,강동구
암펠로스타워아파트(전동지하),공공용,서울특별시 강동구 명일로 110 (둔촌동),서울특별시 강동구 둔촌동 556번지,37.52882081,127.1431676,4617.0,5596.0,Y,공공시설,02-3425-5160,강동구청,2021-08-06,서울특별시,강동구
한솔솔파크아파트(전동지하),공공용,서울특별시 강동구 천호대로198길 36 (둔촌동),서울특별시 강동구 둔촌동 611번지,37.53353124,127.1479078,4627.0,5608.0,Y,공공시설,02-3425-5160,강동구청,2021-08-06,서울특별시,강동구
한건브리앙,공공용,서울특별시 강동구 암사1길 9 (암사동),서울특별시 강동구 암사동 497번지 6호,37.55117943,127.1301148,1204.0,1459.0,Y,공공시설,02-3425-5160,강동구청,2021-08-06,서울특별시,강동구
대원아파트,공공용,서울특별시 강동구 고덕로 52 (암사동),서울특별시 강동구 암사동 461번지,37.55446254,127.1305561,5459.0,6616.0,Y,공공시설,02-3425-5160,강동구청,2021-08-06,서울특별시,강동구
중앙하이츠아파트,공공용,서울특별시 강동구 올림픽로98가길 47 (암사동),서울특별시 강동구 암사동 493번지 14호,37.5509092,127.1316126,4397.0,5329.0,Y,공공시설,02-3425-5160,강동구청,2021-08-06,서울특별시,강동구
효정하나플러스,공공용,서울특별시 강동구 구천면로47길 69-18 (암사동),서울특별시 강동구 암사동 672번지,37.55127636,127.1340079,1988.0,2409.0,Y,공공시설,02-3425-5160,강동구청,2021-08-06,서울특별시,강동구
동아하이빌아파트(지하주차장),공공용,서울특별시 강동구 구천면로 278 (천호동),서울특별시 강동구 천호동 217번지 132호,37.54464755,127.1338849,12374.0,14998.0,Y,공공시설,02-3425-5160,강동구청,2021-08-06,서울특별시,강동구
천호1동 공영주차장,공공용,"서울특별시 강동구 구천면로42길 60 (천호동, 천호동 노외주차장)",서울특별시 강동구 천호동 87번지 26호,37.54498842,127.1362797,6598.0,7997.0,Y,공공시설,02-3425-5160,강동구청,2021-08-06,서울특별시,강동구
동원베네스트아파트,공공용,서울특별시 강동구 고덕로 52-11 (암사동),서울특별시 강동구 암사동 670번지,37.55408839,127.1311275,3126.0,3789.0,Y,공공시설,02-3425-5160,강동구청,2021-08-06,서울특별시,강동구
일주빌딩,공공용,서울특별시 강동구 구천면로 304 (천호동),서울특별시 강동구 천호동 234번지 6호,37.54672675,127.1348115,1460.0,1769.0,Y,공공시설,02-3425-5160,강동구청,2021-08-06,서울특별시,강동구
강일리버파크 3단지(전동 지하주차장),공공용,서울특별시 강동구 아리수로93길 40 (강일동),서울특별시 강동구 강일동 674번지,37.56551597,127.1751083,30682.0,37190.0,Y,공공시설,02-3425-5160,강동구청,2021-08-06,서울특별시,강동구
강일리버파크 4단지(전동 지하주차장),공공용,서울특별시 강동구 아리수로97길 19 (강일동),서울특별시 강동구 강일동 673번지,37.56699379,127.1767891,5850.0,7091.0,Y,공공시설,02-3425-5160,강동구청,2021-08-06,서울특별시,강동구
강일리버파크 6단지(전동 지하주차장),공공용,서울특별시 강동구 아리수로94길 19 (강일동),서울특별시 강동구 강일동 684번지,37.56273512,127.177266,14348.0,17392.0,Y,공공시설,02-3425-5160,강동구청,2021-08-06,서울특별시,강동구
강일리버파크 9단지(전동 지하주차장),공공용,서울특별시 강동구 고덕로97길 29 (강일동),서울특별시 강동구 강일동 699번지,37.55835093,127.1778348,24645.0,29873.0,Y,공공시설,02-3425-5160,강동구청,2021-08-06,서울특별시,강동구
암사3동주민센터,공공용,서울특별시 강동구 고덕로 137 (암사동),서울특별시 강동구 암사동 414번지 19호,37.55499692,127.1407825,1542.0,1869.0,Y,공공시설,02-3425-5160,강동구청,2021-08-06,서울특별시,강동구
롯데캐슬(아)상가,공공용,서울특별시 강동구 고덕로 133 (암사동),서울특별시 강동구 암사동 414번지 18호,37.55525508,127.1403494,6536.0,7922.0,Y,공공시설,02-3425-5160,강동구청,2021-08-06,서울특별시,강동구
롯데캐슬(아)(전동 지하주차장),공공용,"서울특별시 강동구 고덕로 131 (암사동, 강동롯데캐슬퍼스트아파트)",서울특별시 강동구 암사동 414번지 2호,37.55516792,127.1438599,21200.0,25697.0,Y,공공시설,02-3425-5160,강동구청,2021-08-06,서울특별시,강동구
현대홈타운아파트(전동 지하주차장),공공용,"서울특별시 강동구 고덕로27길 36 (암사동, 강동현대홈타운)",서울특별시 강동구 암사동 400번지,37.55689011,127.1384405,13545.0,16418.0,Y,공공시설,02-3425-5160,강동구청,2021-08-06,서울특별시,강동구
한강현대아파트(전동 지하주차장),공공용,"서울특별시 강동구 올림픽로104길 41 (암사동, 한강현대아파트)",서울특별시 강동구 암사동 442번지 1호,37.55600897,127.1313089,8040.0,9745.0,Y,공공시설,02-3425-5160,강동구청,2021-08-06,서울특별시,강동구
한강포스파크아파트(전동 지하주차장),공공용,"서울특별시 강동구 고덕로19길 30 (암사동, 한강포스파크아파트)",서울특별시 강동구 암사동 445번지,37.5561744,127.133822,2240.0,2715.0,Y,공공시설,02-3425-5160,강동구청,2021-08-06,서울특별시,강동구
강일동복합청사,공공용,서울특별시 강동구 아리수로93길 9-14 (강일동),서울특별시 강동구 강일동 678번지,37.56503646,127.1739128,1056.0,1280.0,Y,공공시설,02-3425-5160,강동구청,2021-08-06,서울특별시,강동구
강일초등학교,공공용,서울특별시 강동구 아리수로98길 24 (강일동),서울특별시 강동구 강일동 685번지,37.56525695,127.1772119,481.0,583.0,Y,공공시설,02-3425-5160,강동구청,2021-08-06,서울특별시,강동구
온조대왕체육관,공공용,서울특별시 강동구 고덕로 285 (고덕동),서울특별시 강동구 고덕동 296번지,37.55672978,127.157457,2057.0,2493.0,Y,공공시설,02-3425-5160,강동구청,2021-08-06,서울특별시,강동구
강일리버파크1단지(전동 지하주차장),공공용,서울특별시 강동구 아리수로93가길 25 (강일동),서울특별시 강동구 강일동 665번지,37.56686794,127.1720248,8251.0,10001.0,Y,공공시설,02-3425-5160,강동구청,2021-08-06,서울특별시,강동구
강일리버파크2단지(전동 지하주차장),공공용,서울특별시 강동구 아리수로97길 68 (강일동),서울특별시 강동구 강일동 668번지,37.5687319,127.1766568,13046.0,15813.0,Y,공공시설,02-3425-5160,강동구청,2021-08-06,서울특별시,강동구
강일리버파크5단지(전동 지하주차장),공공용,서울특별시 강동구 아리수로97길 20 (강일동),서울특별시 강동구 강일동 670번지,37.56851697,127.1781421,21145.0,25630.0,Y,공공시설,02-3425-5160,강동구청,2021-08-06,서울특별시,강동구
강일리버파크7단지(전동 지하주차장),공공용,서울특별시 강동구 아리수로98길 25 (강일동),서울특별시 강동구 강일동 686번지,37.56527685,127.178337,22015.0,26684.0,Y,공공시설,02-3425-5160,강동구청,2021-08-06,서울특별시,강동구
강일리버파크8단지(전동 지하주차장),공공용,서울특별시 강동구 아리수로94길 72 (강일동),서울특별시 강동구 강일동 701번지,37.56071882,127.1762694,12316.0,14928.0,Y,공공시설,02-3425-5160,강동구청,2021-08-06,서울특별시,강동구
강일리버파크10단지(전동 지하주차장),공공용,서울특별시 강동구 고덕로97길 20 (강일동),서울특별시 강동구 강일동 695번지,37.55920393,127.1799986,20369.0,24689.0,Y,공공시설,02-3425-5160,강동구청,2021-08-06,서울특별시,강동구
명일1동 공영주차장,공공용,서울특별시 강동구 구천면로 395 (명일동),서울특별시 강동구 명일동 312번지 250호,37.55103871,127.1429102,6436.0,7801.0,Y,공공시설,02-3425-5160,강동구청,2021-08-06,서울특별시,강동구
동산빌딩,공공용,서울특별시 강동구 양재대로 1584 (명일동),서울특별시 강동구 명일동 345번지 24호,37.54700723,127.1436353,556.0,673.0,Y,공공시설,02-3425-5160,강동구청,2021-08-06,서울특별시,강동구
해공도서관,공공용,서울특별시 강동구 올림픽로 702 (천호동),서울특별시 강동구 천호동 360번지,37.54394767,127.1255384,601.0,728.0,Y,공공시설,02-3425-5160,강동구청,2021-08-06,서울특별시,강동구
쌍용플래티넘리버,공공용,서울특별시 강동구 올림픽로 659 (천호동),서울특별시 강동구 천호동 432번지 10호,37.54032674,127.1235648,5872.0,7117.0,Y,공공시설,02-3425-5160,강동구청,2021-08-06,서울특별시,강동구
대동피렌체리버,공공용,서울특별시 강동구 올림픽로 667 (천호동),서울특별시 강동구 천호동 442번지 34호,37.54113239,127.1239562,1830.0,2218.0,Y,공공시설,02-3425-5160,강동구청,2021-08-06,서울특별시,강동구
홈플러스,공공용,서울특별시 강동구 양재대로 1571 (천호동),서울특별시 강동구 천호동 42번지,37.54571775,127.1422581,26258.0,31827.0,Y,공공시설,02-3425-5160,강동구청,2021-08-06,서울특별시,강동구
강동그린타워,공공용,"서울특별시 강동구 천호대로 1139 (길동, 강동그린타워)",서울특별시 강동구 길동 459번지 3호,37.53459566,127.1381196,6736.0,8164.0,Y,공공시설,02-3425-5160,강동구청,2021-08-06,서울특별시,강동구
둔촌푸르지오아파트(전동지하),공공용,서울특별시 강동구 명일로 172 (둔촌동),서울특별시 강동구 둔촌동 630번지,37.53414152,127.1450721,3893.0,4718.0,Y,공공시설,02-3425-5160,강동구청,2021-08-06,서울특별시,강동구
한화오벨리스크,공공용,서울특별시 강동구 동남로 877 (명일동),서울특별시 강동구 명일동 48번지 17호,37.55201367,127.1558015,3195.0,3872.0,Y,공공시설,02-3425-5160,강동구청,2021-08-06,서울특별시,강동구
강동역SK허브,공공용,"서울특별시 강동구 천호대로 1107 (길동, 강동역에스케이허브)",서울특별시 강동구 길동 445번지 1호,37.53558001,127.1348442,5931.0,7189.0,Y,공공시설,02-3425-5160,강동구청,2021-08-06,서울특별시,강동구
암사1동공영주차장,공공용,서울특별시 강동구 고덕로28길 36 (암사동),서울특별시 강동구 암사동 59번지 2호,37.55270603,127.1379985,3791.0,4595.0,Y,공공시설,02-3425-5160,강동구청,2021-08-06,서울특별시,강동구
천호3동 공영주차장,공공용,"서울특별시 강동구 진황도로29길 34 (천호동, 천호동공영주차장)",서울특별시 강동구 천호동 167번지 195호,37.53912858,127.1332697,6460.0,7830.0,Y,공공시설,02-3425-5160,강동구청,2021-08-06,서울특별시,강동구
안말어린이공원 공영주차장,공공용,"서울특별시 강동구 풍성로45길 11 (성내동, 안말어린이공원 공영주차장)",서울특별시 강동구 성내동 512번지,37.53125579,127.1299211,5348.0,6482.0,Y,공공시설,02-3425-5160,강동구청,2021-08-06,서울특별시,강동구
명성교회 월드글로리아센터,공공용,"서울특별시 강동구 양재대로134길 52 (명일동, 명성교회문화집회시설)",서울특별시 강동구 명일동 340번지 1호,37.54739684,127.1464261,6998.0,8482.0,Y,공공시설,02-3425-5160,강동구청,2021-08-06,서울특별시,강동구
나비빌딩,공공용,서울특별시 강동구 천호대로157길 14 (천호동),서울특별시 강동구 천호동 453번지 19호,37.53822863,127.1272942,5992.0,7263.0,Y,공공시설,02-3425-5160,강동구청,2021-08-06,서울특별시,강동구
성내동삼성아파트(전동지하),공공용,"서울특별시 강동구 풍성로 128 (성내동, 성내동삼성아파트)",서울특별시 강동구 성내동 590번지,37.5299472,127.1259763,34241.0,41504.0,Y,공공시설,02-3425-5160,강동구청,2021-08-06,서울특별시,강동구
암사2동 청사(지하주차장),공공용,"서울특별시 강동구 상암로3길 28 (암사동, 암사2동주민센터)",서울특별시 강동구 암사동 503번지 8호,37.55170826,127.1272732,361.65,438.0,Y,공공시설,02-3425-5160,강동구청,2021-08-06,서울특별시,강동구
고덕리엔파크 1단지(전동 지하주차장),공공용,서울특별시 강동구 상일로 152 (강일동),서울특별시 강동구 강일동 707번지,37.5616364,127.171359,23226.0,28153.0,Y,공공시설,02-3425-5160,강동구청,2021-08-06,서울특별시,강동구
고덕리엔파크 2단지(전동 지하주차장),공공용,서울특별시 강동구 고덕로 427 (강일동),서울특별시 강동구 강일동 717번지,37.55879602,127.1731779,19477.0,23608.0,Y,공공시설,02-3425-5160,강동구청,2021-08-06,서울특별시,강동구
고덕리엔파크 3단지(전동 지하주차장),공공용,서울특별시 강동구 상일로 74 (강일동),서울특별시 강동구 강일동 490번지,37.55136837,127.1747855,77077.0,93427.0,Y,공공시설,02-3425-5160,강동구청,2021-08-06,서울특별시,강동구
삼성엔지니어링,공공용,서울특별시 강동구 상일로6길 26 (상일동),서울특별시 강동구 상일동 500번지,37.5488183,127.1753251,85439.57,103564.0,Y,공공시설,02-3425-5160,강동구청,2021-08-06,서울특별시,강동구
강동경희대학교 병원,공공용,"서울특별시 강동구 동남로 892 (상일동, 강동경희대학교병원)",서울특별시 강동구 상일동 149번지,37.5531671,127.1569651,17913.98,21714.0,Y,공공시설,02-3425-5160,강동구청,2021-08-06,서울특별시,강동구
서희스타힐스 빌딩,공공용,서울특별시 강동구 동남로 881 (명일동),서울특별시 강동구 명일동 48번지 7호,37.5522936,127.1557753,3217.0,3899.0,Y,공공시설,02-3425-5160,강동구청,2021-08-06,서울특별시,강동구
고덕1동 주민센터,공공용,"서울특별시 강동구 양재대로156길 123 (고덕동, 고덕제1동주민센터)",서울특별시 강동구 고덕동 494번지 5호,37.55728195,127.1515087,278.0,336.0,Y,공공시설,02-3425-5160,강동구청,2021-08-06,서울특별시,강동구
고덕아이파크(전동 지하주차장),공공용,"서울특별시 강동구 동남로79길 26 (고덕동, 고덕아이파크)",서울특별시 강동구 고덕동 499번지,37.55918114,127.1537396,76336.0,92528.0,Y,공공시설,02-3425-5160,강동구청,2021-08-06,서울특별시,강동구
한솔솔파크 더리버 아파트(전동 지하주차장),공공용,"서울특별시 강동구 선사로 120 (암사동, 한솔 솔파크 더 리버)",서울특별시 강동구 암사동 518번지,37.55023242,127.1238725,10789.52,13078.0,Y,공공시설,02-3425-5160,강동구청,2021-08-06,서울특별시,강동구
래미안힐스테이트 고덕(지하주차장),공공용,"서울특별시 강동구 아리수로50길 50 (고덕동, 래미안힐스테이트고덕)",서울특별시 강동구 고덕동 688번지,37.5576845,127.148601,261492.0,316960.0,Y,공공시설,02-3425-5160,강동구청,2021-08-06,서울특별시,강동구
강일리버파크11단지,공공용,"서울특별시 강동구 고덕로97길 100 (강일동, 강일리버파크11단지)",서울특별시 강동구 강일동 689번지,37.56264665,127.1800967,6905.32,8370.0,Y,공공시설,02-3425-5160,강동구청,2021-08-06,서울특별시,강동구
중앙보훈병원역,공공용,"서울특별시 강동구 동남로 지하 625 (둔촌동, 중앙보훈병원역)",서울특별시 강동구 둔촌동 8번지 1호,37.52889617,127.1485439,9105.0,11036.0,Y,공공시설,02-3425-5160,강동구청,2021-08-06,서울특별시,강동구
둔촌오륜역,공공용,"서울특별시 강동구 강동대로 지하 303 (둔촌동, 둔촌오륜역)",서울특별시 강동구 둔촌동 227번지 7호,37.51942409,127.1384296,7505.0,9096.0,Y,공공시설,02-3425-5160,강동구청,2021-08-06,서울특별시,강동구
벽산라이브파크A주차장P1(101),공공용,서울특별시 강북구 인수봉로 18(삼양동),,37.621691,127.012949,8164.0,9878.0,Y,주차장,02-901-6084,서울특별시 강북구청,2021-06-04,서울특별시,강북구
"벽산라이브파크A주차장P2(102,103,106)",공공용,서울특별시 강북구 인수봉로 18(삼양동),,37.621691,127.012949,10553.0,12769.0,Y,주차장,02-901-6084,서울특별시 강북구청,2021-06-04,서울특별시,강북구
"벽산라이브파크A주차장P3(104,105)",공공용,서울특별시 강북구 인수봉로 18(삼양동),,37.621691,127.012949,5341.0,6462.0,Y,주차장,02-901-6084,서울특별시 강북구청,2021-06-04,서울특별시,강북구
"벽산라이브파크A주차장P4(107,108)",공공용,서울특별시 강북구 인수봉로 18(삼양동),,37.621691,127.012949,6143.0,7433.0,Y,주차장,02-901-6084,서울특별시 강북구청,2021-06-04,서울특별시,강북구
"벽산라이브파크A주차장P5(109,110)",공공용,서울특별시 강북구 인수봉로 18(삼양동),,37.621691,127.012949,4852.0,5871.0,Y,주차장,02-901-6084,서울특별시 강북구청,2021-06-04,서울특별시,강북구
벽산라이브파크A주차장P6(111),공공용,서울특별시 강북구 인수봉로 18(삼양동),,37.621691,127.012949,2900.0,3508.0,Y,주차장,02-901-6084,서울특별시 강북구청,2021-06-04,서울특별시,강북구
"벽산라이브파크A주차장P7(112,113)",공공용,서울특별시 강북구 인수봉로 18(삼양동),,37.621691,127.012949,4822.0,5834.0,Y,주차장,02-901-6084,서울특별시 강북구청,2021-06-04,서울특별시,강북구
벽산라이브파크A주차장P8(114),공공용,서울특별시 강북구 인수봉로 18(삼양동),,37.621691,127.012949,9091.0,11000.0,Y,주차장,02-901-6084,서울특별시 강북구청,2021-06-04,서울특별시,강북구
"벽산라이브파크A주차장P9(115,116)",공공용,서울특별시 강북구 인수봉로 18(삼양동),,37.621691,127.012949,5372.0,6500.0,Y,주차장,02-901-6084,서울특별시 강북구청,2021-06-04,서울특별시,강북구
"벽산라이브파크A주차장P10(118,119)",공공용,서울특별시 강북구 인수봉로 18(삼양동),,37.621691,127.012949,5004.0,6055.0,Y,주차장,02-901-6084,서울특별시 강북구청,2021-06-04,서울특별시,강북구
"벽산라이브파크 임대A주차장(201,202)",공공용,서울특별시 강북구 인수봉로 18(삼양동),,37.621691,127.012949,12495.0,15118.0,Y,주차장,02-901-6084,서울특별시 강북구청,2021-06-04,서울특별시,강북구
경남아너스빌주차장,공공용,서울특별시 강북구 삼양로74길 8(삼양동),,37.62914266,127.0183522,4823.0,5835.0,Y,주차장,02-901-6084,서울특별시 강북구청,2021-06-04,서울특별시,강북구
삼성레미안주차장,공공용,서울특별시 강북구 삼양로 256(삼양동),,37.62628464,127.0188997,14438.0,17469.0,Y,주차장,02-901-6084,서울특별시 강북구청,2021-06-04,서울특별시,강북구
삼양동주민센터,공공용,서울특별시 강북구 삼양로 268(삼양동),,37.627341,127.018368,295.0,357.0,Y,주차장,02-901-6084,서울특별시 강북구청,2021-06-04,서울특별시,강북구
미아역,공공용,서울특별시 강북구 도봉로 200(미아동),,37.62652465,127.026445,2102.0,2543.0,Y,전철역,02-901-6084,서울특별시 강북구청,2021-06-04,서울특별시,강북구
운산빌딩,공공용,서울특별시 강북구 도봉로 260(미아동),,37.63170757,127.024417,350.0,423.0,Y,주차장,02-901-6084,서울특별시 강북구청,2021-06-04,서울특별시,강북구
삼성생명,공공용,서울특별시 강북구 도봉로 188(미아동),,37.62563801,127.026796,1150.0,1392.0,Y,주차장,02-901-6084,서울특별시 강북구청,2021-06-04,서울특별시,강북구
궁전회관,공공용,서울특별시 강북구 도봉로 222(미아동),,37.6286502429,127.025705,1299.0,1572.0,Y,주차장,02-901-6084,서울특별시 강북구청,2021-06-04,서울특별시,강북구
미아요진아파트,공공용,서울특별시 강북구 도봉로76길 56(미아동),,37.633680972,127.026601,3788.0,4583.0,Y,주차장,02-901-6084,서울특별시 강북구청,2021-06-04,서울특별시,강북구
현대아파트,공공용,서울특별시 강북구 도봉로68길 62(미아동),,37.631404,127.025951,3186.0,3855.0,Y,주차장,02-901-6084,서울특별시 강북구청,2021-06-04,서울특별시,강북구
신구아파트,공공용,서울특별시 강북구 오패산로60길 17-7(미아동),,37.626847,127.030497,5413.0,6549.0,Y,주차장,02-901-6084,서울특별시 강북구청,2021-06-04,서울특별시,강북구
미아동복합청사,공공용,서울특별시 강북구 솔매로49길 14(미아동),,37.62709036,127.0269751385,2712.0,3281.0,Y,주차장,02-901-6084,서울특별시 강북구청,2021-06-04,서울특별시,강북구
경남아너스빌아파트,공공용,서울특별시 강북구 오패산로30길 30(송중동),,37.61635549,127.035688,33400.0,40520.0,Y,주차장,02-901-6084,서울특별시 강북구청,2021-06-04,서울특별시,강북구
한일유엔아이아파트,공공용,서울특별시 강북구 월계로21가길 41(송중동),,37.61571366,127.036734,13652.0,16520.0,Y,주차장,02-901-6084,서울특별시 강북구청,2021-06-04,서울특별시,강북구
풍양빌딩,공공용,서울특별시 강북구 도봉로 136(송중동),,37.62107858,127.028623,3966.0,4798.0,Y,주차장,02-901-6084,서울특별시 강북구청,2021-06-04,서울특별시,강북구
무등양말빌딩,공공용,서울특별시 강북구 도봉로 132(송중동),,37.620768,127.0287077,429.0,519.0,Y,주차장,02-901-6084,서울특별시 강북구청,2021-06-04,서울특별시,강북구
미아사거리역,공공용,서울특별시 강북구 도봉로 48(송중동),,37.61329721,127.0303951667,7533.0,9114.0,Y,전철역,02-901-6084,서울특별시 강북구청,2021-06-04,서울특별시,강북구
송중동주민센터,공공용,서울특별시 강북구 오패산로 62(송중동),,,127.034791,99.0,120.0,Y,회의장,02-901-6084,서울특별시 강북구청,2021-06-04,서울특별시,강북구
성북교육지원청,공공용,서울특별시 강북구 솔매로50길 65(송중동),,37.62390774,127.0284054,1388.0,1679.0,Y,주차장,02-901-6084,서울특별시 강북구청,2021-06-04,서울특별시,강북구
롯데백화점미아점,공공용,서울특별시 강북구 도봉로 62(송중동),,37.614584,127.0305176783,8400.0,10164.0,Y,주차장,02-901-6084,서울특별시 강북구청,2021-06-04,서울특별시,강북구
트레지오,공공용,서울특별시 강북구 도봉로 34(송중동),,37.612081,127.0307204,5030.0,6086.0,Y,주차장,02-901-6084,서울특별시 강북구청,2021-06-04,서울특별시,강북구
꿈의 숲 롯데캐슬아파트,공공용,서울특별시 강북구 오현로 56(송중동),,37.618413,127.036477,30966.0,37534.0,Y,주차장,02-901-6084,서울특별시 강북구청,2021-06-04,서울특별시,강북구
꿈의숲 효성해링턴플레이스,공공용,서울특별시 강북구 오현로 45(송중동),,37.6169375235,127.0344606501,57526.0,69728.0,Y,주차장,02-901-6084,서울특별시 강북구청,2021-06-04,서울특별시,강북구
송천센트레빌아파트주차장,공공용,서울특별시 강북구 숭인로 39(송천동),,37.61275751,127.0266796,18075.0,21870.0,Y,주차장,02-901-6084,서울특별시 강북구청,2021-06-04,서울특별시,강북구
현대성우아파트,공공용,서울특별시 강북구 삼양로24길 19(송천동),,37.61745082,127.0219965,7540.0,9124.0,Y,주차장,02-901-6084,서울특별시 강북구청,2021-06-04,서울특별시,강북구
송천동주민센터,공공용,서울특별시 강북구 솔샘로 284(송천동),,37.618256,127.023845,285.0,343.0,Y,강좌실,02-901-6084,서울특별시 강북구청,2021-06-04,서울특별시,강북구
유유빌딩,공공용,서울특별시 강북구 삼양로 184(송천동),,37.62021158,127.021291,3140.0,3800.0,Y,주차장,02-901-6084,서울특별시 강북구청,2021-06-04,서울특별시,강북구
미아동부센트레빌아파트주차장,공공용,서울특별시 강북구 숭인로7가길 37(송천동),,37.61389646,127.0262224,9985.0,12081.0,Y,주차장,02-901-6084,서울특별시 강북구청,2021-06-04,서울특별시,강북구
두원프라자,공공용,서울특별시 강북구 도봉로 157(송천동),,37.62275841,127.027004,1818.0,2200.0,Y,주차장,02-901-6084,서울특별시 강북구청,2021-06-04,서울특별시,강북구
SK북한산시티아파트 2,공공용,서울특별시 강북구 솔샘로 174(삼각산동),,37.6176383628,127.010599691,11296.0,13600.0,Y,주차장,02-901-6084,서울특별시 강북구청,2021-06-04,서울특별시,강북구
SK북한산시티아파트 3,공공용,서울특별시 강북구 솔샘로 174(삼각산동),,37.6176383628,127.010599691,15407.0,18600.0,Y,주차장,02-901-6084,서울특별시 강북구청,2021-06-04,서울특별시,강북구
SK북한산시티아파트 4,공공용,서울특별시 강북구 솔샘로 174(삼각산동),,37.6176383628,127.010599691,25095.0,30300.0,Y,주차장,02-901-6084,서울특별시 강북구청,2021-06-04,서울특별시,강북구
SK북한산시티아파트 5,공공용,서울특별시 강북구 솔샘로 174(삼각산동),,37.6176383628,127.010599691,19503.0,23500.0,Y,주차장,02-901-6084,서울특별시 강북구청,2021-06-04,서울특별시,강북구
SK북한산시티아파트 8,공공용,서울특별시 강북구 솔샘로 174(삼각산동),,37.6176383628,127.010599691,10466.0,12600.0,Y,주차장,02-901-6084,서울특별시 강북구청,2021-06-04,서울특별시,강북구
SK북한산시티아파트(임대)10,공공용,서울특별시 강북구 솔샘로 174(삼각산동),,37.6176383628,127.010599691,3189.0,3800.0,Y,주차장,02-901-6084,서울특별시 강북구청,2021-06-04,서울특별시,강북구
SK북한산시티아파트(임대)11,공공용,서울특별시 강북구 솔샘로 174(삼각산동),,37.6176383628,127.010599691,4884.0,5900.0,Y,주차장,02-901-6084,서울특별시 강북구청,2021-06-04,서울특별시,강북구
삼각산아이원아파트(일반) 1,공공용,서울특별시 강북구 삼양로 19길 113(삼각산동),,37.61705511,127.017724,26514.0,32000.0,Y,주차장,02-901-6084,서울특별시 강북구청,2021-06-04,서울특별시,강북구
삼각산아이원아파트(일반) 2,공공용,서울특별시 강북구 삼양로19길 13(삼각산동),,37.614706,127.021253,21567.0,25000.0,Y,주차장,02-901-6084,서울특별시 강북구청,2021-06-04,서울특별시,강북구
삼각산아이원아파트(일반) 4,공공용,서울특별시 강북구 삼양로19길 13(삼각산동),,37.614706,127.021253,6304.0,7627.0,Y,주차장,02-901-6084,서울특별시 강북구청,2021-06-04,서울특별시,강북구
삼성래미안트리베라1차아파트 1,공공용,서울특별시 강북구 삼양로19길 25(삼각산동),,37.61569586,127.0211397,54097.0,65572.0,Y,주차장,02-901-6084,서울특별시 강북구청,2021-06-04,서울특별시,강북구
삼성래미안트리베라2차아파트,공공용,서울특별시 강북구 삼양로27길 19(삼각산동),,37.61612462,127.0217424,56628.0,68640.0,Y,주차장,02-901-6084,서울특별시 강북구청,2021-06-04,서울특별시,강북구
두산위브트레지움(101~216동),공공용,서울특별시 강북구 삼양로27길 95(삼각산동),,37.618353,127.015753,45034.0,54490.0,Y,주차장,02-901-6084,서울특별시 강북구청,2021-06-04,서울특별시,강북구
가든타워오피스텔주차장,공공용,서울특별시 강북구 도봉로 328(번동),,37.63712773,127.025196,40304.0,48768.0,Y,주차장,02-901-6084,서울특별시 강북구청,2021-06-04,서울특별시,강북구
교보생명빌딩,공공용,서울특별시 강북구 도봉로 348(번동),,37.63832034,127.026552,19834.0,24000.0,Y,주차장,02-901-6084,서울특별시 강북구청,2021-06-04,서울특별시,강북구
코스타타워빌딩,공공용,서울특별시 강북구 도봉로 358(번동),,37.63913462,127.027481,17216.0,21668.0,Y,주차장,02-901-6084,서울특별시 강북구청,2021-06-04,서울특별시,강북구
평강교회,공공용,서울특별시 강북구 한천로 995(번동),,37.63711218,127.030046,932.0,1128.0,Y,친목장소,02-901-6084,서울특별시 강북구청,2021-06-04,서울특별시,강북구
포르텔오피스텔,공공용,서울특별시 강북구 한천로 1003(번동),,37.637755,127.029459,1218.0,1474.0,Y,주차장,02-901-6084,서울특별시 강북구청,2021-06-04,서울특별시,강북구
파스칼진빌딩,공공용,서울특별시 강북구 덕릉로 113(번동),,37.6351345,127.026367,910.0,1101.0,Y,주차장,02-901-6084,서울특별시 강북구청,2021-06-04,서울특별시,강북구
수유역두산위브(A),공공용,서울특별시 강북구 덕릉로41길 12(번동),,37.63564124,127.032076,5612.0,6791.0,Y,주차장,02-901-6084,서울특별시 강북구청,2021-06-04,서울특별시,강북구
수유역두산위브(B),공공용,서울특별시 강북구 덕릉로41길 15(번동),,37.63565957,127.030925,3364.0,4071.0,Y,주차장,02-901-6084,서울특별시 강북구청,2021-06-04,서울특별시,강북구
쌍용아파트,공공용,서울특별시 강북구 한천로124나길 10(번동),,37.637977,127.032304,697.0,844.0,Y,주차장,02-901-6084,서울특별시 강북구청,2021-06-04,서울특별시,강북구
삼성아파트,공공용,서울특별시 강북구 도봉로98길 33(번동),,37.6413012911,127.0315029,2823.0,3416.0,Y,주차장,02-901-6084,서울특별시 강북구청,2021-06-04,서울특별시,강북구
렛츠런 문화공감센터 강북,공공용,서울특별시 강북구 도봉로 302(번동),,37.635341,127.0237012,4960.0,6012.0,Y,주차장,02-901-6084,서울특별시 강북구청,2021-06-04,서울특별시,강북구
수송초등학교,공공용,서울특별시 강북구 한천로 124길 14(번동),,37.63732397,127.033231,30965.0,37533.0,Y,주차장,02-901-6084,서울특별시 강북구청,2021-06-04,서울특별시,강북구
금호어울림아파트,공공용,서울특별시 강북구 오현로31길 85-7(번동),,37.63067756,127.0357308,9850.0,11919.0,Y,주차장,02-901-6084,서울특별시 강북구청,2021-06-04,서울특별시,강북구
오동공원현대홈타운아파트,공공용,서울특별시 강북구 오현로31길 89(번동),,37.63171914,127.035501,11785.0,14260.0,Y,주차장,02-901-6084,서울특별시 강북구청,2021-06-04,서울특별시,강북구
보건소지하주차장,공공용,서울특별시 강북구 한천로 897(번동),,37.63188022,127.0390621,429.0,520.0,Y,주차장,02-901-6084,서울특별시 강북구청,2021-06-04,서울특별시,강북구
강북문화정보센터,공공용,서울특별시 강북구 오현로 145(번동),,37.62511656,127.0360796688,1125.0,1360.0,Y,지하식당,02-901-6084,서울특별시 강북구청,2021-06-04,서울특별시,강북구
기산그린아파트,공공용,서울특별시 강북구 월계로37길 137(번동),,37.627172,127.043437,2744.0,3320.0,Y,주차장,02-901-6084,서울특별시 강북구청,2021-06-04,서울특별시,강북구
동문아파트,공공용,서울특별시 강북구 오현로 128(번동),,37.62410326,127.0379751,6281.0,7599.0,Y,주차장,02-901-6084,서울특별시 강북구청,2021-06-04,서울특별시,강북구
한양아파트,공공용,서울특별시 강북구 한천로109길 69(번동),,37.626812,127.041425,5256.0,6360.0,Y,주차장,02-901-6084,서울특별시 강북구청,2021-06-04,서울특별시,강북구
신원아파트,공공용,서울특별시 강북구 월계로37길 87-5(번동),,37.625757,127.0438189187,2975.0,3599.0,Y,주차장,02-901-6084,서울특별시 강북구청,2021-06-04,서울특별시,강북구
해모로아파트,공공용,서울특별시 강북구 오현로 156(번동),,37.62627318,127.0369023,6612.0,8000.0,Y,주차장,02-901-6084,서울특별시 강북구청,2021-06-04,서울특별시,강북구
솔그린아파트,공공용,서울특별시 강북구 한천로109길 83(번동),,37.626662,127.039218,6612.0,8000.0,Y,주차장,02-901-6084,서울특별시 강북구청,2021-06-04,서울특별시,강북구
이테크벨리오피스텔,공공용,서울특별시 강북구 도봉로77길 6(수유동),,37.633766,127.0228034,2049.0,2480.0,Y,주차장,02-901-6084,서울특별시 강북구청,2021-06-04,서울특별시,강북구
삼호아파트,공공용,서울특별시 강북구 도봉로 261(수유동),,37.631681,127.023477,2644.0,3199.0,Y,주차장,02-901-6084,서울특별시 강북구청,2021-06-04,서울특별시,강북구
수유일공원지하주차장,공공용,서울특별시 강북구 삼양로79길 5(수유동),,37.630658,127.0174444341,2412.0,2923.0,Y,주차장,02-901-6084,서울특별시 강북구청,2021-06-04,서울특별시,강북구
대림쇼핑아파트,공공용,서울특별시 강북구 도봉로71가길 11(수유동),,37.631788,127.022184,1322.0,1660.0,Y,주차장,02-901-6084,서울특별시 강북구청,2021-06-04,서울특별시,강북구
SH 스카이,공공용,서울특별시 강북구 인수봉로23가길 3(수유동),,37.62770912,127.011828,661.0,800.0,Y,주차장,02-901-6084,서울특별시 강북구청,2021-06-04,서울특별시,강북구
수유1동주민센터 지하주차장,공공용,서울특별시 강북구 삼양로 299(수유동),,37.6300516039,127.0175593906,298.0,300.0,Y,주차장,02-901-6084,서울특별시 강북구청,2021-06-04,서울특별시,강북구
제네스타워빌딩,공공용,서울특별시 강북구 덕릉로 82(수유동),,37.63442526,127.0228444,2831.0,3425.0,Y,주차장,02-901-6084,서울특별시 강북구청,2021-06-04,서울특별시,강북구
벽산아파트,공공용,서울특별시 강북구 삼각산로 143-1(수유동),,37.642657,127.019638,15292.0,18503.0,Y,주차장,02-901-6084,서울특별시 강북구청,2021-06-04,서울특별시,강북구
현대아파트,공공용,서울특별시 강북구 한천로 1131(수유동),,37.64543603,127.0186236,661.0,800.0,Y,주차장,02-901-6084,서울특별시 강북구청,2021-06-04,서울특별시,강북구
래미안수유아파트,공공용,서울특별시 강북구 한천로159길 8(수유동),,37.644456,127.018655,3966.0,4800.0,Y,주차장,02-901-6084,서울특별시 강북구청,2021-06-04,서울특별시,강북구
수유2동주민센터,공공용,서울특별시 강북구 한천로 1117(수유동),,37.644653,127.019886,165.0,200.0,Y,주차장,02-901-6084,서울특별시 강북구청,2021-06-04,서울특별시,강북구
래미안 수유아파트 107동,공공용,서울특별시 강북구 한천로159길 8(수유동),,37.644456,127.018655,2322.0,2809.0,Y,주차장,02-901-6084,서울특별시 강북구청,2021-06-04,서울특별시,강북구
벽산아파트 201동,공공용,서울특별시 강북구 삼각산로143-1(수유동),,37.642657,127.019638,1233.0,1491.0,Y,주차장,02-901-6084,서울특별시 강북구청,2021-06-04,서울특별시,강북구
강북구청지하실,공공용,서울특별시 강북구 도봉로89길 13(수유동),,37.63918553,127.0254518,1487.0,1800.0,Y,직원식당,02-901-6084,서울특별시 강북구청,2021-06-04,서울특별시,강북구
수유역,공공용,서울특별시 강북구 도봉로 지하 338(수유동),,37.637743,127.025347,3795.0,4592.0,Y,전철역,02-901-6084,서울특별시 강북구청,2021-06-04,서울특별시,강북구
효성인텔리언빌딩 주차장,공공용,서울특별시 강북구 도봉로 313(수유동),,37.63643974,127.0234619207,3305.0,4000.0,Y,주차장,02-901-6084,서울특별시 강북구청,2021-06-04,서울특별시,강북구
현대크리스탈빌딩주차장,공공용,서울특별시 강북구 노해로8길 29(수유동),,37.63852627,127.024204,661.0,661.0,Y,주차장,02-901-6084,서울특별시 강북구청,2021-06-04,서울특별시,강북구
성실교회,공공용,서울특별시 강북구 노해로 50(수유동),,37.63984196,127.022904,1322.0,1600.0,Y,주차장,02-901-6084,서울특별시 강북구청,2021-06-04,서울특별시,강북구
포엠빌아파트,공공용,서울특별시 강북구 한천로139가길 26(수유동),,37.64052986,127.025163,454.0,550.0,Y,주차장,02-901-6084,서울특별시 강북구청,2021-06-04,서울특별시,강북구
우리들병원,공공용,서울특별시 강북구 한천로 1083(수유동),,37.64254497,127.022621,1905.0,2305.0,Y,주차장,02-901-6084,서울특별시 강북구청,2021-06-04,서울특별시,강북구
우림빌딩,공공용,서울특별시 강북구 노해로 70(수유동),,37.64183139,127.022665,402.0,487.0,Y,주차장,02-901-6084,서울특별시 강북구청,2021-06-04,서울특별시,강북구
우암센스뷰,공공용,서울특별시 강북구 노해로8길 16(수유동),,37.63780192,127.0240101,1748.0,2115.0,Y,주차장,02-901-6084,서울특별시 강북구청,2021-06-04,서울특별시,강북구
경남아너스빌,공공용,서울특별시 강북구 노해로8길 22(수유동),,37.63800369,127.0242232,4935.0,5971.0,Y,주차장,02-901-6084,서울특별시 강북구청,2021-06-04,서울특별시,강북구
형인휴아름아파트,공공용,서울특별시 강북구 수유로23길 48(수유동),,37.63837169,127.0222383,868.0,1050.0,Y,주차장,02-901-6084,서울특별시 강북구청,2021-06-04,서울특별시,강북구
우이동주민센터,공공용,서울특별시 강북구 삼양로139길 49(수유동),,37.647938,127.0118707,254.0,308.0,Y,주차장,02-901-6084,서울특별시 강북구청,2021-06-04,서울특별시,강북구
성원그린아파트,공공용,서울특별시 강북구 삼양로139가길 63(우이동),,37.651894,127.011346,1553.0,1879.0,Y,주차장,02-901-6084,서울특별시 강북구청,2021-06-04,서울특별시,강북구
푸르지오아파트,공공용,서울특별시 강북구 삼양로149길 33(우이동),,37.654564,127.011154,8925.0,10800.0,Y,주차장,02-901-6084,서울특별시 강북구청,2021-06-04,서울특별시,강북구
강북청소년수련원,공공용,서울특별시 강북구 4.19로 74(수유동),,37.6459890891,127.0064057877,1996.0,2415.0,Y,체육관,02-901-6084,서울특별시 강북구청,2021-06-04,서울특별시,강북구
우이제일교회,공공용,서울특별시 강북구 삼양로163길 63(우이동),,37.65931935,127.010739,433.0,524.0,Y,기도실,02-901-6084,서울특별시 강북구청,2021-06-04,서울특별시,강북구
국립재활원,공공용,서울특별시 강북구 삼각산로 58(수유동),,37.63865444,127.0102649,2502.0,3028.0,Y,직원식당,02-901-6084,서울특별시 강북구청,2021-06-04,서울특별시,강북구
대한병원,공공용,서울특별시 강북구 도봉로 301(수유동),,37.635414,127.022671,396.0,480.0,Y,주차장,02-901-6084,서울특별시 강북구청,2021-06-04,서울특별시,강북구
인수동주민센터,공공용,서울특별시 강북구 인수봉로 255(수유동),,37.641494,127.010583,231.0,280.0,Y,주차장,02-901-6084,서울특별시 강북구청,2021-06-04,서울특별시,강북구
통일교육원,공공용,서울특별시 강북구 4.19로 123(수유동),,37.642143,127.0026584694,1606.0,1944.0,Y,회의장,02-901-6084,서울특별시 강북구청,2021-06-04,서울특별시,강북구
강북문화예술회관,공공용,서울특별시 강북구 삼각산로 85(수유동),,37.64098943,127.0138774,3173.0,3839.0,Y,주차장,02-901-6084,서울특별시 강북구청,2021-06-04,서울특별시,강북구
강북구 육아종합지원센터,공공용,서울특별시 강북구 인수봉로66길 9(수유동),,37.64047781,127.0125765,969.0,1175.0,Y,주차장,02-901-6084,서울특별시 강북구청,2021-06-04,서울특별시,강북구
강서보건소,공공용,"서울특별시 강서구 공항대로 561 (염창동, 강서보건소)",서울특별시 강서구 염창동 275-12,37.54964994,126.868281,765.0,927.0,Y,,02-2600-6990,서울특별시 강서구청,2021-03-22,서울특별시,강서구
삼성하나로아파트(지하주차장),공공용,"서울특별시 강서구 양천로73길 5 (염창동, 삼성하나로아파트)",서울특별시 강서구 염창동 248-3,37.55189518,126.8715136,2966.0,3595.0,Y,,02-2600-6990,서울특별시 강서구청,2021-03-22,서울특별시,강서구
관음삼성아파트(지하주차장),공공용,"서울특별시 강서구 양천로 656 (염창동, 삼성관음아파트)",서울특별시 강서구 염창동 268,37.55273626,126.8694616,6066.0,7353.0,Y,,02-2600-6990,서울특별시 강서구청,2021-03-22,서울특별시,강서구
태진한솔아파트(지하주차장),공공용,"서울특별시 강서구 공항대로71길 54 (염창동, 태진한솔아파트)",서울특별시 강서구 염창동 263-2,37.549084,126.8745196,2180.0,2642.0,Y,,02-2600-6990,서울특별시 강서구청,2021-03-22,서울특별시,강서구
한마음삼성아파트(지하주차장),공공용,"서울특별시 강서구 양천로 637 (염창동, 한마음삼성아파트)",서울특별시 강서구 염창동 244-2,37.554497,126.8685894,5592.0,6778.0,Y,,02-2600-6990,서울특별시 강서구청,2021-03-22,서울특별시,강서구
신동아아파트(지하주차장),공공용,"서울특별시 강서구 양천로67길 32 (염창동, 신동아아파트)",서울특별시 강서구 염창동 289,37.55511784,126.8688644,3024.0,3665.0,Y,,02-2600-6990,서울특별시 강서구청,2021-03-22,서울특별시,강서구
벽산늘푸른아파트(지하주차장),공공용,"서울특별시 강서구 양천로63길 52 (염창동, 벽산늘푸른아파트)",서울특별시 강서구 염창동 290,37.5579223,126.8661523,4899.0,5938.0,Y,,02-2600-6990,서울특별시 강서구청,2021-03-22,서울특별시,강서구
염창역,공공용,"서울특별시 강서구 공항대로 지하 631 (염창동, 염창역 9호선)",서울특별시 강서구 염창동 284-84,37.54705876,126.8750027,5800.0,7030.0,Y,,02-2600-6990,서울특별시 강서구청,2021-03-22,서울특별시,강서구
동아3차아파트(지하주차장),공공용,"서울특별시 강서구 양천로 731 (염창동, 동아3차아파트)",서울특별시 강서구 염창동 258-1,37.55025081,126.8773965,2257.0,2736.0,Y,,02-2600-6990,서울특별시 강서구청,2021-03-22,서울특별시,강서구
강변한솔솔파크(지하주차장),공공용,"서울특별시 강서구 양천로63길 38 (염창동, 강변한솔솔파크)",서울특별시 강서구 염창동 300,37.5570102,126.8658913,1802.0,2184.0,Y,,02-2600-6990,서울특별시 강서구청,2021-03-22,서울특별시,강서구
강변힐스테이트(지하주차장),공공용,"서울특별시 강서구 양천로75길 19 (염창동, 강변힐스테이트아파트)",서울특별시 강서구 염창동 299,37.55181144,126.8740714,1651.0,2002.0,Y,,02-2600-6990,서울특별시 강서구청,2021-03-22,서울특별시,강서구
대동황토방1차아파트(지하주차장),공공용,"서울특별시 강서구 공항대로59길 103 (등촌동, 대동황토방아파트)",서울특별시 강서구 등촌동 631-9,37.55595008,126.8622898,954.0,1157.0,Y,,02-2600-6990,서울특별시 강서구청,2021-03-22,서울특별시,강서구
코오롱하늘채아파트(지하주차장),공공용,서울특별시 강서구 공항대로55길 19 (등촌동),서울특별시 강서구 등촌동 714,37.55489252,126.8609291,4236.0,5135.0,Y,,02-2600-6990,서울특별시 강서구청,2021-03-22,서울특별시,강서구
코오롱1차아파트(지하주차장),공공용,"서울특별시 강서구 화곡로66길 90 (등촌동, 등촌동코오롱아파트)",서울특별시 강서구 등촌동 642,37.5560138,126.8582652,7845.0,9509.0,Y,,02-2600-6990,서울특별시 강서구청,2021-03-22,서울특별시,강서구
지하철9호선 증미역,공공용,"서울특별시 강서구 양천로 지하 560 (등촌동, 증미역 9호선)",서울특별시 강서구 등촌동 666-40,37.55771842,126.8612453,7025.0,8515.0,Y,,02-2600-6990,서울특별시 강서구청,2021-03-22,서울특별시,강서구
지하철9호선 등촌역,공공용,서울특별시 강서구 공항대로 521 (등촌동),서울특별시 강서구 등촌동 648-10,37.55156648,126.8644073,7025.0,8515.0,Y,,02-2600-6990,서울특별시 강서구청,2021-03-22,서울특별시,강서구
등촌아이파크아파트(지하주차장),공공용,서울특별시 강서구 등촌로 163,서울특별시 강서구 등촌동 715,37.54473004,126.8615907,6546.0,7934.0,Y,,02-2600-6990,서울특별시 강서구청,2021-03-22,서울특별시,강서구
강서구의회(지하주차장),공공용,서울특별시 강서구 등촌로 185 (등촌동),서울특별시 강서구 등촌동 512-1,37.546403,126.8623027,1329.0,1611.0,Y,,02-2600-6990,서울특별시 강서구청,2021-03-22,서울특별시,강서구
대림아파트(지하주차장),공공용,"서울특별시 강서구 등촌로 137 (등촌동, 대림아파트)",서울특별시 강서구 등촌동 561-1,37.5419129,126.8626053,5495.0,6661.0,Y,,02-2600-6990,서울특별시 강서구청,2021-03-22,서울특별시,강서구
그린임광아파트(지하주차장),공공용,서울특별시 강서구 등촌로 113 (등촌동),서울특별시 강서구 등촌동 562-5,37.54045068,126.863431,7326.0,8880.0,Y,,02-2600-6990,서울특별시 강서구청,2021-03-22,서울특별시,강서구
등촌주공3단지아파트(지하주차장),공공용,"서울특별시 강서구 강서로56나길 37 (등촌동, 등촌3단지주공아파트)",서울특별시 강서구 등촌동 688,37.561084,126.8408211,5065.0,6139.0,Y,,02-2600-6990,서울특별시 강서구청,2021-03-22,서울특별시,강서구
등촌주공5단지아파트(지하주차장),공공용,"서울특별시 강서구 공항대로39길 74 (등촌동, 등촌5단지주공아파트)",서울특별시 강서구 등촌동 695,37.56121882,126.8446373,5140.0,6230.0,Y,,02-2600-6990,서울특별시 강서구청,2021-03-22,서울특별시,강서구
등촌주공6단지아파트(지하주차장),공공용,"서울특별시 강서구 화곡로63가길 18 (등촌동, 등촌6단지주공아파트)",서울특별시 강서구 등촌동 705,37.56000558,126.8484064,2246.0,2722.0,Y,,02-2600-6990,서울특별시 강서구청,2021-03-22,서울특별시,강서구
등촌주공10단지아파트(지하주차장),공공용,"서울특별시 강서구 화곡로63가길 71 (등촌동, 등촌10단지주공아파트)",서울특별시 강서구 등촌동 702,37.56296131,126.8487671,2752.0,3336.0,Y,,02-2600-6990,서울특별시 강서구청,2021-03-22,서울특별시,강서구
동성아파트(지하주차장),공공용,"서울특별시 강서구 강서로68길 108 (등촌동, 동성아파트)",서울특별시 강서구 등촌동 687,37.56466563,126.8457031,1810.0,2194.0,Y,,02-2600-6990,서울특별시 강서구청,2021-03-22,서울특별시,강서구
등촌대림아파트(지하주차장),공공용,"서울특별시 강서구 공항대로39길 100 (등촌동, 대림아파트)",서울특별시 강서구 등촌동 694,37.56361546,126.847394,879.0,1066.0,Y,,02-2600-6990,서울특별시 강서구청,2021-03-22,서울특별시,강서구
미주진로아파트(지하주차장),공공용,"서울특별시 강서구 공항대로 351-21 (등촌동, 미주진로아파트)",서울특별시 강서구 등촌동 701,37.56059922,126.8476175,6888.0,8349.0,Y,,02-2600-6990,서울특별시 강서구청,2021-03-22,서울특별시,강서구
부영아파트(지하주차장),공공용,"서울특별시 강서구 강서로56나길 110 (등촌동, 부영아파트)",서울특별시 강서구 등촌동 691-3,37.56351579,126.8428396,2820.0,3418.0,Y,,02-2600-6990,서울특별시 강서구청,2021-03-22,서울특별시,강서구
등촌주공11단지아파트(지하주차장),공공용,"서울특별시 강서구 공항대로43길 39 (등촌동, 등촌주공아파트11단지)",서울특별시 강서구 등촌동 705-6,37.55925382,126.8495578,5719.0,6932.0,Y,,02-2600-6990,서울특별시 강서구청,2021-03-22,서울특별시,강서구
한국해운조합,공공용,"서울특별시 강서구 공항대로 379 (등촌동, 한국해운조합)",서울특별시 강서구 등촌동 660-10,37.557021,126.849872,1877.0,2275.0,Y,,02-2600-6990,서울특별시 강서구청,2021-03-22,서울특별시,강서구
올림픽체육센터,공공용,"서울특별시 강서구 화곡로65길 62 (등촌동, 강서구민올림픽체육센터)",서울특별시 강서구 등촌동 707-3,37.559633,126.8505847,5580.0,6764.0,Y,,02-2600-6990,서울특별시 강서구청,2021-03-22,서울특별시,강서구
화곡역,공공용,"서울특별시 강서구 화곡로 지하 168 (화곡동, 화곡역5호선)",서울특별시 강서구 화곡동 1089-54,37.54143461,126.8404962,9126.0,11062.0,Y,,02-2600-6990,서울특별시 강서구청,2021-03-22,서울특별시,강서구
화일초등학교(화일주차장),공공용,"서울특별시 강서구 까치산로10길 70 (화곡동, 서울화일초등학교)",서울특별시 강서구 화곡동 16-184,37.54071221,126.847486,6709.0,8132.0,Y,,02-2600-6990,서울특별시 강서구청,2021-03-22,서울특별시,강서구
화곡본동천주교회(지하주차장),공공용,"서울특별시 강서구 까치산로2길 43 (화곡동, 화곡본동천주교회)",서울특별시 강서구 화곡동 105-244,37.53933048,126.8436417,2953.0,3579.0,Y,,02-2600-6990,서울특별시 강서구청,2021-03-22,서울특별시,강서구
화성교회(지하주차장),공공용,"서울특별시 강서구 까치산로 66 (화곡동, 화성교회)",서울특별시 강서구 화곡본동 46-228,37.54466148,126.8469212,1350.0,1636.0,Y,,02-2600-6990,서울특별시 강서구청,2021-03-22,서울특별시,강서구
볏골공원(지하주차장),공공용,"서울특별시 강서구 까치산로4길 22 (화곡동, 볏골공원 지하주차장)",서울특별시 강서구 화곡본동 98-99,37.54181453,126.8443245,6893.0,8355.0,Y,,02-2600-6990,서울특별시 강서구청,2021-03-22,서울특별시,강서구
나누리병원(지하주차장),공공용,"서울특별시 강서구 가로공원로 187 (화곡동, 나누리강서병원)",서울특별시 강서구 화곡동 377-8,37.5373569,126.836636,505.0,612.0,Y,,02-2600-6990,서울특별시 강서구청,2021-03-22,서울특별시,강서구
까치산역,공공용,"서울특별시 강서구 강서로 지하 54 (화곡동, 까치산역)",서울특별시 강서구 화곡동 662-5,37.531991,126.8466123,9117.0,11051.0,Y,,02-2600-6990,서울특별시 강서구청,2021-03-22,서울특별시,강서구
원흥타운(지하주차장),공공용,"서울특별시 강서구 화곡로18길 30-11 (화곡동, 원흥타운)",서울특별시 강서구 화곡동 1087-5,37.538523,126.8354785,860.0,1042.0,Y,,02-2600-6990,서울특별시 강서구청,2021-03-22,서울특별시,강서구
해태아파트(지하주차장),공공용,"서울특별시 강서구 강서로7길 28 (화곡동, 해태아파트)",서울특별시 강서구 공항동 2-1,37.52976158,126.8461778,7428.0,9004.0,Y,,02-2600-6990,서울특별시 강서구청,2021-03-22,서울특별시,강서구
화곡대림아파트(지하주차장),공공용,"서울특별시 강서구 월정로 160 (화곡동, 화곡대림아파트)",서울특별시 강서구 화곡동 361-1,37.53402076,126.8375387,3653.0,4428.0,Y,,02-2600-6990,서울특별시 강서구청,2021-03-22,서울특별시,강서구
유림노르웨이숲(지하주차장),공공용,"서울특별시 강서구 곰달래로 96 (화곡동, 유림노르웨이숲)",서울특별시 강서구 화곡동 919-1,37.530029,126.8434664,8222.0,9965.0,Y,,02-2600-6990,서울특별시 강서구청,2021-03-22,서울특별시,강서구
성석교회,공공용,"서울특별시 강서구 곰달래로47길 18 (화곡동, 성석교회)",서울특별시 강서구 화곡동 836-13,37.53224798,126.8573734,3889.0,4714.0,Y,,02-2600-6990,서울특별시 강서구청,2021-03-22,서울특별시,강서구
정일빌딩(지하주차장),공공용,"서울특별시 강서구 곰달래로 170 (화곡동, 정일빌딩)",서울특별시 강서구 화곡동 873-13,37.5307383,126.8518416,311.0,377.0,Y,,02-2600-6990,서울특별시 강서구청,2021-03-22,서울특별시,강서구
화곡2동성당,공공용,"서울특별시 강서구 곰달래로32길 19 (화곡동, 화곡2동천주교회)",서울특별시 강서구 화곡동 883-9,37.53020322,126.853341,393.0,477.0,Y,,02-2600-6990,서울특별시 강서구청,2021-03-22,서울특별시,강서구
성석교회교육관(지하주차장),공공용,"서울특별시 강서구 곰달래로31가길 101 (화곡동, 성석교회교육관)",서울특별시 강서구 화곡동 836-14,37.53273761,126.856947,615.0,745.0,Y,,02-2600-6990,서울특별시 강서구청,2021-03-22,서울특별시,강서구
은창아파트(지하주차장),공공용,"서울특별시 강서구 국회대로7길 157 (화곡동, 은창아파트)",서울특별시 강서구 화곡동 1143,37.528914,126.8521303,780.0,946.0,Y,,02-2600-6990,서울특별시 강서구청,2021-03-22,서울특별시,강서구
율창아파트(지하주차장),공공용,"서울특별시 강서구 국회대로7길 123 (화곡동, 율창아파트)",서울특별시 강서구 화곡동 885-1,37.52915883,126.8539988,645.0,781.0,Y,,02-2600-6990,서울특별시 강서구청,2021-03-22,서울특별시,강서구
곰달래아파트(지하주차장),공공용,"서울특별시 강서구 국회대로7길 53 (화곡동, 곰달래아파트)",서울특별시 강서구 화곡동 1137,37.529664,126.858095,826.0,1002.0,Y,,02-2600-6990,서울특별시 강서구청,2021-03-22,서울특별시,강서구
신도금잔디아파트(지하주차장),공공용,"서울특별시 강서구 국회대로7길 91 (화곡동, 신도금잔디아파트)",서울특별시 강서구 화곡동 1138,37.52940609,126.8557813,1322.0,1603.0,Y,,02-2600-6990,서울특별시 강서구청,2021-03-22,서울특별시,강서구
예다움아파트(지하주차장),공공용,"서울특별시 강서구 등촌로13자길 79 (화곡동, 예다움아파트)",서울특별시 강서구 화곡동 461-4,37.536751,126.853939,2023.0,2452.0,Y,,02-2600-6990,서울특별시 강서구청,2021-03-22,서울특별시,강서구
화곡푸르지오(101~111동 지하주차장),공공용,"서울특별시 강서구 화곡로13길 107 (화곡동, 화곡푸르지오)",서울특별시 강서구 화곡동 1091,37.54724363,126.8322457,8617.0,10445.0,Y,,02-2600-6990,서울특별시 강서구청,2021-03-22,서울특별시,강서구
화곡푸르지오(112~115동 지하주차장),공공용,"서울특별시 강서구 화곡로13길 107 (화곡동, 화곡푸르지오)",서울특별시 강서구 화곡동 1091,37.54724363,126.8322457,8514.0,10320.0,Y,,02-2600-6990,서울특별시 강서구청,2021-03-22,서울특별시,강서구
화곡푸르지오(116~120동 지하주차장),공공용,"서울특별시 강서구 화곡로13길 107 (화곡동, 화곡푸르지오)",서울특별시 강서구 화곡동 1091,37.54724363,126.8322457,8617.0,10445.0,Y,,02-2600-6990,서울특별시 강서구청,2021-03-22,서울특별시,강서구
화곡푸르지오(121~128동 지하주차장),공공용,"서울특별시 강서구 화곡로13길 107 (화곡동, 화곡푸르지오)",서울특별시 강서구 화곡동 1091,37.547201,126.8322457,8617.0,10445.0,Y,,02-2600-6990,서울특별시 강서구청,2021-03-22,서울특별시,강서구
화곡푸르지오(129~131동 지하주차장),공공용,"서울특별시 강서구 화곡로13길 107 (화곡동, 화곡푸르지오)",서울특별시 강서구 화곡동 1091,37.54724363,126.832278,8617.0,10445.0,Y,,02-2600-6990,서울특별시 강서구청,2021-03-22,서울특별시,강서구
화곡푸르지오(132~143동 지하주차장),공공용,"서울특별시 강서구 화곡로13길 107 (화곡동, 화곡푸르지오)",서울특별시 강서구 화곡동 1091,37.54724363,126.8322457,8617.0,10445.0,Y,,02-2600-6990,서울특별시 강서구청,2021-03-22,서울특별시,강서구
화곡푸르지오(144~150동 지하주차장),공공용,"서울특별시 강서구 화곡로13길 107 (화곡동, 화곡푸르지오)",서울특별시 강서구 화곡동 1091,37.54724363,126.8322457,8617.0,10445.0,Y,,02-2600-6990,서울특별시 강서구청,2021-03-22,서울특별시,강서구
희훈리치파크아파트(지하주차장),공공용,"서울특별시 강서구 강서로45다길 30-17 (화곡동,희훈리치파크아파트)",서울특별시 강서구 화곡3동 1011-6,37.54653687,126.8345331,3301.0,4001.0,Y,,02-2600-6990,서울특별시 강서구청,2021-03-22,서울특별시,강서구
태영방송인아파트(지하주차장),공공용,"서울특별시 강서구 등촌로13자길 74 (화곡동, 태영방송인아파트)",서울특별시 강서구 화곡동 1140,37.5375877,126.8532809,8228.0,9973.0,Y,,02-2600-6990,서울특별시 강서구청,2021-03-22,서울특별시,강서구
성삼하이츠아파트(지하주차장),공공용,"서울특별시 강서구 곰달래로59길 36 (화곡동, 성삼하이츠아파트)",서울특별시 강서구 화곡동 1142,37.534018,126.863057,942.0,1141.0,Y,,02-2600-6990,서울특별시 강서구청,2021-03-22,서울특별시,강서구
보람쉬움아파트(지하주차장),공공용,"서울특별시 강서구 등촌로13바길 18-11 (화곡동, 화곡3차보람쉬움아파트)",서울특별시 강서구 화곡동 1150,37.53677878,126.857882,2287.0,2773.0,Y,,02-2600-6990,서울특별시 강서구청,2021-03-22,서울특별시,강서구
금화아파트(지하주차장),공공용,"서울특별시 강서구 곰달래로57길 7 (화곡동, 금화아파트)",서울특별시 강서구 화곡동 797-1,37.5325414,126.861674,422.0,512.0,Y,,02-2600-6990,서울특별시 강서구청,2021-03-22,서울특별시,강서구
명지해드는터아파트(지하주차장),공공용,"서울특별시 강서구 등촌로13아길 44 (화곡동, 명지해드는터)",서울특별시 강서구 화곡동 473-4,37.53694277,126.856318,3035.0,3679.0,Y,,02-2600-6990,서울특별시 강서구청,2021-03-22,서울특별시,강서구
화곡4동주민센터(지하주차장),공공용,"서울특별시 강서구 곰달래로57가길 26 (화곡동, 시립청소년수련관및화곡4동주민자치센터)",서울특별시 강서구 화곡동 809-1,37.53468478,126.8608037,1499.0,1817.0,Y,,02-2600-6990,서울특별시 강서구청,2021-03-22,서울특별시,강서구
강서구청(지하상황실),공공용,"서울특별시 강서구 화곡로 302 (화곡동, 강서구청)",서울특별시 강서구 화곡동 980-16,37.55096462,126.8495338,770.0,934.0,Y,,02-2600-6990,서울특별시 강서구청,2021-03-22,서울특별시,강서구
우장산롯데캐슬아파트(지하주차장),공공용,"서울특별시 강서구 공항대로 382 (화곡동, 우장산롯데캐슬아파트)",서울특별시 강서구 화곡동 1145,37.55639584,126.8495455,4609.0,5587.0,Y,,02-2600-6990,서울특별시 강서구청,2021-03-22,서울특별시,강서구
우장산롯데아파트(지하주차장),공공용,"서울특별시 강서구 우장산로 92 (화곡동, 우장산롯데아파트)",서울특별시 강서구 화곡동 1148번지,37.55246643,126.8459274,7001.0,8486.0,Y,,02-2600-6990,서울특별시 강서구청,2021-03-22,서울특별시,강서구
우장산한화꿈에그린아파트(지하주차장),공공용,"서울특별시 강서구 우장산로 103 (화곡동, 우장산한화꿈에그린아파트)",서울특별시 강서구 화곡동 1151번지,37.55353473,126.8470977,741.0,898.0,Y,,02-2600-6990,서울특별시 강서구청,2021-03-22,서울특별시,강서구
KT 화곡지사(지하주차장),공공용,서울특별시 강서구 강서로5길 64 (화곡동),서울특별시 강서구 화곡동 893-1,37.52954477,126.8485224,1126.0,1365.0,Y,,02-2600-6990,서울특별시 강서구청,2021-03-22,서울특별시,강서구
현대그린아파트(지하주차장),공공용,"서울특별시 강서구 곰달래로26길 15 (화곡동, 현대그린아파트)",서울특별시 강서구 화곡동 895-6,37.530028,126.849441,320.0,388.0,Y,,02-2600-6990,서울특별시 강서구청,2021-03-22,서울특별시,강서구
국민은행(지하주차장),공공용,서울특별시 강서구 곰달래로 133 (화곡동),서울특별시 강서구 화곡동 342-38,37.53084113,126.847656,769.0,932.0,Y,,02-2600-6990,서울특별시 강서구청,2021-03-22,서울특별시,강서구
화곡판타지아(지하주차장),공공용,"서울특별시 강서구 강서로 52 (화곡동, 화곡판타지아)",서울특별시 강서구 화곡동 341-65,37.532424,126.846614,1553.0,1882.0,Y,,02-2600-6990,서울특별시 강서구청,2021-03-22,서울특별시,강서구
탑건아파트(지하주차장),공공용,"서울특별시 강서구 초록마을로 166 (화곡동, 탑건진선미아파트)",서울특별시 강서구 화곡동 404-1,37.5362127,126.846116,2792.0,3384.0,Y,,02-2600-6990,서울특별시 강서구청,2021-03-22,서울특별시,강서구
태승훼미리아파트(지하주차장),공공용,"서울특별시 강서구 국회대로7길 175 (화곡동, 태승훼미리아파트)",서울특별시 강서구 화곡동 887-1,37.52879839,126.8510762,636.0,771.0,Y,,02-2600-6990,서울특별시 강서구청,2021-03-22,서울특별시,강서구
태창아파트(지하주차장),공공용,"서울특별시 강서구 초록마을로 121 (화곡동, 태창네스트힐아파트)",서울특별시 강서구 화곡동 1146,37.53744749,126.8506788,1071.0,1298.0,Y,,02-2600-6990,서울특별시 강서구청,2021-03-22,서울특별시,강서구
곰달래문화복지센터(지하주차장),공공용,"서울특별시 강서구 강서로5길 50 (화곡동, 복지문화센터및공영주차장)",서울특별시 강서구 화곡동 890,37.529009,126.848862,6821.0,8268.0,Y,,02-2600-6990,서울특별시 강서구청,2021-03-22,서울특별시,강서구
우장산힐스테이트(지하주차장),공공용,"서울특별시 강서구 강서로 348 (내발산동, 우장산힐스테이트)",서울특별시 강서구 내발산동 657,37.55707985,126.8380817,8704.0,10550.0,Y,,02-2600-6990,서울특별시 강서구청,2021-03-22,서울특별시,강서구
우장산아이파크이편한세상아파트(지하주차장),공공용,"서울특별시 강서구 강서로 266 (화곡동, 우장산아이파크이편한세상아파트)",서울특별시 강서구 화곡동 1159,37.54826122,126.8409796,9967.0,12082.0,Y,,02-2600-6990,서울특별시 강서구청,2021-03-22,서울특별시,강서구
우장산휴먼빌아파트(지하주차장),공공용,"서울특별시 강서구 우현로 18 (화곡동, 우장산휴먼빌아파트)",서울특별시 강서구 화곡동 81,37.54760181,126.8437693,2071.0,2510.0,Y,,02-2600-6990,서울특별시 강서구청,2021-03-22,서울특별시,강서구
웰튼병원(지하주차장),공공용,서울특별시 강서구 강서로 318 (내발산동),서울특별시 강서구 내발산동 677,37.554001,126.8371512,1005.0,1218.0,Y,,02-2600-6990,서울특별시 강서구청,2021-03-22,서울특별시,강서구
마곡역,공공용,"서울특별시 강서구 공항대로 지하 163 (가양동, 마곡홍보관)",서울특별시 강서구 가양동 769-3,37.56019746,126.8255481,35253.0,42731.0,Y,,02-2600-6990,서울특별시 강서구청,2021-03-22,서울특별시,강서구
동신대아아파트(지하주차장),공공용,"서울특별시 강서구 강서로 532 (가양동, 동신아파트,대아아파트)",서울특별시 강서구 가양동 1457-1,37.5712744,126.8422755,2614.0,3168.0,Y,,02-2600-6990,서울특별시 강서구청,2021-03-22,서울특별시,강서구
일신건영휴먼빌아파트(지하주차장),공공용,"서울특별시 강서구 강서로 490 (가양동, 일신건영휴먼빌아파트)",서울특별시 강서구 가양동 150-8,37.56906101,126.8418681,4524.0,5483.0,Y,,02-2600-6990,서울특별시 강서구청,2021-03-22,서울특별시,강서구
한보구암아파트(지하주차장),공공용,"서울특별시 강서구 허준로 76 (가양동, 한보구암아파트)",서울특별시 강서구 가양동 1495,37.56841399,126.8486565,6183.0,7495.0,Y,,02-2600-6990,서울특별시 강서구청,2021-03-22,서울특별시,강서구
마곡나루역,공공용,서울특별시 강서구 마곡중앙5로 지하 2 (마곡동),서울특별시 강서구 마곡동 760-3,37.566791,126.8275204,8338.0,10107.0,Y,,02-2600-6990,서울특별시 강서구청,2021-03-22,서울특별시,강서구
양천향교역,공공용,서울특별시 강서구 양천로 지하 341 (가양동),서울특별시 강서구 가양동 159-3,37.56876047,126.8408183,6871.0,8328.0,Y,,02-2600-6990,서울특별시 강서구청,2021-03-22,서울특별시,강서구
마곡엠밸리4단지(지하주차장),공공용,"서울특별시 강서구 마곡서로 175 (마곡동, 마곡엠밸리4단지)",서울특별시 강서구 마곡동 738,37.56891669,126.823925,1663.0,2016.0,Y,,02-2600-6990,서울특별시 강서구청,2021-03-22,서울특별시,강서구
기쁜우리복지관,공공용,"서울특별시 강서구 허준로 65 (가양동, 기쁜우리복지관,체육센터)",서울특별시 강서구 가양동 1466,37.56930783,126.848652,699.0,847.0,Y,,02-2600-6990,서울특별시 강서구청,2021-03-22,서울특별시,강서구
가양5종합사회복지관,공공용,"서울특별시 강서구 양천로57길 36 (가양동, 가양5단지아파트)",서울특별시 강서구 가양동 1481,37.56462873,126.8535176,932.0,1130.0,Y,,02-2600-6990,서울특별시 강서구청,2021-03-22,서울특별시,강서구
가양4종합사회복지관,공공용,"서울특별시 강서구 양천로57길 37 (가양동, 가양4단지아파트)",서울특별시 강서구 가양동 1478,37.56593157,126.8520708,576.0,698.0,Y,,02-2600-6990,서울특별시 강서구청,2021-03-22,서울특별시,강서구
대림경동아파트(지하주차장),공공용,"서울특별시 강서구 허준로 121 (가양동, 대림경동아파트)",서울특별시 강서구 가양동 1474,37.56709536,126.8547353,2138.0,2592.0,Y,,02-2600-6990,서울특별시 강서구청,2021-03-22,서울특별시,강서구
홈플러스 가양점,공공용,"서울특별시 강서구 양천로 431 (가양동, 홈플러스가양점)",서울특별시 강서구 가양동 18-24,37.56426387,126.8499598,15095.0,18297.0,Y,,02-2600-6990,서울특별시 강서구청,2021-03-22,서울특별시,강서구
탐라영재관(지하주차장),공공용,"서울특별시 강서구 양천로57길 10-10 (가양동, 탐라영재관)",서울특별시 강서구 가양동 1480-6,37.56284362,126.8525975,15508.0,18798.0,Y,,02-2600-6990,서울특별시 강서구청,2021-03-22,서울특별시,강서구
가양역(지하철9호선),공공용,"서울특별시 강서구 양천로 지하 485 (가양동, 가양역)",서울특별시 강서구 가양동 14-61,37.56155561,126.8543884,11438.0,13864.0,Y,,02-2600-6990,서울특별시 강서구청,2021-03-22,서울특별시,강서구
가양8단지아파트(지하주차장),공공용,"서울특별시 강서구 허준로 176 (가양동, 가양도시개발공사아파트(가양8단지아파트))",서울특별시 강서구 가양동 1482,37.56186131,126.8568099,4396.0,5328.0,Y,,02-2600-6990,서울특별시 강서구청,2021-03-22,서울특별시,강서구
가양9-1단지아파트(지하주차장),공공용,"서울특별시 강서구 허준로 224 (가양동, 가양9단지아파트)",서울특별시 강서구 가양동 1489,37.55999798,126.8628211,6483.0,7858.0,Y,,02-2600-6990,서울특별시 강서구청,2021-03-22,서울특별시,강서구
가양9-2단지아파트(지하주차장),공공용,"서울특별시 강서구 허준로 234 (가양동, 가양9단지아파트)",서울특별시 강서구 가양동 1490,37.55857186,126.8637381,3980.0,4824.0,Y,,02-2600-6990,서울특별시 강서구청,2021-03-22,서울특별시,강서구
가양프라자(지하주차장),공공용,"서울특별시 강서구 허준로 198 (가양동, 가양프라자)",서울특별시 강서구 가양동 1488,37.5612924,126.860222,1063.0,1288.0,Y,,02-2600-6990,서울특별시 강서구청,2021-03-22,서울특별시,강서구
가양6단지아파트(지하주차장),공공용,"서울특별시 강서구 허준로 175 (가양동, 가양6단지아파트)",서울특별시 강서구 가양동 1485,37.56375638,126.8592873,5845.0,7085.0,Y,,02-2600-6990,서울특별시 강서구청,2021-03-22,서울특별시,강서구
발산1동 발산역,공공용,"서울특별시 강서구 공항대로 지하 267 (마곡동, 발산역(5호선))",서울특별시 강서구 마곡동 727-1212,37.55902855,126.8373124,8192.0,9929.0,Y,,02-2600-6990,서울특별시 강서구청,2021-03-22,서울특별시,강서구
발산1동 우장산역,공공용,"서울특별시 강서구 강서로 지하 262 (화곡동, 우장산역 5호선)",서울특별시 강서구 화곡동 1089-3,37.54900101,126.8364107,1960.0,2376.0,Y,,02-2600-6990,서울특별시 강서구청,2021-03-22,서울특별시,강서구
보람아파트(지하주차장),공공용,"서울특별시 강서구 강서로47길 80 (내발산동, 보람아파트)",서울특별시 강서구 내발산동 686-1,37.55313568,126.8319157,2084.0,2526.0,Y,,02-2600-6990,서울특별시 강서구청,2021-03-22,서울특별시,강서구
태승훼미리아파트3차(지하주차장),공공용,"서울특별시 강서구 강서로45길 138 (내발산동, 태승훼미리아파트3차)",서울특별시 강서구 발산1동 732,37.551368,126.831459,1156.0,1401.0,Y,,02-2600-6990,서울특별시 강서구청,2021-03-22,서울특별시,강서구
대성유니드아파트(지하주차장),공공용,"서울특별시 강서구 강서로45길 104 (내발산동, 대성유니트아파트)",서울특별시 강서구 발산1동 712-2,37.550003,126.832167,1395.0,1691.0,Y,,02-2600-6990,서울특별시 강서구청,2021-03-22,서울특별시,강서구
강성레스트빌아파트(지하주차장),공공용,"서울특별시 강서구 강서로45라길 52 (내발산동, 강성레스트빌아파트)",서울특별시 강서구 내발산동 717-20,37.549853,126.8345846,1048.0,1270.0,Y,,02-2600-6990,서울특별시 강서구청,2021-03-22,서울특별시,강서구
그린씨티아파트(지하주차장),공공용,"서울특별시 강서구 강서로47라길 79 (내발산동, 그린씨티아파트)",서울특별시 강서구 내발산동 716-16,37.54964166,126.8332181,988.0,1198.0,Y,,02-2600-6990,서울특별시 강서구청,2021-03-22,서울특별시,강서구
마곡수명산파크1단지(지하주차장),공공용,"서울특별시 강서구 강서로47길 108 (내발산동, 마곡수명산파크1단지아파트)",서울특별시 강서구 발산1동 742,37.55356618,126.830534,5627.0,6821.0,Y,,02-2600-6990,서울특별시 강서구청,2021-03-22,서울특별시,강서구
마곡수명산파크2단지(지하주차장),공공용,"서울특별시 강서구 강서로47길 158 (내발산동, 마곡수명산파크2단지아파트)",서울특별시 강서구 발산1동 741,37.55385752,126.8276407,2491.0,3019.0,Y,,02-2600-6990,서울특별시 강서구청,2021-03-22,서울특별시,강서구
마곡수명산파크3단지(지하주차장),공공용,"서울특별시 강서구 수명로1길 110 (내발산동, 마곡수명산파크3단지아파트)",서울특별시 강서구 내발산동 751,37.55185659,126.8247075,2051.0,2486.0,Y,,02-2600-6990,서울특별시 강서구청,2021-03-22,서울특별시,강서구
마곡수명산파크4단지(지하주차장),공공용,"서울특별시 강서구 수명로1길 16 (내발산동, 마곡수명산파크4단지아파트)",서울특별시 강서구 내발산동 753,37.552048,126.8225614,3639.0,4411.0,Y,,02-2600-6990,서울특별시 강서구청,2021-03-22,서울특별시,강서구
마곡수명산파크5단지(지하주차장),공공용,"서울특별시 강서구 수명로2길 105 (내발산동, 마곡수명산파크5단지아파트)",서울특별시 강서구 내발산동 749,37.55158692,126.8275826,3754.0,4550.0,Y,,02-2600-6990,서울특별시 강서구청,2021-03-22,서울특별시,강서구
마곡수명산파크6단지(지하주차장),공공용,"서울특별시 강서구 수명로2길 63 (내발산동, 마곡수명산파크6단지아파트)",서울특별시 강서구 발산1동 759,37.54987605,126.8258211,1580.0,1915.0,Y,,02-2600-6990,서울특별시 강서구청,2021-03-22,서울특별시,강서구
마곡수명산파크7단지(지하주차장),공공용,"서울특별시 강서구 수명로2가길 22 (내발산동, 마곡수명산파크7단지아파트)",서울특별시 강서구 발산1동 745,37.54766459,126.8219199,2546.0,3086.0,Y,,02-2600-6990,서울특별시 강서구청,2021-03-22,서울특별시,강서구
마곡수명산파크8단지(지하주차장),공공용,"서울특별시 강서구 수명로2길 108 (내발산동, 마곡수명산파크8단지아파트)",서울특별시 강서구 내발산동 745,37.55117442,126.8289279,4453.0,5398.0,Y,,02-2600-6990,서울특별시 강서구청,2021-03-22,서울특별시,강서구
마곡엠밸리14단지(지하주차장),공공용,"서울특별시 강서구 마곡중앙로 33 (마곡동, 마곡엠밸리14단지)",서울특별시 강서구 마곡동 750,37.55805092,126.8240818,5029.0,6096.0,Y,,02-2600-6990,서울특별시 강서구청,2021-03-22,서울특별시,강서구
마곡엠밸리15단지(지하주차장),공공용,"서울특별시 강서구 마곡중앙로 36 (마곡동, 마곡엠밸리15단지)",서울특별시 강서구 내발산동 350-1,37.55731685,126.8273023,4637.0,5621.0,Y,,02-2600-6990,서울특별시 강서구청,2021-03-22,서울특별시,강서구
공항동 송정역,공공용,"서울특별시 강서구 공항대로 지하 33 (공항동, 송정역(5호선))",서울특별시 강서구 공항동 29-5,37.5614762,126.8110578,6515.0,7897.0,Y,,02-2600-6990,서울특별시 강서구청,2021-03-22,서울특별시,강서구
공항시장역,공공용,"서울특별시 강서구 방화동로 지하 30 (공항동, 공항시장역(9호선))",서울특별시 강서구 공항동 20-2,37.56355479,126.810401,10692.0,12960.0,Y,,02-2600-6990,서울특별시 강서구청,2021-03-22,서울특별시,강서구
강서센트레빌4차아파트(지하주차장),공공용,"서울특별시 강서구 남부순환로 11 (공항동, 강서센트레빌4차)",서울특별시 강서구 공항동 1374,37.56106413,126.808022,8833.0,10707.0,Y,,02-2600-6990,서울특별시 강서구청,2021-03-22,서울특별시,강서구
마곡엠밸리10단지(지하주차장),공공용,"서울특별시 강서구 마곡중앙1로 72 (마곡동, 마곡엠밸리10단지)",서울특별시 강서구 방화동 210-10,37.55899972,126.8199372,2178.0,2640.0,Y,,02-2600-6990,서울특별시 강서구청,2021-03-22,서울특별시,강서구
마곡엠밸리11단지(지하주차장),공공용,서울특별시 강서구 공항대로 124(마곡동),서울특별시 강서구 마곡동 746,37.55941552,126.8208145,1374.0,1666.0,Y,,02-2600-6990,서울특별시 강서구청,2021-03-22,서울특별시,강서구
마곡엠밸리12단지(지하주차장),공공용,서울특별시 강서구 공항대로 140 (마곡동),서울특별시 강서구 마곡동 746-1,37.55919935,126.8232506,1437.0,1742.0,Y,,02-2600-6990,서울특별시 강서구청,2021-03-22,서울특별시,강서구
마곡13단지힐스테이트마스터(지하주차장),공공용,서울특별시 강서구 마곡중앙1로 71 (마곡동),서울특별시 강서구 마곡동 748,37.55690985,126.8178734,1194.0,1447.0,Y,,02-2600-6990,서울특별시 강서구청,2021-03-22,서울특별시,강서구
공항초등학교(지하주차장),공공용,"서울특별시 강서구 마곡서1로 68 (마곡동, 서울공항초등학교)",서울특별시 강서구 마곡동 743-5,37.56308924,126.8216478,1753.0,2125.0,Y,,02-2600-6990,서울특별시 강서구청,2021-03-22,서울특별시,강서구
동부센트레빌아파트(지하주차장),공공용,"서울특별시 강서구 방화대로45길 32 (방화동, 동부센트레빌아파트)",서울특별시 강서구 방화동 875,37.57440124,126.814068,804.0,974.0,Y,,02-2600-6990,서울특별시 강서구청,2021-03-22,서울특별시,강서구
마곡푸르지오아파트(지하주차장),공공용,"서울특별시 강서구 방화대로34길 88 (방화동, 마곡푸르지오)",서울특별시 강서구 방화동 890,37.57038301,126.8211957,1350.0,1637.0,Y,,02-2600-6990,서울특별시 강서구청,2021-03-22,서울특별시,강서구
신방화역(도시철도9호선),공공용,"서울특별시 강서구 방화대로 지하 301 (방화동, 신방화역)",서울특별시 강서구 방화동 217-156,37.56768367,126.8165251,8840.0,10715.0,Y,,02-2600-6990,서울특별시 강서구청,2021-03-22,서울특별시,강서구
삼정아파트(지하주차장),공공용,"서울특별시 강서구 방화동로 126 (방화동, 삼정아파트)",서울특별시 강서구 방화동 567-4,37.571927,126.8119278,4410.0,5346.0,Y,,02-2600-6990,서울특별시 강서구청,2021-03-22,서울특별시,강서구
개화산역,공공용,"서울특별시 강서구 양천로 22 (방화동, 개화산역)",서울특별시 강서구 방화동 846,37.57226912,126.8060016727,3498.0,4239.0,Y,,02-2600-6990,서울특별시 강서구청,2021-03-22,서울특별시,강서구
김포공항역(5호선),공공용,"서울특별시 강서구 하늘길 지하 77 (방화동, 김포공항역)",서울특별시 강서구 방화동 886,37.56214539,126.8015713,7534.0,9132.0,Y,,02-2600-6990,서울특별시 강서구청,2021-03-22,서울특별시,강서구
방신서광아파트(101동 지하주차장),공공용,"서울특별시 강서구 양천로14길 17, 101동 (방화동, 방신서광아파트)",서울특별시 강서구 방화동 871,37.57236301,126.8105549,3747.0,4542.0,Y,,02-2600-6990,서울특별시 강서구청,2021-03-22,서울특별시,강서구
김포공항역(9호선),공공용,"서울특별시 강서구 하늘길 지하 77 (방화동, 김포공항역)",서울특별시 강서구 방화동 886,37.56214539,126.8015713,25773.0,31240.0,Y,,02-2600-6990,서울특별시 강서구청,2021-03-22,서울특별시,강서구
신안네트빌1단지(지하주차장),공공용,"서울특별시 강서구 양천로14길 37, 102동 (방화동, 신안네트빌1단지)",서울특별시 강서구 방화동 565-4,37.57156612,126.8102988,4604.0,5581.0,Y,,02-2600-6990,서울특별시 강서구청,2021-03-22,서울특별시,강서구
신안네트빌2단지(201동 지하주차장),공공용,"서울특별시 강서구 양천로14길 61 (방화동, 신안2단지아파트)",서울특별시 강서구 방화동 869,37.570238,126.8095778,1607.0,1948.0,Y,,02-2600-6990,서울특별시 강서구청,2021-03-22,서울특별시,강서구
방화역(지하),공공용,"서울특별시 강서구 금낭화로 지하 132 (방화동, 방화역 5호선)",서울특별시 강서구 방화동 829-15,37.57700464,126.8126306,2390.0,2897.0,Y,,02-2600-6990,서울특별시 강서구청,2021-03-22,서울특별시,강서구
방화1단지장미아파트(101동 지하주차장),공공용,"서울특별시 강서구 양천로 125 (방화동, 장미아파트)",서울특별시 강서구 방화동 841,37.57384758,126.8172435,1719.0,2084.0,Y,,02-2600-6990,서울특별시 강서구청,2021-03-22,서울특별시,강서구
방화2-1단지아파트(201동 지하주차장),공공용,"서울특별시 강서구 방화대로48길 40 (방화동, 방화2단지아파트)",서울특별시 강서구 방화동 839,37.57424491,126.8201677,1279.0,1550.0,Y,,02-2600-6990,서울특별시 강서구청,2021-03-22,서울특별시,강서구
방화2-2단지아파트(214동 지하주차장),공공용,"서울특별시 강서구 방화대로48길 40 (방화동, 방화2단지아파트)",서울특별시 강서구 방화동 839,37.57424491,126.8201677,2557.0,3099.0,Y,,02-2600-6990,서울특별시 강서구청,2021-03-22,서울특별시,강서구
방화3단지아파트(301동 지하주차장),공공용,"서울특별시 강서구 방화대로47길 55 (방화동, 방화3단지아파트)",서울특별시 강서구 방화동 832,37.575931,126.8124023,2190.0,2655.0,Y,,02-2600-6990,서울특별시 강서구청,2021-03-22,서울특별시,강서구
방화4단지아파트(401동 지하주차장),공공용,"서울특별시 강서구 방화대로47가길 22 (방화동, 방화4단지아파트)",서울특별시 강서구 방화동 831,37.57710048,126.8139798,997.0,1209.0,Y,,02-2600-6990,서울특별시 강서구청,2021-03-22,서울특별시,강서구
방화5단지아파트(501동 지하주차장),공공용,"서울특별시 강서구 금낭화로 287-19 (방화동, 방화5단지아파트)",서울특별시 강서구 방화동 814,37.57680268,126.8102855,2936.0,3558.0,Y,,02-2600-6990,서울특별시 강서구청,2021-03-22,서울특별시,강서구
방화6단지아파트(604동 지하주차장),공공용,"서울특별시 강서구 금낭화로23길 25 (방화동, 방화6단지아파트)",서울특별시 강서구 방화동 816,37.578139,126.811221,2645.0,3206.0,Y,,02-2600-6990,서울특별시 강서구청,2021-03-22,서울특별시,강서구
방화7단지동성아파트(지하주차장),공공용,"서울특별시 강서구 금낭화로23길 8 (방화동, 방화7단지동성아파트)",서울특별시 강서구 방화동 817,37.57940843,126.8125929,6369.0,7721.0,Y,,02-2600-6990,서울특별시 강서구청,2021-03-22,서울특별시,강서구
방화8단지개화아파트(103동 지하주차장),공공용,"서울특별시 강서구 금낭화로 167 (방화동, 방화8단지개화아파트)",서울특별시 강서구 방화동 819,37.58094856,126.8133725,3868.0,4688.0,Y,,02-2600-6990,서울특별시 강서구청,2021-03-22,서울특별시,강서구
방화9단지아파트(902동 지하주차장),공공용,"서울특별시 강서구 양천로11길 57 (방화동, 방화9단지아파트)",서울특별시 강서구 방화동 807-6,37.574604,126.807171,936.0,1134.0,Y,,02-2600-6990,서울특별시 강서구청,2021-03-22,서울특별시,강서구
방화10단지진로아파트(지하주차장),공공용,"서울특별시 강서구 금낭화로 258 (방화동, 방화10단지진로아파트)",서울특별시 강서구 방화동 804,37.57665887,126.8082753,4023.0,4877.0,Y,,02-2600-6990,서울특별시 강서구청,2021-03-22,서울특별시,강서구
금강프라자빌딩(지하주차장),공공용,"서울특별시 강서구 금낭화로 135 (방화동, 금강프라자빌딩)",서울특별시 강서구 방화동 829-4,37.577459,126.8124393,3471.0,4207.0,Y,,02-2600-6990,서울특별시 강서구청,2021-03-22,서울특별시,강서구
치현마을서광아파트(105동 지하주차장),공공용,"서울특별시 강서구 양천로27길 129 (방화동, 치현마을서광아파트)",서울특별시 강서구 방화동 860,37.57892905,126.8194953,8314.0,10078.0,Y,,02-2600-6990,서울특별시 강서구청,2021-03-22,서울특별시,강서구
방화1단지장미아파트(103동 지하주차장),공공용,"서울특별시 강서구 양천로 125 (방화동, 장미아파트)",서울특별시 강서구 방화동 841,37.57384758,126.8172435,1719.0,2084.0,Y,,02-2600-6990,서울특별시 강서구청,2021-03-22,서울특별시,강서구
방화2-1단지아파트(204동 지하주차장),공공용,"서울특별시 강서구 방화대로48길 40 (방화동, 방화2단지아파트)",서울특별시 강서구 방화동 839,37.57424491,126.820127,1279.0,1550.0,Y,,02-2600-6990,서울특별시 강서구청,2021-03-22,서울특별시,강서구
방화2-1단지아파트(211동 지하주차장),공공용,"서울특별시 강서구 방화대로48길 40 (방화동, 방화2단지아파트)",서울특별시 강서구 방화동 839,37.57424491,126.8201677,1279.0,1550.0,Y,,02-2600-6990,서울특별시 강서구청,2021-03-22,서울특별시,강서구
방화2-1단지아파트(212동 지하주차장),공공용,"서울특별시 강서구 방화대로48길 40 (방화동, 방화2단지아파트)",서울특별시 강서구 방화동 839,37.57424491,126.8201677,1279.0,1550.0,Y,,02-2600-6990,서울특별시 강서구청,2021-03-22,서울특별시,강서구
방화2-2단지아파트(217동 지하주차장),공공용,"서울특별시 강서구 방화대로48길 40 (방화동, 방화2단지아파트)",서울특별시 강서구 방화동 839,37.57424491,126.8201677,1278.0,1549.0,Y,,02-2600-6990,서울특별시 강서구청,2021-03-22,서울특별시,강서구
방화3단지아파트(303동 지하주차장),공공용,"서울특별시 강서구 방화대로47길 55 (방화동, 방화3단지아파트)",서울특별시 강서구 방화동 832,37.57594111,126.8124023,2190.0,2655.0,Y,,02-2600-6990,서울특별시 강서구청,2021-03-22,서울특별시,강서구
방화4단지아파트(402동 지하주차장),공공용,"서울특별시 강서구 방화대로47가길 22 (방화동, 방화4단지아파트)",서울특별시 강서구 방화동 831,37.57710048,126.8139798,997.0,1209.0,Y,,02-2600-6990,서울특별시 강서구청,2021-03-22,서울특별시,강서구
방화4단지아파트(404동 지하주차장),공공용,"서울특별시 강서구 방화대로47가길 22 (방화동, 방화4단지아파트)",서울특별시 강서구 방화동 831,37.57710048,126.813921,997.0,1209.0,Y,,02-2600-6990,서울특별시 강서구청,2021-03-22,서울특별시,강서구
방화4단지아파트(406동 지하주차장),공공용,"서울특별시 강서구 방화대로47가길 22 (방화동, 방화4단지아파트)",서울특별시 강서구 방화동 831,37.57710048,126.8139798,997.0,1209.0,Y,,02-2600-6990,서울특별시 강서구청,2021-03-22,서울특별시,강서구
방화4단지아파트(410동 지하주차장),공공용,"서울특별시 강서구 방화대로47가길 22 (방화동, 방화4단지아파트)",서울특별시 강서구 방화동 831,37.57710048,126.8139798,997.0,1209.0,Y,,02-2600-6990,서울특별시 강서구청,2021-03-22,서울특별시,강서구
방화4단지아파트(412동 지하주차장),공공용,"서울특별시 강서구 방화대로47가길 22 (방화동, 방화4단지아파트)",서울특별시 강서구 방화동 831,37.57710048,126.8139798,997.0,1209.0,Y,,02-2600-6990,서울특별시 강서구청,2021-03-22,서울특별시,강서구
방화5단지아파트(502동 지하주차장),공공용,"서울특별시 강서구 금낭화로 287-19 (방화동, 방화5단지아파트)",서울특별시 강서구 방화동 814,37.57680268,126.8102855,2936.0,3558.0,Y,,02-2600-6990,서울특별시 강서구청,2021-03-22,서울특별시,강서구
방화5단지아파트(504동 지하주차장),공공용,"서울특별시 강서구 금낭화로 287-19 (방화동, 방화5단지아파트)",서울특별시 강서구 방화동 814,37.57680268,126.8102855,2936.0,3558.0,Y,,02-2600-6990,서울특별시 강서구청,2021-03-22,서울특별시,강서구
방화5단지아파트(506동 지하주차장),공공용,"서울특별시 강서구 금낭화로 287-19 (방화동, 방화5단지아파트)",서울특별시 강서구 방화동 814,37.57680268,126.8102855,2936.0,3558.0,Y,,02-2600-6990,서울특별시 강서구청,2021-03-22,서울특별시,강서구
방화8단지개화아파트(105동 지하주차장),공공용,"서울특별시 강서구 금낭화로 167 (방화동, 방화8단지개화아파트)",서울특별시 강서구 방화동 102,37.58094856,126.8133725,3868.0,4688.0,Y,,02-2600-6990,서울특별시 강서구청,2021-03-22,서울특별시,강서구
방화8단지개화아파트(106동 지하주차장),공공용,"서울특별시 강서구 금낭화로 167 (방화동, 방화8단지개화아파트)",서울특별시 강서구 방화동 102,37.580963,126.8133725,3868.0,4688.0,Y,,02-2600-6990,서울특별시 강서구청,2021-03-22,서울특별시,강서구
코오롱인더스트리(주) 지하주차장,공공용,서울특별시 강서구 마곡동로 110,서울특별시 강서구 마곡동 788,37.5646075275,126.8348562906,12243.0,14840.0,Y,,02-2600-6990,서울특별시 강서구청,2021-03-22,서울특별시,강서구
LG사이언스파크 동측 2 지하주차장,공공용,서울특별시 강서구 마곡중앙10로 70,서울특별시 강서구 마곡동 789,37.5630473074,126.8344299722,101033.0,122464.0,Y,,02-2600-6990,서울특별시 강서구청,2021-03-22,서울특별시,강서구
LG사이언스파크 동측 1 지하주차장,공공용,서울특별시 강서구 마곡중앙10로 30,서울특별시 강서구 마곡동 770,37.5634030851,126.8312303428,106725.0,129364.0,Y,,02-2600-6990,서울특별시 강서구청,2021-03-22,서울특별시,강서구
LG사이언스파크 서측 지하주차장,공공용,서울특별시 강서구 마곡중앙10로 10,서울특별시 강서구 마곡동 770,37.5634974316,126.8302334193,72126.0,87425.0,Y,,02-2600-6990,서울특별시 강서구청,2021-03-22,서울특별시,강서구
서울큰나무병원,공공용,서울특별시 강서구 강서로 206,서울특별시 강서구 화곡동 1026-12,37.5445253885,126.8380428489,1831.0,2219.0,Y,,02-2600-6990,서울특별시 강서구청,2021-03-22,서울특별시,강서구
이대서울병원 지하주차장,공공용,서울특별시 강서구 공항대로 260,서울특별시 강서구 마곡동 808,37.5572628621,126.8362668291,75008.0,90919.0,Y,,02-2600-6990,서울특별시 강서구청,2021-03-22,서울특별시,강서구
(주)대교,공공용,서울특별시 관악구 보라매로3길 23 (봉천동),,37.49104464,126.9255211,13389.0,15728.0,Y,주차장,02-879-5824,서울특별시 관악구청,2021-03-10,서울특별시,관악구
J타워웨딩홀(구 관악웨딩문화원),공공용,"서울특별시 관악구 남부순환로 1440 (신림동, 제이타워웨딩홀)",,37.480737,126.9107319,1388.44,1680.0,Y,주차장,02-879-5824,서울특별시 관악구청,2021-03-10,서울특별시,관악구
KT 구로지사 지하주차장,공공용,서울특별시 관악구 조원중앙로1길 26 (신림동),,37.48066717,126.9035775,1208.0,1464.0,Y,주차장,02-879-5824,서울특별시 관악구청,2021-03-10,서울특별시,관악구
KT관악지사(지하통로및체력단련실),공공용,"서울특별시 관악구 청룡1길 34 (봉천동, KT관악지사)",,37.48068443,126.9483856,310.0,375.0,Y,지하통로 및 체력단련실,02-879-5824,서울특별시 관악구청,2021-03-10,서울특별시,관악구
sk허브그린,공공용,"서울특별시 관악구 신림로 344 (신림동, SK허브그린)",,37.4851082,126.9299666,2981.0,3613.0,Y,주차장,02-879-5824,서울특별시 관악구청,2021-03-10,서울특별시,관악구
ywca(봉천종합사회복지관)지하,공공용,서울특별시 관악구 관악로 254 (봉천동),,37.4866852,126.9575184,132.23,292.0,Y,주차장,02-879-5824,서울특별시 관악구청,2021-03-10,서울특별시,관악구
가야위드안,공공용,"서울특별시 관악구 봉천로12길 39 (신림동, 가야위드안)",,37.48699291,126.9301273,8210.0,9951.0,Y,주차장,02-879-5824,서울특별시 관악구청,2021-03-10,서울특별시,관악구
갑을아파트(지하주차장),공공용,"서울특별시 관악구 관악로5길 42 (봉천동, 갑을아파트)",,37.4750853,126.9520895,2433.07,2949.0,Y,주차장,02-879-5824,서울특별시 관악구청,2021-03-10,서울특별시,관악구
강원학사,공공용,"서울특별시 관악구 난곡로30길 61 (신림동, 강원학사)",,37.4708291,126.9236534,198.0,240.0,Y,체육관,02-879-5824,서울특별시 관악구청,2021-03-10,서울특별시,관악구
건영4차아파트 지하주차장,공공용,"서울특별시 관악구 신림로48길 17-20 (신림동, 신림건영4차아파트)",,37.47985877,126.9333131,1399.0,1696.0,Y,주차장,02-879-5824,서울특별시 관악구청,2021-03-10,서울특별시,관악구
건영신림5차아파트,공공용,"서울특별시 관악구 신림로3가길 45-10 (신림동, 건영신림5차아파트)",,37.4681048,126.9418288,1893.76,2295.0,Y,주차장,02-879-5824,서울특별시 관악구청,2021-03-10,서울특별시,관악구
건영아파트,공공용,-,서울특별시 관악구 신림동 721-2,37.4717994044,126.9177179824,1200.01,1452.0,Y,주차장,02-879-5824,서울특별시 관악구청,2021-03-10,서울특별시,관악구
건영유치원,공공용,"서울특별시 관악구 조원로 114 (신림동, 건영유치원)",,37.4848357,126.9149082,631.0,2524.0,Y,주차장,02-879-5824,서울특별시 관악구청,2021-03-10,서울특별시,관악구
경동제약,공공용,서울특별시 관악구 남부순환로 1926 (봉천동),,37.47681922,126.9631325,1363.0,1652.0,Y,주차장,02-879-5824,서울특별시 관악구청,2021-03-10,서울특별시,관악구
공장지하,공공용,서울특별시 관악구 남부순환로 1521 (신림동),,37.4830056,126.9196191,343.0,343.0,Y,주차장,02-879-5824,서울특별시 관악구청,2021-03-10,서울특별시,관악구
관악 위버폴리스,공공용,"서울특별시 관악구 관악로 195 (봉천동, 관악위버폴리스)",,37.48256409,126.9530968,9062.0,10984.0,Y,주차장,02-879-5824,서울특별시 관악구청,2021-03-10,서울특별시,관악구
관악구 평생학습관,공공용,"서울특별시 관악구 남부순환로 1546 (신림동, 관악구평생학습관)",,37.4829104,126.9224155,295.0,357.0,Y,주차장,02-879-5824,서울특별시 관악구청,2021-03-10,서울특별시,관악구
관악구청 청사(지하주차장),공공용,"서울특별시 관악구 관악로 145 (봉천동, 관악구청)",,37.47820977,126.9515032,11956.0,14492.0,Y,주차장,02-879-5824,서울특별시 관악구청,2021-03-10,서울특별시,관악구
관악동부센트레빌,공공용,서울특별시 관악구 은천로33길 5 (봉천동),,37.4873001209,126.950154,15459.0,16000.0,Y,주차장,02-879-5824,서울특별시 관악구청,2021-03-10,서울특별시,관악구
관악드림타운(아) 주차장1,공공용,"서울특별시 관악구 성현로 80 (봉천동, 관악드림타운아파트)",,37.4898478,126.9529837,5980.0,7236.0,Y,주차장,02-879-5824,서울특별시 관악구청,2021-03-10,서울특별시,관악구
관악드림타운(아) 주차장10,공공용,서울특별시 관악구 성현로 80 (봉천동),,37.4898478,126.9529837,2821.0,3412.0,Y,주차장,02-879-5824,서울특별시 관악구청,2021-03-10,서울특별시,관악구
관악드림타운(아) 주차장11,공공용,서울특별시 관악구 성현로 80 (봉천동),,37.4898478,126.9529837,4915.72,5948.0,Y,주차장,02-879-5824,서울특별시 관악구청,2021-03-10,서울특별시,관악구
관악드림타운(아) 주차장12,공공용,서울특별시 관악구 성현로 80 (봉천동),,37.4898478,126.9529837,19656.29,23784.0,Y,주차장,02-879-5824,서울특별시 관악구청,2021-03-10,서울특별시,관악구
관악드림타운(아) 주차장13,공공용,서울특별시 관악구 성현로 80 (봉천동),,37.4898478,126.9529837,16579.0,20060.0,Y,주차장,02-879-5824,서울특별시 관악구청,2021-03-10,서울특별시,관악구
관악드림타운(아) 주차장14,공공용,서울특별시 관악구 성현로 80 (봉천동),,37.4898478,126.9529837,4897.0,5924.0,Y,주차장,02-879-5824,서울특별시 관악구청,2021-03-10,서울특별시,관악구
관악드림타운(아) 주차장15,공공용,서울특별시 관악구 성현로 80 (봉천동),,37.4898478,126.9529837,2489.27,3012.0,Y,주차장,02-879-5824,서울특별시 관악구청,2021-03-10,서울특별시,관악구
관악드림타운(아) 주차장2,공공용,서울특별시 관악구 성현로 80 (봉천동),,37.4898478,126.9529837,6397.0,6500.0,Y,주차장,02-879-5824,서울특별시 관악구청,2021-03-10,서울특별시,관악구
관악드림타운(아) 주차장3,공공용,서울특별시 관악구 성현로 80 (봉천동),,37.4898478,126.9529837,9108.0,11020.0,Y,주차장,02-879-5824,서울특별시 관악구청,2021-03-10,서울특별시,관악구
관악드림타운(아) 주차장4,공공용,서울특별시 관악구 성현로 80 (봉천동),,37.4898478,126.9529837,11002.0,13312.0,Y,주차장,02-879-5824,서울특별시 관악구청,2021-03-10,서울특별시,관악구
관악드림타운(아) 주차장5,공공용,서울특별시 관악구 성현로 80 (봉천동),,37.4898478,126.9529837,6377.0,7716.0,Y,주차장,02-879-5824,서울특별시 관악구청,2021-03-10,서울특별시,관악구
관악드림타운(아) 주차장6,공공용,서울특별시 관악구 성현로 80 (봉천동),,37.4898478,126.9529837,10911.0,13200.0,Y,주차장,02-879-5824,서울특별시 관악구청,2021-03-10,서울특별시,관악구
관악드림타운(아) 주차장7,공공용,서울특별시 관악구 성현로 80 (봉천동),,37.4898478,126.9529837,4922.0,5000.0,Y,주차장,02-879-5824,서울특별시 관악구청,2021-03-10,서울특별시,관악구
관악드림타운(아) 주차장8,공공용,서울특별시 관악구 성현로 80 (봉천동),,37.4898478,126.9529837,12283.0,14860.0,Y,주차장,02-879-5824,서울특별시 관악구청,2021-03-10,서울특별시,관악구
관악드림타운(아) 주차장9,공공용,서울특별시 관악구 성현로 80 (봉천동),,37.4898478,126.9529837,19911.0,24092.0,Y,주차장,02-879-5824,서울특별시 관악구청,2021-03-10,서울특별시,관악구
관악드림타운임대(아) 주차장 16 (145동),공공용,"서울특별시 관악구 구암길 106 (봉천동, 관악드림타운아파트)",,37.4912804,126.9486633,6161.0,6300.0,Y,주차장,02-879-5824,서울특별시 관악구청,2021-03-10,서울특별시,관악구
관악드림타운임대(아)주차장17(147동),공공용,"서울특별시 관악구 구암길 106 (봉천동, 관악드림타운아파트)",,37.4912804,126.9486633,1998.0,2000.0,Y,주차장,02-879-5824,서울특별시 관악구청,2021-03-10,서울특별시,관악구
"관악드림타운임대(아)주차장18 (146동,148동,149동)",공공용,서울특별시 관악구 구암길 106 (봉천동),,37.4912804,126.9486633,18407.0,20000.0,Y,주차장,02-879-5824,서울특별시 관악구청,2021-03-10,서울특별시,관악구
관악로 지하보도,공공용,서울특별시 관악구 관악로 268 (봉천동),,37.48792523,126.9582546,661.16,545.0,Y,지하보도,02-879-5824,서울특별시 관악구청,2021-03-10,서울특별시,관악구
관악문화관도서관,공공용,"서울특별시 관악구 신림로3길 35 (신림동, 관악문화관도서관)",,37.46759657,126.9448723,1929.11,2338.0,Y,주차장,02-879-5824,서울특별시 관악구청,2021-03-10,서울특별시,관악구
관악산휴먼시아 아파트(임대),공공용,"서울특별시 관악구 난곡로 63 (신림동, 관악산휴먼시아아파트)",,37.46106168,126.9186042,6778.0,8215.0,Y,주차장,02-879-5824,서울특별시 관악구청,2021-03-10,서울특별시,관악구
관악산휴먼시아아파트(1단지),공공용,서울특별시 관악구 난곡로 30 (신림동),,37.46221305,126.9210761,9400.0,11393.0,Y,주차장,02-879-5824,서울특별시 관악구청,2021-03-10,서울특별시,관악구
"관악산휴먼시아아파트(201동-203동, 206동)",공공용,"서울특별시 관악구 난곡로 55 (신림동, 관악산휴먼시아아파트)",,37.45974045,126.9207531,9461.0,11467.0,Y,주차장,02-879-5824,서울특별시 관악구청,2021-03-10,서울특별시,관악구
"관악산휴먼시아아파트(205동,207동-209동)",공공용,"서울특별시 관악구 난곡로 55, 207동 (신림동)",,37.45974045,126.9207531,7091.0,8595.0,Y,주차장,02-879-5824,서울특별시 관악구청,2021-03-10,서울특별시,관악구
"관악산휴먼시아아파트(210동-211동, 217동)",공공용,서울특별시 관악구 난곡로 55 (신림동),,37.45974045,126.9207531,3373.0,4088.0,Y,주차장,02-879-5824,서울특별시 관악구청,2021-03-10,서울특별시,관악구
관악산휴먼시아아파트(212동-216동),공공용,서울특별시 관악구 난곡로 55 (신림동),,37.45974045,126.9207531,3565.0,4321.0,Y,주차장,02-879-5824,서울특별시 관악구청,2021-03-10,서울특별시,관악구
관악산휴먼시아아파트(218동-219동),공공용,서울특별시 관악구 난곡로 55 (신림동),,37.45974045,126.9207531,3704.0,4489.0,Y,주차장,02-879-5824,서울특별시 관악구청,2021-03-10,서울특별시,관악구
관악산휴먼시아아파트(220동-224동),공공용,서울특별시 관악구 난곡로 55 (신림동),,37.45974045,126.9207531,5247.0,6360.0,Y,주차장,02-879-5824,서울특별시 관악구청,2021-03-10,서울특별시,관악구
"관악산휴먼시아아파트(225동-227동, 232동)",공공용,서울특별시 관악구 난곡로 55 (신림동),,37.45974045,126.9207531,5202.0,6305.0,Y,주차장,02-879-5824,서울특별시 관악구청,2021-03-10,서울특별시,관악구
관악산휴먼시아아파트(228동-231동),공공용,서울특별시 관악구 난곡로 55 (신림동),,37.45974045,126.9207531,5656.0,6855.0,Y,주차장,02-879-5824,서울특별시 관악구청,2021-03-10,서울특별시,관악구
관악세무서 지하,공공용,"서울특별시 관악구 문성로 187 (신림동, 관악세무서)",,37.47933797,126.9243277,288.0,1180.0,Y,주차장,02-879-5824,서울특별시 관악구청,2021-03-10,서울특별시,관악구
관악센추리타워(지하주차장),공공용,"서울특별시 관악구 남부순환로 1808 (봉천동, 관악센츄리타워)",,37.48108916,126.9509179,4042.99,4901.0,Y,주차장,02-879-5824,서울특별시 관악구청,2021-03-10,서울특별시,관악구
관악우정하이비젼아파트1단지,공공용,"서울특별시 관악구 양지길 50-5 (신림동, 관악우정하이비젼아파트1단지)",,37.47143006,126.9290791,2315.0,2315.0,Y,주차장,02-879-5824,서울특별시 관악구청,2021-03-10,서울특별시,관악구
관악우정하이비젼아파트2단지,공공용,"서울특별시 관악구 양지길 52-1 (신림동, 관악우정하이비젼아파트2단지)",,37.47079806,126.9269635,3481.0,4219.0,Y,주차장,02-879-5824,서울특별시 관악구청,2021-03-10,서울특별시,관악구
관악우체국,공공용,"서울특별시 관악구 남부순환로 1643 (신림동, 서울관악우체국)",,37.48501243,126.9331367,3901.0,4728.0,Y,주차장,02-879-5824,서울특별시 관악구청,2021-03-10,서울특별시,관악구
관악청소년회관,공공용,"서울특별시 관악구 신림로23길 17 (신림동, 관악청소년회관)",,37.47024426,126.9352434,905.69,1097.0,Y,기타,02-879-5824,서울특별시 관악구청,2021-03-10,서울특별시,관악구
관악캠퍼스타워(주차장),공공용,서울특별시 관악구 남부순환로 1802 (봉천동),,37.481105,126.950276,3862.0,4681.0,Y,주차장,02-879-5824,서울특별시 관악구청,2021-03-10,서울특별시,관악구
관악푸르지오아파트 2단지 지하대피소,공공용,서울특별시 관악구 청림5길 28 (봉천동),,37.48959459,126.9602008,1619.47,1333.0,Y,주차장,02-879-5824,서울특별시 관악구청,2021-03-10,서울특별시,관악구
관악푸르지오아파트 지하주차장-1,공공용,서울특별시 관악구 관악로30길 27 (봉천동),,37.48896761,126.9606416,9892.11,8111.0,Y,주차장,02-879-5824,서울특별시 관악구청,2021-03-10,서울특별시,관악구
관악푸르지오아파트 지하주차장-2,공공용,서울특별시 관악구 관악로30길 27 (봉천동),,37.48896761,126.9606416,10932.48,9017.0,Y,주차장,02-879-5824,서울특별시 관악구청,2021-03-10,서울특별시,관악구
